[{"id":"4","name":"Alvesta station","lat":56.898911,"lon":14.55679},{"id":"10","name":"Storebro","lat":57.584018,"lon":15.852202},{"id":"17","name":"Fabian Månssons väg","lat":56.112499,"lon":15.470076},{"id":"21","name":"Kinnared","lat":57.026157,"lon":13.105521},{"id":"29","name":"Lönsboda busstation","lat":56.396506,"lon":14.320809},{"id":"33","name":"Eriksmåla","lat":56.734398,"lon":15.480831},{"id":"52","name":"Värnamo Central","lat":57.186075,"lon":14.036212},{"id":"57","name":"Trönninge","lat":56.618003,"lon":12.946501},{"id":"69","name":"Ronneby Resecentrum","lat":56.206433,"lon":15.283852},{"id":"78","name":"Sävsjö station","lat":57.402623,"lon":14.66513},{"id":"86","name":"Vetlanda Resecentrum","lat":57.426349,"lon":15.081305},{"id":"89","name":"Hestra station","lat":57.443141,"lon":13.595897},{"id":"91","name":"Värdshuset, Alstermo","lat":56.973633,"lon":15.659582},{"id":"92","name":"Onsala kyrka","lat":57.413184,"lon":12.020546},{"id":"100","name":"Limmared station","lat":57.535958,"lon":13.353539},{"id":"103","name":"Ingelstad centrum","lat":56.745097,"lon":14.921141},{"id":"104","name":"Kallinge torg","lat":56.246026,"lon":15.286926},{"id":"106","name":"Glasblåsarvägen, Kosta","lat":56.853751,"lon":15.396088},{"id":"112","name":"Gnosjö station","lat":57.35807,"lon":13.735733},{"id":"116","name":"Landeryd station","lat":57.076913,"lon":13.265537},{"id":"117","name":"Lenhovda, Skola","lat":57.000171,"lon":15.284163},{"id":"122","name":"Moheda station","lat":57.002944,"lon":14.575719},{"id":"124","name":"Industrigatan, Norrhult","lat":57.124243,"lon":15.168762},{"id":"131","name":"Gullebovägen, Rottne","lat":57.021331,"lon":14.893026},{"id":"134","name":"Ryd terminal","lat":56.461967,"lon":14.692967},{"id":"136","name":"Strömsnäsbruk","lat":56.550586,"lon":13.732006},{"id":"145","name":"Vislanda station","lat":56.786283,"lon":14.456927},{"id":"152","name":"Väckelsång centrum","lat":56.638334,"lon":14.921043},{"id":"157","name":"Veinge station","lat":56.552828,"lon":13.076749},{"id":"164","name":"Skillingaryd station","lat":57.428559,"lon":14.090837},{"id":"182","name":"Ullared bussterminal","lat":57.136534,"lon":12.716636},{"id":"188","name":"Tvååker centrum","lat":57.041595,"lon":12.398459},{"id":"197","name":"Svängsta centrum","lat":56.263289,"lon":14.770942},{"id":"211","name":"Landskrona Drottninggatan","lat":55.86806,"lon":12.830967},{"id":"212","name":"Reftele station","lat":57.175899,"lon":13.593126},{"id":"213","name":"Oskarshamn station","lat":57.262724,"lon":16.457158},{"id":"224","name":"Träslövsläges kyrka","lat":57.053737,"lon":12.279155},{"id":"225","name":"Tofta station","lat":57.17354,"lon":12.300663},{"id":"227","name":"Skeppshult station","lat":57.126463,"lon":13.360255},{"id":"230","name":"Karlskrona Centralstation","lat":56.166673,"lon":15.585371},{"id":"232","name":"Vaggeryd station","lat":57.498204,"lon":14.145088},{"id":"234","name":"Sennan","lat":56.771823,"lon":12.980033},{"id":"246","name":"Rydöbruk","lat":56.959367,"lon":13.136306},{"id":"247","name":"Knäred station","lat":56.51456,"lon":13.31525},{"id":"252","name":"Hok station","lat":57.513999,"lon":14.27554},{"id":"255","name":"Haverdal Haverdalsvägen","lat":56.726808,"lon":12.665994},{"id":"257","name":"Falkenberg bussterminal","lat":56.902163,"lon":12.488206},{"id":"261","name":"Harplinge","lat":56.744397,"lon":12.724785},{"id":"267","name":"Gullbrandstorp","lat":56.704253,"lon":12.732562},{"id":"269","name":"Getinge centrum","lat":56.819165,"lon":12.733227},{"id":"271","name":"Derome","lat":57.230675,"lon":12.318684},{"id":"285","name":"Anneberg station","lat":57.538651,"lon":12.101359},{"id":"286","name":"Assberg station","lat":57.494454,"lon":12.668828},{"id":"289","name":"Smålandsstenar station","lat":57.161355,"lon":13.414393},{"id":"295","name":"Osby station","lat":56.380586,"lon":13.995503},{"id":"311","name":"Malmbäck station","lat":57.577883,"lon":14.459888},{"id":"312","name":"Torup station","lat":56.957429,"lon":13.080208},{"id":"314","name":"Skene station","lat":57.488125,"lon":12.647856},{"id":"333","name":"Jämjö centrum","lat":56.191969,"lon":15.835051},{"id":"336","name":"Broby busstation","lat":56.253662,"lon":14.075195},{"id":"339","name":"Berghem station","lat":57.46742,"lon":12.598706},{"id":"340","name":"Åhus Järnvägsgatan","lat":55.927021,"lon":14.302792},{"id":"342","name":"Rydaholm station","lat":56.985492,"lon":14.312367},{"id":"343","name":"Brösarp bussterminal","lat":55.727803,"lon":14.096774},{"id":"346","name":"Degeberga Skaddevägen","lat":55.837502,"lon":14.090144},{"id":"348","name":"Hultsfred Resecentrum","lat":57.486551,"lon":15.845828},{"id":"353","name":"Fritsla station","lat":57.55833,"lon":12.789965},{"id":"362","name":"Åseda terminal","lat":57.168184,"lon":15.348412},{"id":"363","name":"Veddige station","lat":57.267641,"lon":12.336733},{"id":"368","name":"Bräkne Hoby","lat":56.2308,"lon":15.115645},{"id":"385","name":"Tingsryd terminal","lat":56.523997,"lon":14.975528},{"id":"388","name":"Gemla station","lat":56.870066,"lon":14.644831},{"id":"402","name":"Horred station","lat":57.353193,"lon":12.477274},{"id":"435","name":"Ljungbyhed busstation","lat":56.075367,"lon":13.233885},{"id":"439","name":"Forsheda station","lat":57.163474,"lon":13.832474},{"id":"441","name":"Olofströms station","lat":56.278974,"lon":14.520332},{"id":"450","name":"Tollarp biblioteket","lat":55.934443,"lon":13.975181},{"id":"469","name":"Kvarnen","lat":56.112957,"lon":15.681579},{"id":"474","name":"Klågerup busstation","lat":55.59757,"lon":13.260224},{"id":"487","name":"Målilla","lat":57.389705,"lon":15.824829},{"id":"488","name":"Jämshög","lat":56.240675,"lon":14.530846},{"id":"490","name":"Klevshult","lat":57.351986,"lon":14.097983},{"id":"499","name":"Älvsered","lat":57.241177,"lon":12.865692},{"id":"500","name":"Berga station","lat":57.216532,"lon":16.033062},{"id":"502","name":"Svenljunga bussterminal","lat":57.495249,"lon":13.108704},{"id":"505","name":"Smygehamn Ängavägen","lat":55.345402,"lon":13.377708},{"id":"517","name":"Simlångsdalen","lat":56.720707,"lon":13.130409},{"id":"518","name":"Anderstorp station","lat":57.280394,"lon":13.627274},{"id":"519","name":"Lagan Torggatan","lat":56.916359,"lon":13.987339},{"id":"521","name":"Rödeby centrum","lat":56.2607,"lon":15.618054},{"id":"523","name":"Tranemo bussterminal","lat":57.485126,"lon":13.351557},{"id":"524","name":"Korsberga centrum","lat":57.301197,"lon":15.125193},{"id":"525","name":"Byxelkrok centrum","lat":57.324394,"lon":17.008568},{"id":"536","name":"Skolgatan, Traryd","lat":56.579564,"lon":13.746565},{"id":"537","name":"Skånes Fagerhult kyrka","lat":56.36848,"lon":13.470006},{"id":"548","name":"Kyrkhult","lat":56.357121,"lon":14.587149},{"id":"549","name":"Örkelljunga busstation","lat":56.283185,"lon":13.281349},{"id":"553","name":"Kinna resecentrum","lat":57.505793,"lon":12.697136},{"id":"555","name":"Ljungby terminal","lat":56.832139,"lon":13.936454},{"id":"557","name":"Lindome station","lat":57.575967,"lon":12.078717},{"id":"558","name":"Borgholm busstation","lat":56.882268,"lon":16.656248},{"id":"561","name":"Mönsterås busstation","lat":57.041151,"lon":16.44748},{"id":"564","name":"Nättraby hörnet","lat":56.206884,"lon":15.530724},{"id":"567","name":"Bjärnum busstation","lat":56.292205,"lon":13.71019},{"id":"572","name":"Bergkvara busstation","lat":56.394659,"lon":16.0653},{"id":"583","name":"Asarum Storgatan","lat":56.208994,"lon":14.833821},{"id":"584","name":"Hälleviks hamn","lat":56.012283,"lon":14.698044},{"id":"588","name":"Mjällby centrum","lat":56.045712,"lon":14.678045},{"id":"591","name":"Hörby busstation","lat":55.855559,"lon":13.671252},{"id":"597","name":"Brömsebro","lat":56.29854,"lon":16.001013},{"id":"609","name":"Vrigstad busstation","lat":57.356523,"lon":14.465944},{"id":"624","name":"Gislaved busstation","lat":57.304963,"lon":13.543007},{"id":"625","name":"Hyltebruk bussterminal","lat":56.998605,"lon":13.237365},{"id":"663","name":"Lyckeby centrum","lat":56.198691,"lon":15.654743},{"id":"711","name":"Förslöv Sandbäcksvägen","lat":56.347913,"lon":12.816695},{"id":"723","name":"Jonstorp centrum","lat":56.227086,"lon":12.674149},{"id":"732","name":"Skillinge busstation","lat":55.473407,"lon":14.278388},{"id":"744","name":"Vejbystrand centrum","lat":56.315075,"lon":12.769224},{"id":"745","name":"Arild bussplatsen","lat":56.273153,"lon":12.577159},{"id":"746","name":"Bara Banvägen","lat":55.579644,"lon":13.191055},{"id":"747","name":"Ekeby Flamman","lat":55.992159,"lon":12.972904},{"id":"750","name":"Brantevik","lat":55.51394,"lon":14.34771},{"id":"755","name":"Södra Möckleby","lat":56.356463,"lon":16.420154},{"id":"756","name":"Ljungbyholm busstation","lat":56.633262,"lon":16.173371},{"id":"760","name":"Trekanten västra","lat":56.700701,"lon":16.111343},{"id":"762","name":"Ålem station","lat":56.945975,"lon":16.385789},{"id":"763","name":"Fjärås station","lat":57.43553,"lon":12.15512},{"id":"767","name":"Bua skola","lat":57.236734,"lon":12.12803},{"id":"769","name":"Åsa centrum","lat":57.351895,"lon":12.121277},{"id":"770","name":"Frillesås skola","lat":57.318442,"lon":12.182967},{"id":"771","name":"Holmsjö station","lat":56.421735,"lon":15.542441},{"id":"835","name":"Billdal","lat":57.577695,"lon":11.941082},{"id":"852","name":"Annelundsvägen","lat":57.511784,"lon":11.950312},{"id":"909","name":"Böda","lat":57.250384,"lon":17.056772},{"id":"923","name":"Högsby Resecentrum","lat":57.165241,"lon":16.027889},{"id":"927","name":"Löttorp centrum","lat":57.166766,"lon":16.993182},{"id":"928","name":"Mörbylånga busstation","lat":56.527856,"lon":16.376189},{"id":"929","name":"Orrefors skola","lat":56.838521,"lon":15.749591},{"id":"930","name":"Lyckeby","lat":57.067939,"lon":15.150514},{"id":"932","name":"Torsås torg","lat":56.412178,"lon":15.997491},{"id":"933","name":"Virserum Nya torget","lat":57.315029,"lon":15.585064},{"id":"936","name":"Bjärred centrum","lat":55.723961,"lon":13.027332},{"id":"938","name":"Dalby busstation","lat":55.664498,"lon":13.346419},{"id":"940","name":"Falsterbo Strandbad","lat":55.394088,"lon":12.851237},{"id":"943","name":"Höganäs Busstorget","lat":56.201057,"lon":12.558366},{"id":"944","name":"Höllviken centrum","lat":55.418596,"lon":12.95268},{"id":"947","name":"Lomma busstation","lat":55.67387,"lon":13.069032},{"id":"948","name":"Mölle busstation","lat":56.282,"lon":12.499109},{"id":"949","name":"Sjöbo Busstation","lat":55.630719,"lon":13.700967},{"id":"950","name":"Skanör centrum","lat":55.411503,"lon":12.844171},{"id":"951","name":"Staffanstorp Storgatan","lat":55.640793,"lon":13.206075},{"id":"953","name":"Malmö Airport Sturup flygplats","lat":55.54043,"lon":13.36598},{"id":"955","name":"Svalöv Centrum","lat":55.912951,"lon":13.10637},{"id":"956","name":"S Sandby busstation","lat":55.717237,"lon":13.346829},{"id":"957","name":"Veberöd centrum","lat":55.633315,"lon":13.493413},{"id":"958","name":"Vellinge centrum","lat":55.472015,"lon":13.020766},{"id":"959","name":"Viken centrum","lat":56.146508,"lon":12.579248},{"id":"963","name":"Bodafors station","lat":57.506206,"lon":14.695198},{"id":"965","name":"Fröslida","lat":56.875481,"lon":13.046079},{"id":"966","name":"Hillerstorp station","lat":57.313928,"lon":13.882992},{"id":"974","name":"Stensjön station","lat":57.582376,"lon":14.822358},{"id":"976","name":"Åled","lat":56.74349,"lon":12.950687},{"id":"981","name":"Björketorps station","lat":57.427508,"lon":12.523756},{"id":"1000","name":"Blomstermåla station","lat":56.980978,"lon":16.331351},{"id":"1002","name":"Baskemölla Gladsaxvägen","lat":55.590477,"lon":14.312069},{"id":"1004","name":"Ottenby gård","lat":56.234466,"lon":16.41609},{"id":"1006","name":"Abbekås","lat":55.394086,"lon":13.59369},{"id":"1010","name":"Arkelstorp Affären","lat":56.173219,"lon":14.282974},{"id":"1015","name":"Backaryd","lat":56.347768,"lon":15.153214},{"id":"1024","name":"Bor station","lat":57.115783,"lon":14.168783},{"id":"1026","name":"Borrby busstation","lat":55.456286,"lon":14.177465},{"id":"1030","name":"Bratteborg station","lat":57.57791,"lon":14.12531},{"id":"1033","name":"Byarum station","lat":57.53628,"lon":14.14397},{"id":"1035","name":"Bårslöv Snödroppegatan","lat":56.009067,"lon":12.810554},{"id":"1044","name":"Eldsberga Gullbrannavägen","lat":56.596002,"lon":12.974907},{"id":"1047","name":"Fegen","lat":57.105666,"lon":13.037678},{"id":"1059","name":"Fröseke","lat":56.948556,"lon":15.791113},{"id":"1062","name":"Fågelmara","lat":56.259993,"lon":15.949021},{"id":"1068","name":"Glimåkra busstation","lat":56.30518,"lon":14.135638},{"id":"1070","name":"Glumslöv Ålabodsvägen","lat":55.941501,"lon":12.812013},{"id":"1072","name":"Grönhögen","lat":56.268585,"lon":16.401412},{"id":"1073","name":"Gullbranna","lat":56.585135,"lon":12.946836},{"id":"1075","name":"Hallabro","lat":56.389503,"lon":15.102551},{"id":"1077","name":"Hanaskog Busstation","lat":56.158637,"lon":14.094007},{"id":"1083","name":"Hittarp Sundsliden","lat":56.096887,"lon":12.643564},{"id":"1086","name":"Hörle","lat":57.259104,"lon":14.054289},{"id":"1088","name":"Immeln","lat":56.203403,"lon":14.246536},{"id":"1093","name":"Järnforsen station","lat":57.407824,"lon":15.620125},{"id":"1097","name":"Anderslöv torget","lat":55.438242,"lon":13.317278},{"id":"1098","name":"Beddingestrand Granhyddan","lat":55.364055,"lon":13.43075},{"id":"1142","name":"Kristdala torg","lat":57.400736,"lon":16.197546},{"id":"1144","name":"Kungsbacka Hede station","lat":57.513398,"lon":12.083528},{"id":"1145","name":"Kvillsfors station","lat":57.403954,"lon":15.496793},{"id":"1149","name":"Kåseberga","lat":55.386741,"lon":14.065093},{"id":"1193","name":"Oknö brygga","lat":57.00284,"lon":16.528659},{"id":"1198","name":"Nybrostrand badet","lat":55.432208,"lon":13.947299},{"id":"1199","name":"Ven Bäckviken","lat":55.903824,"lon":12.722206},{"id":"1219","name":"Köpingsvik kyrka","lat":56.879251,"lon":16.718493},{"id":"1222","name":"Landsbro busstation","lat":57.369477,"lon":14.900365},{"id":"1231","name":"Ljunghusen Storvägen","lat":55.405538,"lon":12.920899},{"id":"1235","name":"Allégården","lat":56.577601,"lon":15.448677},{"id":"1238","name":"Löderup centrum","lat":55.438136,"lon":14.113064},{"id":"1239","name":"Lövestad jvstn","lat":55.653605,"lon":13.891425},{"id":"1242","name":"Mellbystrand","lat":56.514331,"lon":12.949817},{"id":"1244","name":"Milletorp","lat":57.238651,"lon":15.18468},{"id":"1250","name":"Myresjö busstation","lat":57.382403,"lon":14.960268},{"id":"1269","name":"Ramkvilla","lat":57.204085,"lon":14.952917},{"id":"1279","name":"Storgatan, Ryssby","lat":56.865004,"lon":14.165952},{"id":"1286","name":"Rörvik Västra Torggatan","lat":57.238192,"lon":14.573764},{"id":"1287","name":"Röstånga busstation","lat":56.003283,"lon":13.289605},{"id":"1290","name":"Sannarp station","lat":56.68599,"lon":12.892613},{"id":"1293","name":"Sibbhult busstation","lat":56.267603,"lon":14.201165},{"id":"1300","name":"Skogsby centrum","lat":56.629222,"lon":16.512593},{"id":"1301","name":"Mejerigatan, Skruv","lat":56.676566,"lon":15.365983},{"id":"1302","name":"Skåne Tranås","lat":55.614553,"lon":13.996757},{"id":"1310","name":"Spenshult Övre","lat":56.850048,"lon":13.017455},{"id":"1314","name":"Steninge","lat":56.763106,"lon":12.633905},{"id":"1318","name":"Stockaryd Järnvägsparken","lat":57.317651,"lon":14.591928},{"id":"1341","name":"Timmernabben centrum","lat":56.97101,"lon":16.438135},{"id":"1343","name":"Tjunnaryd station","lat":57.50464,"lon":14.97491},{"id":"1356","name":"Tylösand","lat":56.647466,"lon":12.733337},{"id":"1358","name":"Tånnö kyrka","lat":57.091403,"lon":14.044571},{"id":"1359","name":"Tärnö","lat":56.121246,"lon":14.963744},{"id":"1362","name":"Ugglarp","lat":56.81788,"lon":12.628503},{"id":"1373","name":"Vessigebro Stationsgatan","lat":56.977627,"lon":12.650227},{"id":"1377","name":"Vilshult","lat":56.358201,"lon":14.481862},{"id":"1380","name":"Vissefjärda station","lat":56.538551,"lon":15.581517},{"id":"1399","name":"Ätran","lat":57.121808,"lon":12.948751},{"id":"1441","name":"Ballingslöv station","lat":56.214123,"lon":13.848319},{"id":"1450","name":"Emmaljunga Hultahusvägen","lat":56.398538,"lon":13.649434},{"id":"1451","name":"Barkåkra Valhall Park","lat":56.284895,"lon":12.8401},{"id":"1455","name":"Kyrkhultsv, Fridafors","lat":56.407995,"lon":14.656612},{"id":"1457","name":"Frösakull","lat":56.676729,"lon":12.729223},{"id":"1460","name":"Genarp busstation","lat":55.599316,"lon":13.399981},{"id":"1463","name":"Grevie Förslövsvägen","lat":56.389569,"lon":12.77669},{"id":"1467","name":"Heberg södra","lat":56.879198,"lon":12.629928},{"id":"1470","name":"Hov Kyrkan","lat":56.434759,"lon":12.729335},{"id":"1471","name":"Hurva E22","lat":55.791678,"lon":13.442173},{"id":"1473","name":"Hörja skolan","lat":56.206401,"lon":13.594878},{"id":"1475","name":"Katrinebergs folkhögskola","lat":56.972578,"lon":12.634974},{"id":"1477","name":"Postvägen, Konga","lat":56.494891,"lon":15.119837},{"id":"1478","name":"Korrö","lat":56.625553,"lon":15.195057},{"id":"1479","name":"Kvibille","lat":56.78278,"lon":12.831962},{"id":"1481","name":"Torggatan, Lidhult","lat":56.828091,"lon":13.436866},{"id":"1482","name":"Granvägen, Linneryd","lat":56.659243,"lon":15.12971},{"id":"1485","name":"Långås","lat":56.976207,"lon":12.450121},{"id":"1487","name":"Marieholm centrum","lat":55.863376,"lon":13.154102},{"id":"1489","name":"Solvalla","lat":56.685108,"lon":15.036382},{"id":"1490","name":"Munka Ljungby Lindagatan","lat":56.257613,"lon":12.962444},{"id":"1493","name":"Ränneslöv","lat":56.453157,"lon":13.076117},{"id":"1494","name":"Affären, Rävemåla","lat":56.554759,"lon":15.266774},{"id":"1495","name":"Röke kyrka","lat":56.234634,"lon":13.521586},{"id":"1497","name":"Skipås","lat":56.780107,"lon":12.623008},{"id":"1498","name":"Skogstorp","lat":56.913639,"lon":12.439216},{"id":"1503","name":"Stoby Mäster Olofs väg","lat":56.17651,"lon":13.82962},{"id":"1510","name":"Valje Sissebäck","lat":56.063189,"lon":14.54796},{"id":"1511","name":"Vallberga","lat":56.467717,"lon":13.024171},{"id":"1514","name":"Vollsjö Piraten","lat":55.702021,"lon":13.785715},{"id":"1515","name":"Vånga Kyrkan","lat":56.180502,"lon":14.374514},{"id":"1516","name":"Våxtorp","lat":56.41656,"lon":13.121646},{"id":"1518","name":"Västra Karup affären","lat":56.411062,"lon":12.745935},{"id":"1524","name":"Älskogsbräcka","lat":57.416737,"lon":11.95341},{"id":"1525","name":"Össjö skola","lat":56.228023,"lon":13.036383},{"id":"1527","name":"Österslöv Kyrkan","lat":56.099365,"lon":14.249733},{"id":"1528","name":"Östra Ljungby Busstationen","lat":56.189774,"lon":13.065358},{"id":"1537","name":"Bergåsa station","lat":56.182633,"lon":15.601351},{"id":"1539","name":"Vallkärra stationsby","lat":55.746377,"lon":13.145212},{"id":"1553","name":"Malmö Fosieby","lat":55.560214,"lon":13.030031},{"id":"1577","name":"Kristinebergsbadet","lat":57.51225,"lon":15.8825},{"id":"1579","name":"Falkenberg Station","lat":56.919583,"lon":12.507361},{"id":"1605","name":"Killeberg station","lat":56.475159,"lon":14.098624},{"id":"17845","name":"Råhult","lat":57.549926,"lon":14.264562},{"id":"17846","name":"Ödestuguvägen","lat":57.557186,"lon":14.260095},{"id":"17847","name":"Norra Sonarp","lat":57.575858,"lon":14.234362},{"id":"17848","name":"Krängshultsvägen","lat":57.584782,"lon":14.227322},{"id":"17861","name":"Sonarp","lat":57.56622,"lon":14.244738},{"id":"18332","name":"Stolpen","lat":57.590174,"lon":14.559349},{"id":"18333","name":"Lannafallsvägen","lat":57.596048,"lon":14.573665},{"id":"18334","name":"Sjöarp","lat":57.534818,"lon":14.701624},{"id":"18335","name":"Vassgatan","lat":57.553747,"lon":14.699581},{"id":"18336","name":"Grimstorp stationen","lat":57.558104,"lon":14.697695},{"id":"18337","name":"Västrabyvägen","lat":57.562159,"lon":14.696268},{"id":"18338","name":"Almesåkravägen","lat":57.582458,"lon":14.686589},{"id":"18339","name":"Soludden","lat":57.596258,"lon":14.687419},{"id":"18351","name":"Bodanäs","lat":57.595889,"lon":14.758559},{"id":"18352","name":"Gissebäcksvägen","lat":57.594141,"lon":14.785266},{"id":"18354","name":"Martela AB","lat":57.501484,"lon":14.693407},{"id":"18355","name":"Bodafors busstorget","lat":57.507177,"lon":14.703577},{"id":"18375","name":"Gamla festplatsen","lat":57.5681,"lon":14.840591},{"id":"18376","name":"Högövägen","lat":57.575448,"lon":14.831086},{"id":"18377","name":"Lerövägen","lat":57.579308,"lon":14.830916},{"id":"18379","name":"Dissedala","lat":57.595753,"lon":14.775855},{"id":"18390","name":"Sävegatan","lat":57.501536,"lon":14.703347},{"id":"18391","name":"Per Hörbergs väg","lat":57.502272,"lon":14.699255},{"id":"18392","name":"Stationsgatan","lat":57.503885,"lon":14.693767},{"id":"18393","name":"Allégatan","lat":57.506144,"lon":14.697336},{"id":"18394","name":"Bodagatan","lat":57.504292,"lon":14.710471},{"id":"18395","name":"Eko-museum","lat":57.506919,"lon":14.715197},{"id":"18396","name":"Björkbacksgatan","lat":57.509534,"lon":14.717488},{"id":"18397","name":"Sandsjöfors","lat":57.49441,"lon":14.79609},{"id":"18399","name":"Ravelsrydsvägen","lat":57.554301,"lon":14.799586},{"id":"18400","name":"Stensjön Ryd","lat":57.572764,"lon":14.811603},{"id":"18401","name":"Stensjön (väg 128)","lat":57.581593,"lon":14.82105},{"id":"18411","name":"Gladebo","lat":57.599803,"lon":14.40776},{"id":"18412","name":"Packebo","lat":57.591592,"lon":14.424598},{"id":"18413","name":"Hembygdsvägen","lat":57.580421,"lon":14.457855},{"id":"18414","name":"Malmbäck Torget","lat":57.577112,"lon":14.462524},{"id":"18419","name":"Lycketorp","lat":57.580144,"lon":14.49202},{"id":"18420","name":"Skolgatan","lat":57.580397,"lon":14.467385},{"id":"18421","name":"Pustanäs","lat":57.583033,"lon":14.525036},{"id":"18422","name":"Sjövik","lat":57.467229,"lon":14.757282},{"id":"18423","name":"Haga","lat":57.479456,"lon":14.737988},{"id":"18424","name":"Gummagården","lat":57.483666,"lon":14.729837},{"id":"18425","name":"Hembygdsparken","lat":57.485192,"lon":14.718779},{"id":"18426","name":"Nyholm","lat":57.488997,"lon":14.714372},{"id":"18438","name":"Toranäs","lat":57.592618,"lon":14.686084},{"id":"18439","name":"Fågelleken","lat":57.578249,"lon":14.694006},{"id":"18441","name":"Björnaholmsvägen","lat":57.526882,"lon":14.714325},{"id":"18443","name":"Karsåsvägen","lat":57.519192,"lon":14.717526},{"id":"18463","name":"Möcklamo norra","lat":57.529086,"lon":14.784414},{"id":"18464","name":"Kroksåsvägen","lat":57.544686,"lon":14.789773},{"id":"18465","name":"Sandsjövägen","lat":57.500386,"lon":14.709453},{"id":"18466","name":"Mostorp","lat":57.47514,"lon":14.777195},{"id":"18467","name":"Stenkärr","lat":57.51049,"lon":14.792376},{"id":"18505","name":"Holsterydsvägen","lat":57.485974,"lon":14.788903},{"id":"18507","name":"Hårdanäsvägen","lat":57.562423,"lon":14.807516},{"id":"18515","name":"Finngatan","lat":57.191861,"lon":14.037962},{"id":"18516","name":"Sandgatan","lat":57.19538,"lon":14.035891},{"id":"18517","name":"Varpvägen","lat":57.201155,"lon":14.036235},{"id":"18518","name":"Malmstensgatan","lat":57.185933,"lon":14.068489},{"id":"18519","name":"Lanna Mo","lat":57.230231,"lon":13.778114},{"id":"18520","name":"Lanna","lat":57.220885,"lon":13.783362},{"id":"18521","name":"Vällersten","lat":57.232796,"lon":14.005869},{"id":"18522","name":"Furukull","lat":57.167951,"lon":13.778112},{"id":"18523","name":"Västbovägen","lat":57.180315,"lon":14.032171},{"id":"18524","name":"Kärda vägskäl","lat":57.176922,"lon":13.920247},{"id":"18525","name":"Nästavägen","lat":57.184481,"lon":13.952562},{"id":"18526","name":"Vråenvägen","lat":57.188818,"lon":14.064086},{"id":"18527","name":"Värnamo sjukhus","lat":57.175027,"lon":14.027927},{"id":"18528","name":"Kyrktorget","lat":57.18392,"lon":14.047149},{"id":"18529","name":"Pilagårdsgatan","lat":57.182391,"lon":14.055987},{"id":"18530","name":"Gjuterigatan","lat":57.183251,"lon":14.06157},{"id":"18531","name":"Malmgatan","lat":57.182007,"lon":14.060636},{"id":"18532","name":"ICA Kvantum","lat":57.175439,"lon":14.061094},{"id":"18533","name":"Ulås","lat":57.143206,"lon":14.10228},{"id":"18534","name":"Lagastigen","lat":57.188686,"lon":14.043399},{"id":"18535","name":"Gränsgatan","lat":57.178182,"lon":14.032505},{"id":"18536","name":"Drömmingevägen","lat":57.12564,"lon":14.13912},{"id":"18537","name":"Bor Kvadervägen","lat":57.120472,"lon":14.158554},{"id":"18538","name":"Doktorsgatan","lat":57.176119,"lon":14.032703},{"id":"18539","name":"Sveaplan","lat":57.183453,"lon":14.031789},{"id":"18540","name":"Kapellgatan","lat":57.186089,"lon":14.060973},{"id":"18541","name":"Finnvedens Gymnasium","lat":57.186321,"lon":14.047944},{"id":"18542","name":"Vandalorum","lat":57.165438,"lon":14.06264},{"id":"18543","name":"Väsetsvägen","lat":57.233465,"lon":13.778135},{"id":"18544","name":"Forshedaverken","lat":57.165897,"lon":13.797808},{"id":"18545","name":"Forsgatan","lat":57.165662,"lon":13.827711},{"id":"18546","name":"Helmershus","lat":57.153528,"lon":14.024298},{"id":"18547","name":"Åminne bruk","lat":57.124992,"lon":14.009618},{"id":"18548","name":"Slaggkörarevägen","lat":57.121901,"lon":14.005772},{"id":"18549","name":"Hånger skola","lat":57.084755,"lon":13.961418},{"id":"18550","name":"Hånger Missionskyrkan","lat":57.07522,"lon":13.972066},{"id":"18551","name":"Dannäs","lat":57.064722,"lon":13.861445},{"id":"18552","name":"Rastavallsvägen","lat":57.109224,"lon":14.169287},{"id":"18553","name":"Eds gård","lat":57.08467,"lon":14.174114},{"id":"18554","name":"Bråten","lat":57.071063,"lon":14.178899},{"id":"18555","name":"Stockarhultsvägen","lat":57.055584,"lon":14.210002},{"id":"18556","name":"Forsheda gummifabrik","lat":57.16276,"lon":13.841339},{"id":"18557","name":"Åbro","lat":57.180099,"lon":13.932671},{"id":"18558","name":"Voxtorps kyrka","lat":57.128932,"lon":14.128039},{"id":"18559","name":"Svinhult","lat":57.062032,"lon":14.190339},{"id":"18560","name":"Bors skola","lat":57.108441,"lon":14.164997},{"id":"18561","name":"Parkvägen","lat":57.037366,"lon":14.257603},{"id":"18562","name":"Horda Järnvägsgatan","lat":57.039378,"lon":14.257601},{"id":"18563","name":"Humleåsen","lat":57.229186,"lon":13.678042},{"id":"18564","name":"Baståsen","lat":57.2181,"lon":13.698118},{"id":"18565","name":"Smedgatan","lat":57.174548,"lon":13.715995},{"id":"18567","name":"Bredaryds skola","lat":57.175683,"lon":13.730269},{"id":"18568","name":"Bredaryd Östra vägen","lat":57.172938,"lon":13.739716},{"id":"18569","name":"Forsheda skola","lat":57.159197,"lon":13.824404},{"id":"18570","name":"Jussö","lat":57.29999,"lon":14.082526},{"id":"18571","name":"Grankärr","lat":57.026636,"lon":14.256369},{"id":"18572","name":"Upplidsvägen","lat":57.001145,"lon":14.274751},{"id":"18573","name":"Rydaholms kyrka","lat":56.991296,"lon":14.277599},{"id":"18574","name":"Kyrkvägen Norra","lat":56.988147,"lon":14.28676},{"id":"18575","name":"Klinggatan","lat":56.986447,"lon":14.295384},{"id":"18576","name":"Kyrkvägen Södra","lat":56.985242,"lon":14.298229},{"id":"18577","name":"Sparbanksgatan","lat":56.985854,"lon":14.305114},{"id":"18578","name":"Oxelvägen","lat":56.980541,"lon":14.310641},{"id":"18579","name":"Kastanjevägen","lat":56.977074,"lon":14.313674},{"id":"18580","name":"Lingonvägen","lat":57.176675,"lon":14.067981},{"id":"18581","name":"Plommonvägen","lat":57.173867,"lon":14.068179},{"id":"18582","name":"Smultronvägen","lat":57.181017,"lon":14.064966},{"id":"18583","name":"Lasarettsgatan","lat":57.18603,"lon":14.041325},{"id":"18584","name":"Västrabo","lat":57.183503,"lon":14.016967},{"id":"18585","name":"Jonstavägen","lat":57.178956,"lon":13.745185},{"id":"18586","name":"Hamra","lat":57.169213,"lon":13.661715},{"id":"18587","name":"Hamravägen","lat":57.171955,"lon":13.676075},{"id":"18588","name":"Kärret","lat":57.171375,"lon":13.693868},{"id":"18589","name":"Kärnan","lat":57.179695,"lon":14.059091},{"id":"18590","name":"Pålabovägen","lat":57.182836,"lon":14.011773},{"id":"18591","name":"Sörskogsvägen","lat":57.183879,"lon":14.007455},{"id":"18592","name":"Citronvägen","lat":57.188014,"lon":14.011505},{"id":"18593","name":"Söderåsvägen","lat":57.191708,"lon":14.020458},{"id":"18594","name":"Exposkolan","lat":57.17495,"lon":14.062705},{"id":"18595","name":"Bäckarydsvägen","lat":57.235454,"lon":14.043204},{"id":"18596","name":"Rödaled","lat":57.220293,"lon":14.040649},{"id":"18597","name":"Margretelund","lat":57.213572,"lon":14.040408},{"id":"18598","name":"Vällerstensvägen","lat":57.251757,"lon":14.049783},{"id":"18599","name":"Vråen centrum","lat":57.182654,"lon":14.067122},{"id":"18600","name":"Prinsgatan","lat":57.189406,"lon":14.029767},{"id":"18601","name":"Högaloft","lat":57.184584,"lon":14.031123},{"id":"18602","name":"Skålgropsvägen","lat":57.18988,"lon":14.016378},{"id":"18603","name":"Gröndalskolan","lat":57.184784,"lon":14.027507},{"id":"18604","name":"Bredaryds skolbusshpl","lat":57.175908,"lon":13.731331},{"id":"18605","name":"Mossleskolan skoltur","lat":57.178089,"lon":14.031054},{"id":"18606","name":"Annebergs gård","lat":57.074655,"lon":13.939326},{"id":"18607","name":"Värnamo Bredasten","lat":57.162032,"lon":14.075479},{"id":"18608","name":"Silkesvägen 34","lat":57.178139,"lon":14.005518},{"id":"18609","name":"Rörläggarvägen","lat":57.177404,"lon":14.011904},{"id":"18610","name":"Repslagarevägen","lat":57.177494,"lon":14.019441},{"id":"18611","name":"Silkesvägen 19","lat":57.178103,"lon":14.021859},{"id":"18612","name":"Fredsgatan","lat":57.181944,"lon":14.02293},{"id":"18613","name":"Norråsvägen","lat":57.193125,"lon":14.027272},{"id":"18614","name":"Centralplan","lat":57.184603,"lon":14.040715},{"id":"18615","name":"Gästisplan","lat":57.18277,"lon":14.052248},{"id":"18616","name":"Blåbärsvägen","lat":57.178209,"lon":14.067843},{"id":"18617","name":"Oskarsgatan","lat":57.188786,"lon":14.073434},{"id":"18618","name":"Östbovägen","lat":57.173518,"lon":14.063715},{"id":"18619","name":"Lundåkerskolan","lat":57.298181,"lon":13.530099},{"id":"18620","name":"Kommunhuset","lat":57.30327,"lon":13.538315},{"id":"18621","name":"Ryd","lat":57.25351,"lon":13.47465},{"id":"18622","name":"Dalen","lat":57.301038,"lon":13.547015},{"id":"18623","name":"Gyllenfors","lat":57.298348,"lon":13.557301},{"id":"18624","name":"Henja","lat":57.296385,"lon":13.566082},{"id":"18625","name":"Förstadsgatan","lat":57.307496,"lon":13.542004},{"id":"18626","name":"Hemgårdsgatan","lat":57.312559,"lon":13.544349},{"id":"18627","name":"Mossarp","lat":57.291717,"lon":13.583454},{"id":"18628","name":"Knallabo","lat":57.282111,"lon":13.619593},{"id":"18629","name":"Brogatan","lat":57.282974,"lon":13.627403},{"id":"18631","name":"Långgatan","lat":57.270452,"lon":13.626833},{"id":"18632","name":"Ryd N","lat":57.259831,"lon":13.478859},{"id":"18633","name":"Motorbanan","lat":57.260052,"lon":13.606281},{"id":"18635","name":"Kappeledsvägen","lat":57.213664,"lon":13.445378},{"id":"18636","name":"Södra industriområdet","lat":57.145343,"lon":13.389317},{"id":"18637","name":"Sörgården","lat":57.291597,"lon":13.522675},{"id":"18638","name":"Lingonstigen","lat":57.452175,"lon":13.598351},{"id":"18639","name":"Äspåsvägen 5","lat":57.448262,"lon":13.589823},{"id":"18640","name":"Flodala","lat":57.450963,"lon":13.582545},{"id":"18641","name":"Isabergsvägen","lat":57.43833,"lon":13.601217},{"id":"18642","name":"Gussjö","lat":57.398,"lon":13.593991},{"id":"18643","name":"Norlida","lat":57.387747,"lon":13.587107},{"id":"18644","name":"Slätteryd","lat":57.358846,"lon":13.562509},{"id":"18645","name":"Båraryd","lat":57.336319,"lon":13.548984},{"id":"18646","name":"Mossebo","lat":57.538792,"lon":13.688749},{"id":"18648","name":"Horshaga","lat":57.237428,"lon":13.445167},{"id":"18651","name":"Tvärgatan","lat":57.170353,"lon":13.418524},{"id":"18652","name":"Annerogatan","lat":57.166392,"lon":13.415721},{"id":"18654","name":"Svenshult","lat":57.13395,"lon":13.380841},{"id":"18655","name":"Grimsås","lat":57.484091,"lon":13.551911},{"id":"18656","name":"Tyngelvi","lat":57.197459,"lon":13.277947},{"id":"18657","name":"Smålandsstenar Textilgatan","lat":57.16214,"lon":13.408953},{"id":"18658","name":"Furugatan","lat":57.162819,"lon":13.397517},{"id":"18659","name":"Volvo","lat":57.156753,"lon":13.406243},{"id":"18660","name":"Algatan","lat":57.151911,"lon":13.399202},{"id":"18661","name":"Skeppshult Gjuteriet","lat":57.125357,"lon":13.379174},{"id":"18662","name":"Öreryd Norra","lat":57.494711,"lon":13.68131},{"id":"18663","name":"Öreryd Södra","lat":57.484387,"lon":13.674705},{"id":"18664","name":"Prästgatan","lat":57.194059,"lon":13.281753},{"id":"18666","name":"Sandviksvägen","lat":57.190946,"lon":13.273064},{"id":"18667","name":"Burseryd torget","lat":57.203275,"lon":13.283938},{"id":"18668","name":"Öreryds skola","lat":57.488072,"lon":13.674307},{"id":"18669","name":"Villstadsvägen","lat":57.207951,"lon":13.288221},{"id":"18670","name":"Betarp","lat":57.179183,"lon":13.275093},{"id":"18671","name":"Stenbrohult","lat":57.167143,"lon":13.273155},{"id":"18672","name":"Prippebo","lat":57.151698,"lon":13.253964},{"id":"18674","name":"Broaryd centrum","lat":57.121443,"lon":13.255765},{"id":"18675","name":"Filadelfia","lat":57.121731,"lon":13.249618},{"id":"18676","name":"Långhult","lat":57.234304,"lon":13.315049},{"id":"18677","name":"Hestravägen","lat":57.199443,"lon":13.283239},{"id":"18678","name":"Lundavägen","lat":57.124994,"lon":13.256793},{"id":"18679","name":"Skattegården","lat":57.212519,"lon":13.579362},{"id":"18680","name":"Teget","lat":57.176042,"lon":13.631618},{"id":"18681","name":"Nennesmo","lat":57.220706,"lon":13.577528},{"id":"18682","name":"Torget","lat":57.282953,"lon":13.633442},{"id":"18683","name":"Anderstorps kyrka","lat":57.283583,"lon":13.638181},{"id":"18684","name":"Ringvägen","lat":57.284568,"lon":13.64426},{"id":"18685","name":"Stjärnehult","lat":57.292262,"lon":13.665077},{"id":"18686","name":"Gräfthult","lat":57.289664,"lon":13.489666},{"id":"18687","name":"Löbbo","lat":57.265261,"lon":13.399469},{"id":"18688","name":"Stenstorpsvägen","lat":57.189135,"lon":13.284819},{"id":"18689","name":"Reftele kyrka","lat":57.181122,"lon":13.566531},{"id":"18690","name":"Arnåsholm","lat":57.260309,"lon":13.346},{"id":"18691","name":"Gärdesskolan","lat":57.29596,"lon":13.530933},{"id":"18692","name":"Segerstadsvägen","lat":57.173589,"lon":13.594554},{"id":"18693","name":"Räddningsstationen","lat":57.28776,"lon":13.591821},{"id":"18694","name":"Oljevägen","lat":57.281389,"lon":13.6132},{"id":"18695","name":"Anderstorpsvägen","lat":57.177348,"lon":13.585134},{"id":"18696","name":"Tokarp","lat":57.286697,"lon":13.661071},{"id":"18697","name":"Lida","lat":57.195463,"lon":13.275204},{"id":"18698","name":"Nordinskolan","lat":57.161458,"lon":13.406633},{"id":"18699","name":"Furudals IP","lat":57.2064,"lon":13.443591},{"id":"18700","name":"Pilagården","lat":57.173762,"lon":13.323855},{"id":"18701","name":"Norra Långhult","lat":57.241994,"lon":13.325068},{"id":"18702","name":"Önnabo","lat":57.215632,"lon":13.291836},{"id":"18703","name":"Åtterås","lat":57.169469,"lon":13.352652},{"id":"18704","name":"Terrassvägen","lat":57.265996,"lon":13.612292},{"id":"18705","name":"Fållinge","lat":57.163456,"lon":13.447588},{"id":"18706","name":"Sibbo","lat":57.160067,"lon":13.473858},{"id":"18707","name":"Röpplinge","lat":57.157369,"lon":13.510212},{"id":"18708","name":"Nöbbele","lat":57.162389,"lon":13.558224},{"id":"18709","name":"Smålandia","lat":57.320646,"lon":13.548019},{"id":"18710","name":"Brotorpet","lat":57.303819,"lon":13.679158},{"id":"18711","name":"Isabergs fritidsby","lat":57.435901,"lon":13.623165},{"id":"18712","name":"Norra Frostnäs","lat":57.178332,"lon":13.308365},{"id":"18713","name":"Lövås industriområde","lat":57.270399,"lon":13.617568},{"id":"18714","name":"Bjärsved","lat":57.460669,"lon":13.602305},{"id":"18715","name":"Vägporten","lat":57.4233,"lon":13.607216},{"id":"18716","name":"Rödjan","lat":57.318093,"lon":13.545404},{"id":"18717","name":"Villstad","lat":57.199748,"lon":13.441467},{"id":"18718","name":"Hagagatan","lat":57.174625,"lon":13.420663},{"id":"18719","name":"Stötabo industriområde","lat":57.273261,"lon":13.615856},{"id":"18720","name":"Hyltebruk Järnvägsgatan","lat":57.000728,"lon":13.240149},{"id":"18721","name":"Hyltebruk Staffansbo","lat":56.988544,"lon":13.239589},{"id":"18722","name":"Hyltebruk Sjukstugan","lat":56.994053,"lon":13.237086},{"id":"18723","name":"Hyltebruk Örnatorget","lat":57.006631,"lon":13.240631},{"id":"18724","name":"Hyltebruk Bruket","lat":57.003543,"lon":13.240762},{"id":"18725","name":"Hyltebruk Stenhuggaregatan","lat":57.010913,"lon":13.243086},{"id":"18726","name":"Hyltebruk Hallonvägen","lat":57.015924,"lon":13.242577},{"id":"18727","name":"Isabergsskolan","lat":57.448212,"lon":13.595657},{"id":"18737","name":"Sjustad","lat":57.589427,"lon":14.968426},{"id":"18738","name":"Ingarps norra","lat":57.572071,"lon":14.972719},{"id":"18739","name":"Ingarps södra","lat":57.557462,"lon":14.980946},{"id":"18741","name":"Ingarps Trävaror","lat":57.552722,"lon":14.985204},{"id":"18742","name":"Skottsmåla","lat":57.5471,"lon":14.992112},{"id":"18743","name":"Brännsmåla","lat":57.541206,"lon":14.992944},{"id":"18778","name":"Sandvik","lat":57.557386,"lon":15.555206},{"id":"18798","name":"Hult by","lat":57.561366,"lon":15.565713},{"id":"18803","name":"Samuelsgatan","lat":57.427207,"lon":15.082137},{"id":"18804","name":"Vetlanda kyrka","lat":57.429543,"lon":15.076097},{"id":"18805","name":"Församlingsgården","lat":57.432155,"lon":15.072899},{"id":"18806","name":"Föredavägen","lat":57.451247,"lon":15.051095},{"id":"18807","name":"Slättemo","lat":57.456781,"lon":15.043276},{"id":"18808","name":"Tällerda","lat":57.462159,"lon":15.03869},{"id":"18809","name":"Hammarberg","lat":57.469627,"lon":15.0382},{"id":"18810","name":"Bröderna Andersson","lat":57.478595,"lon":15.034844},{"id":"18811","name":"Hultvägen","lat":57.503275,"lon":15.008184},{"id":"18812","name":"Björkeryd","lat":57.521036,"lon":14.98842},{"id":"18813","name":"Gäddemåla","lat":57.526753,"lon":14.989327},{"id":"18814","name":"Fredriksborg","lat":57.533297,"lon":14.991175},{"id":"18815","name":"Övlandehult","lat":57.432868,"lon":15.374863},{"id":"18816","name":"Aspö","lat":57.425573,"lon":15.243949},{"id":"18817","name":"Ädelfors centrum","lat":57.408451,"lon":15.318815},{"id":"18818","name":"Repperda","lat":57.402769,"lon":15.318208},{"id":"18819","name":"Bruksgården","lat":57.408679,"lon":15.28824},{"id":"18820","name":"Stationsvägen","lat":57.416124,"lon":15.256641},{"id":"18821","name":"Alseda kyrka","lat":57.419139,"lon":15.251029},{"id":"18822","name":"Hjältaryd","lat":57.403525,"lon":14.942047},{"id":"18823","name":"Glömsjö","lat":57.40022,"lon":14.911168},{"id":"18824","name":"Nävelsjövägen","lat":57.400018,"lon":14.896634},{"id":"18825","name":"Åhultsvägen","lat":57.396471,"lon":14.857767},{"id":"18826","name":"Grönelid","lat":57.393678,"lon":14.825973},{"id":"18827","name":"Hällinge gamla station","lat":57.405529,"lon":14.999904},{"id":"18828","name":"Badhuset","lat":57.385338,"lon":14.968082},{"id":"18829","name":"Missionskyrkan","lat":57.425942,"lon":15.091691},{"id":"18830","name":"Mejeriet","lat":57.424684,"lon":15.09477},{"id":"18831","name":"Flugeby","lat":57.426404,"lon":15.14341},{"id":"18832","name":"Sjunnen","lat":57.435932,"lon":15.173325},{"id":"18833","name":"Industriområdet","lat":57.440372,"lon":15.192183},{"id":"18834","name":"Holsbybrunn centrum","lat":57.438279,"lon":15.20419},{"id":"18835","name":"Toppmurklan","lat":57.419669,"lon":15.090732},{"id":"18836","name":"Lasarettsgatan 23","lat":57.422132,"lon":15.089693},{"id":"18837","name":"Stens väg","lat":57.416499,"lon":15.091567},{"id":"18838","name":"Örtstigen","lat":57.411443,"lon":15.084378},{"id":"18839","name":"Sliparegården","lat":57.406836,"lon":15.082638},{"id":"18840","name":"Bäckseda skola","lat":57.401958,"lon":15.083866},{"id":"18841","name":"Bäckseda Paradisvägen","lat":57.398389,"lon":15.084685},{"id":"18842","name":"Sandåkravägen","lat":57.396453,"lon":15.084681},{"id":"18843","name":"Simnatorpsvägen","lat":57.380919,"lon":15.08551},{"id":"18844","name":"Snärle station","lat":57.368236,"lon":15.102362},{"id":"18845","name":"Hagabolet","lat":57.404634,"lon":15.312976},{"id":"18846","name":"Nyevägen","lat":57.41341,"lon":15.265451},{"id":"18847","name":"Aspelund","lat":57.406751,"lon":15.301992},{"id":"18848","name":"Hällaryd","lat":57.464059,"lon":15.179421},{"id":"18849","name":"Ekekull","lat":57.49948,"lon":15.241462},{"id":"18850","name":"Snärle","lat":57.361606,"lon":15.109069},{"id":"18851","name":"Fagrarydsvägen","lat":57.349568,"lon":15.117852},{"id":"18852","name":"Holm","lat":57.318514,"lon":15.1182},{"id":"18853","name":"Idrottsvägen","lat":57.311036,"lon":15.121791},{"id":"18854","name":"Korsberga kyrka","lat":57.305907,"lon":15.124807},{"id":"18855","name":"Skäftesfallsvägen","lat":57.296397,"lon":15.128184},{"id":"18856","name":"Solstigen","lat":57.292343,"lon":15.129088},{"id":"18857","name":"Knixhultsvägen","lat":57.286162,"lon":15.131722},{"id":"18858","name":"Yxanshult","lat":57.277524,"lon":15.128606},{"id":"18859","name":"Udden","lat":57.287346,"lon":15.359006},{"id":"18860","name":"Nyanäs","lat":57.295496,"lon":15.348109},{"id":"18861","name":"Holma","lat":57.308933,"lon":15.340633},{"id":"18862","name":"Biltingaled","lat":57.315814,"lon":15.334057},{"id":"18863","name":"Salshult","lat":57.329652,"lon":15.370229},{"id":"18864","name":"Stora Skögle","lat":57.32873,"lon":15.343362},{"id":"18865","name":"Farstorp","lat":57.330459,"lon":15.313987},{"id":"18866","name":"Holmsjö","lat":57.33971,"lon":15.303069},{"id":"18867","name":"Nye","lat":57.343111,"lon":15.278476},{"id":"18868","name":"Nye kyrka","lat":57.343474,"lon":15.273056},{"id":"18869","name":"Karlsjö","lat":57.362672,"lon":15.262376},{"id":"18870","name":"Skurebo","lat":57.367415,"lon":15.228651},{"id":"18871","name":"Salvaryd","lat":57.370593,"lon":15.224463},{"id":"18872","name":"Lindåsasjön","lat":57.382574,"lon":15.205918},{"id":"18873","name":"Höreryd","lat":57.397012,"lon":15.158578},{"id":"18874","name":"Gettinge","lat":57.408858,"lon":15.129951},{"id":"18875","name":"Ridhuset","lat":57.420099,"lon":15.106643},{"id":"18876","name":"Rösa Frälsegård","lat":57.442578,"lon":15.166399},{"id":"18877","name":"Rösatorp","lat":57.449007,"lon":15.162773},{"id":"18878","name":"Rösa","lat":57.452783,"lon":15.160208},{"id":"18879","name":"Bruksvägen","lat":57.466672,"lon":15.172178},{"id":"18880","name":"Skede","lat":57.469825,"lon":15.175889},{"id":"18881","name":"Skede kyrka","lat":57.471995,"lon":15.175335},{"id":"18882","name":"Mellangården","lat":57.459447,"lon":15.185465},{"id":"18883","name":"Lammåsavägen","lat":57.449248,"lon":15.200529},{"id":"18884","name":"Hulugården","lat":57.446197,"lon":15.208465},{"id":"18885","name":"Bruksmuséet","lat":57.413974,"lon":15.319083},{"id":"18886","name":"Hässlehult","lat":57.475496,"lon":15.546359},{"id":"18887","name":"Kärr","lat":57.544145,"lon":15.533196},{"id":"18888","name":"Högagård","lat":57.533836,"lon":15.530718},{"id":"18889","name":"Söregård","lat":57.525355,"lon":15.532443},{"id":"18890","name":"Silverdalsvägen","lat":57.513496,"lon":15.515496},{"id":"18891","name":"Karlstorp","lat":57.510727,"lon":15.512306},{"id":"18892","name":"Svenarp","lat":57.47515,"lon":15.539561},{"id":"18893","name":"Pauliström","lat":57.4675,"lon":15.507954},{"id":"18894","name":"Åmjölkesbo","lat":57.452533,"lon":15.456104},{"id":"18895","name":"Ökna","lat":57.440027,"lon":15.421371},{"id":"18896","name":"Åryd","lat":57.397716,"lon":15.362411},{"id":"18897","name":"Tälläng västra","lat":57.398561,"lon":15.4},{"id":"18898","name":"Tälläng östra","lat":57.399333,"lon":15.418638},{"id":"18899","name":"Sjöarpsvägen","lat":57.396535,"lon":15.436181},{"id":"18900","name":"Kvillsfors skola","lat":57.403497,"lon":15.500955},{"id":"18901","name":"Nyboholm","lat":57.405776,"lon":15.511517},{"id":"18902","name":"Galtabäck","lat":57.397737,"lon":15.474424},{"id":"18903","name":"Harghultsvägen","lat":57.396882,"lon":15.490848},{"id":"18904","name":"Ekholmen","lat":57.320471,"lon":15.397094},{"id":"18905","name":"Ulvarp","lat":57.330761,"lon":15.510948},{"id":"18906","name":"Prästtorp","lat":57.330386,"lon":15.493045},{"id":"18907","name":"Stenberga","lat":57.323012,"lon":15.424172},{"id":"18908","name":"Stenberga kyrka","lat":57.323064,"lon":15.420719},{"id":"18909","name":"Lygneshult","lat":57.528399,"lon":14.936073},{"id":"18910","name":"Bildstorpsvägen","lat":57.523938,"lon":14.920824},{"id":"18911","name":"Pimpsövägen","lat":57.521629,"lon":14.910432},{"id":"18912","name":"Björköby station","lat":57.520996,"lon":14.911032},{"id":"18913","name":"Rönnvägen","lat":57.521902,"lon":14.90213},{"id":"18914","name":"Björkbacksvägen","lat":57.525403,"lon":14.902035},{"id":"18915","name":"Donnemilensvägen","lat":57.530279,"lon":14.901973},{"id":"18916","name":"Sjöerydsvägen","lat":57.546159,"lon":14.891359},{"id":"18917","name":"Lilla Tällvad","lat":57.552372,"lon":14.887486},{"id":"18918","name":"Nässjövägen","lat":57.557326,"lon":14.886518},{"id":"18919","name":"Rödjenäs gård","lat":57.560135,"lon":14.876506},{"id":"18920","name":"Gamla stenbron","lat":57.566494,"lon":14.857962},{"id":"18921","name":"Östra Nygatan","lat":57.424636,"lon":15.105391},{"id":"18922","name":"Lillegårdsvägen","lat":57.467245,"lon":15.17905},{"id":"18923","name":"Lannaskedebrunnsvägen","lat":57.378304,"lon":14.861229},{"id":"18924","name":"Folkets Park","lat":57.375374,"lon":14.880155},{"id":"18925","name":"Idrottsgatan","lat":57.374298,"lon":14.885302},{"id":"18926","name":"Landsbro skola","lat":57.373145,"lon":14.892271},{"id":"18927","name":"Brobygården","lat":57.37006,"lon":14.911537},{"id":"18928","name":"Landsbro vårdcentral","lat":57.370257,"lon":14.912679},{"id":"18929","name":"Rosenholmsvägen","lat":57.370708,"lon":14.918036},{"id":"18930","name":"Myrdala","lat":57.378397,"lon":14.93642},{"id":"18931","name":"Trishult","lat":57.351675,"lon":14.894782},{"id":"18932","name":"Ljunganäs","lat":57.335949,"lon":14.869989},{"id":"18933","name":"Fröderyds kyrka","lat":57.320057,"lon":14.867903},{"id":"18934","name":"Hultatorp","lat":57.329506,"lon":14.87007},{"id":"18935","name":"Doestorp","lat":57.278587,"lon":14.893364},{"id":"18936","name":"Årset","lat":57.307954,"lon":14.867017},{"id":"18937","name":"Hökhult","lat":57.290417,"lon":14.881055},{"id":"18938","name":"Höghultsvägen","lat":57.262354,"lon":15.392668},{"id":"18939","name":"Hultanäs","lat":57.215306,"lon":15.439089},{"id":"18940","name":"Kejsarekulla","lat":57.224857,"lon":15.424293},{"id":"18941","name":"Råsa","lat":57.233312,"lon":15.414436},{"id":"18942","name":"Rösjönäs","lat":57.242369,"lon":15.4048},{"id":"18943","name":"Beskvarn","lat":57.249864,"lon":15.396717},{"id":"18944","name":"Näshult","lat":57.267325,"lon":15.380712},{"id":"18945","name":"Pensionärshemmet","lat":57.270036,"lon":14.922086},{"id":"18946","name":"Rösåsvägen","lat":57.260263,"lon":14.934517},{"id":"18947","name":"Bäckaby skola","lat":57.267412,"lon":14.926906},{"id":"18948","name":"Höreda","lat":57.226446,"lon":14.947765},{"id":"18949","name":"Stockatorp","lat":57.261316,"lon":15.127752},{"id":"18950","name":"Segelövsvägen","lat":57.254962,"lon":15.130917},{"id":"18951","name":"Sjöanäs","lat":57.244652,"lon":15.140034},{"id":"18952","name":"Björkerydsvägen","lat":57.523893,"lon":14.96549},{"id":"18954","name":"Tjustkulle","lat":57.439302,"lon":15.069559},{"id":"18955","name":"Lövhagsvägen","lat":57.427508,"lon":15.058259},{"id":"18956","name":"Njudungs gymnasieskola","lat":57.433431,"lon":15.080798},{"id":"18957","name":"Skärbäck","lat":57.15302,"lon":14.963412},{"id":"18958","name":"Norra Kråkegården","lat":57.407064,"lon":15.067893},{"id":"18959","name":"Kråkegårdsvägen","lat":57.403967,"lon":15.075691},{"id":"18960","name":"Östanskog","lat":57.408186,"lon":15.063245},{"id":"18961","name":"Skånegatan","lat":57.419667,"lon":15.070269},{"id":"18962","name":"Tomaslundsskolan","lat":57.42195,"lon":15.069025},{"id":"18963","name":"Brogårds industriområde","lat":57.417666,"lon":15.082824},{"id":"18964","name":"Nydala","lat":57.442003,"lon":15.067822},{"id":"18965","name":"Vildvinet","lat":57.424357,"lon":15.070575},{"id":"18966","name":"Markörvägen","lat":57.423143,"lon":15.068851},{"id":"18967","name":"Ölandsgatan","lat":57.417628,"lon":15.067081},{"id":"18968","name":"Träningsstigen","lat":57.412299,"lon":15.058769},{"id":"18969","name":"Promenadstigen","lat":57.409571,"lon":15.057477},{"id":"18970","name":"Gångstigen","lat":57.408519,"lon":15.06031},{"id":"18971","name":"Stortegelvägen","lat":57.404048,"lon":15.072645},{"id":"18972","name":"Vasagatan","lat":57.42967,"lon":15.068695},{"id":"18973","name":"Ekenässjön Skolgatan","lat":57.492439,"lon":15.021311},{"id":"18974","name":"Värngatan","lat":57.485351,"lon":15.028099},{"id":"18975","name":"Böla","lat":57.479321,"lon":15.182294},{"id":"18976","name":"Trollebo","lat":57.319868,"lon":15.319805},{"id":"18977","name":"Nye skola","lat":57.346381,"lon":15.27034},{"id":"18978","name":"Ämmaryd","lat":57.416867,"lon":15.344581},{"id":"18979","name":"Östanåbadet","lat":57.406426,"lon":15.051119},{"id":"18980","name":"Norra Esplanaden","lat":57.430659,"lon":15.084383},{"id":"18981","name":"Råshult","lat":57.456068,"lon":15.46475},{"id":"19078","name":"Valhallavägen","lat":57.502688,"lon":14.143884},{"id":"19079","name":"Byarum","lat":57.537477,"lon":14.143051},{"id":"19080","name":"Krängsberg","lat":57.576028,"lon":14.152092},{"id":"19081","name":"Bratteborgsvägen","lat":57.588327,"lon":14.156191},{"id":"19082","name":"Hooks herrgård","lat":57.53895,"lon":14.267714},{"id":"19084","name":"Götafors","lat":57.491016,"lon":14.127836},{"id":"19085","name":"Stackes Hydraulik","lat":57.460638,"lon":14.094734},{"id":"19086","name":"Verkstadsgatan","lat":57.441215,"lon":14.092943},{"id":"19087","name":"Östra Fåglabäcksvägen","lat":57.434864,"lon":14.093523},{"id":"19088","name":"Almesäng","lat":57.38188,"lon":14.099037},{"id":"19089","name":"Åker","lat":57.384237,"lon":13.993977},{"id":"19090","name":"Tofterydsvägen","lat":57.442338,"lon":14.319007},{"id":"19091","name":"Kinnebro","lat":57.428146,"lon":14.322962},{"id":"19092","name":"Kårdholmenvägen","lat":57.457452,"lon":14.315561},{"id":"19093","name":"Svenarums kyrka","lat":57.47024,"lon":14.317057},{"id":"19094","name":"Torsbo","lat":57.504843,"lon":14.143168},{"id":"19095","name":"Kinnarps","lat":57.450261,"lon":14.092453},{"id":"19096","name":"Strandvägen","lat":57.49624,"lon":14.135086},{"id":"19097","name":"Kohult","lat":57.410058,"lon":14.34744},{"id":"19098","name":"Reningsverket","lat":57.50613,"lon":14.282068},{"id":"19099","name":"Esplanaden","lat":57.399658,"lon":14.669946},{"id":"19100","name":"Hofgårdsskolan","lat":57.396725,"lon":14.676324},{"id":"19101","name":"Solhemsvägen","lat":57.398959,"lon":14.700309},{"id":"19102","name":"Torset","lat":57.398422,"lon":14.737985},{"id":"19103","name":"Vallsjö gård","lat":57.39161,"lon":14.765292},{"id":"19104","name":"Hultagårds vägskäl","lat":57.387776,"lon":14.789546},{"id":"19105","name":"Hjärtlanda","lat":57.357403,"lon":14.679992},{"id":"19106","name":"Sturegatan","lat":57.398256,"lon":14.665848},{"id":"19107","name":"Aleholmsskolan","lat":57.39222,"lon":14.663707},{"id":"19108","name":"Skepperstadsvägen","lat":57.386788,"lon":14.662761},{"id":"19109","name":"Kommunalhuset","lat":57.402025,"lon":14.667544},{"id":"19110","name":"Björnskogsvägen","lat":57.331445,"lon":14.678894},{"id":"19111","name":"Häggatorpsvägen","lat":57.320894,"lon":14.651164},{"id":"19112","name":"Appelholmsgatan","lat":57.318547,"lon":14.603899},{"id":"19113","name":"Marknadsplatsen","lat":57.356261,"lon":14.478548},{"id":"19115","name":"Stigåsa Norra","lat":57.300103,"lon":14.600287},{"id":"19116","name":"Stigåsa Södra","lat":57.29467,"lon":14.598897},{"id":"19117","name":"Hallstenstorp","lat":57.400143,"lon":14.7125},{"id":"19118","name":"Norra Ljungavägen","lat":57.387286,"lon":14.608135},{"id":"19119","name":"Brohult","lat":57.276155,"lon":14.522484},{"id":"19120","name":"Nygatan","lat":57.319622,"lon":14.597059},{"id":"19121","name":"Mossaryd","lat":57.381699,"lon":14.578189},{"id":"19122","name":"Råsen Norra","lat":57.290522,"lon":14.601297},{"id":"19123","name":"Biskopsbo","lat":57.364518,"lon":14.495168},{"id":"19124","name":"Kvarnagården","lat":57.368256,"lon":14.505822},{"id":"19125","name":"Stenhultsvägen","lat":57.371919,"lon":14.524925},{"id":"19126","name":"Gamla Hjälmseryd","lat":57.308438,"lon":14.513626},{"id":"19127","name":"Lundholmenvägen","lat":57.362547,"lon":14.455238},{"id":"19128","name":"Åkaköp","lat":57.387386,"lon":14.392219},{"id":"19129","name":"Nya Hjälmseryd","lat":57.244331,"lon":14.513983},{"id":"19130","name":"Björka","lat":57.212019,"lon":14.516569},{"id":"19131","name":"Bergsdal","lat":57.197359,"lon":14.528495},{"id":"19132","name":"Bodaryd","lat":57.275792,"lon":14.600593},{"id":"19133","name":"Råsen Södra","lat":57.270142,"lon":14.60183},{"id":"19134","name":"Målen","lat":57.263892,"lon":14.599026},{"id":"19135","name":"Södergatan","lat":57.252968,"lon":14.600535},{"id":"19136","name":"Rörvik Ramkvillavägen","lat":57.243469,"lon":14.592397},{"id":"19137","name":"Storgatan","lat":57.23879,"lon":14.580361},{"id":"19139","name":"Björkgatan","lat":57.312992,"lon":14.592165},{"id":"19140","name":"Södra vägen","lat":57.349996,"lon":14.473724},{"id":"19142","name":"Ormestorp","lat":57.32408,"lon":14.626761},{"id":"19143","name":"Fägerhult","lat":57.220038,"lon":14.510429},{"id":"19144","name":"Skruven","lat":57.380072,"lon":14.662937},{"id":"19146","name":"Vrigstad skola","lat":57.356716,"lon":14.469775},{"id":"19147","name":"Stockaryds skola","lat":57.315036,"lon":14.593608},{"id":"19148","name":"Rörviks skola","lat":57.240465,"lon":14.576231},{"id":"19149","name":"Vårdcentralen","lat":57.355393,"lon":13.740038},{"id":"19150","name":"Bäckaskolan","lat":57.352926,"lon":13.744099},{"id":"19152","name":"Kulltorpsvägen","lat":57.344134,"lon":13.747981},{"id":"19153","name":"Storågatan","lat":57.308587,"lon":13.873861},{"id":"19154","name":"Lid industriområde","lat":57.343681,"lon":13.762883},{"id":"19155","name":"Törestorp","lat":57.295743,"lon":13.847675},{"id":"19156","name":"Västragärde","lat":57.294121,"lon":13.840461},{"id":"19157","name":"Tyngel","lat":57.285496,"lon":13.824849},{"id":"19158","name":"High Chaparral","lat":57.263075,"lon":13.826352},{"id":"19159","name":"Bensinstationen","lat":57.264825,"lon":13.78901},{"id":"19160","name":"Kulltorps kyrka","lat":57.255514,"lon":13.784729},{"id":"19161","name":"Gohult","lat":57.245905,"lon":13.780915},{"id":"19162","name":"Målskogsvägen","lat":57.332647,"lon":13.730023},{"id":"19163","name":"Kulltorps skola","lat":57.260946,"lon":13.787366},{"id":"19164","name":"Glimmervägen","lat":57.342115,"lon":13.74424},{"id":"19165","name":"Industrimuséet","lat":57.340155,"lon":13.734333},{"id":"19166","name":"Sjögatan","lat":57.343578,"lon":13.729987},{"id":"19167","name":"Furuhall","lat":57.347638,"lon":13.729475},{"id":"19168","name":"Strömgatan","lat":57.354249,"lon":13.731644},{"id":"19169","name":"Gnosjö Kunskapscentrum","lat":57.360914,"lon":13.751396},{"id":"19170","name":"Marås","lat":57.334991,"lon":13.792987},{"id":"19171","name":"Brännehylte","lat":57.320812,"lon":13.847171},{"id":"19172","name":"Hillerstorps hamn","lat":57.317633,"lon":13.881537},{"id":"19173","name":"Sigarths","lat":57.312264,"lon":13.888756},{"id":"19174","name":"Träindustrin","lat":57.320658,"lon":13.877361},{"id":"19175","name":"Kävsjö","lat":57.313579,"lon":13.918083},{"id":"19176","name":"Hädinge","lat":57.277182,"lon":13.969278},{"id":"19177","name":"Åsenhöga skola","lat":57.409313,"lon":13.795151},{"id":"19179","name":"Götarp","lat":57.395526,"lon":13.748427},{"id":"19180","name":"Götarps Brunn","lat":57.40158,"lon":13.762264},{"id":"19181","name":"Prästgården","lat":57.403877,"lon":13.797861},{"id":"19182","name":"Store Mosse Nationalpark","lat":57.300687,"lon":13.928019},{"id":"19183","name":"Smedjebo","lat":57.392555,"lon":13.819623},{"id":"19184","name":"Skärvhult","lat":57.390197,"lon":13.835885},{"id":"19185","name":"Skarköpsvägen","lat":57.384949,"lon":13.85644},{"id":"19186","name":"Skillingarydsvägen","lat":57.383438,"lon":13.860395},{"id":"19187","name":"Marieholm Bäckafallsvägen","lat":57.381173,"lon":13.863209},{"id":"19188","name":"Nybygget","lat":57.369836,"lon":13.884996},{"id":"19189","name":"Slungsås","lat":57.33752,"lon":13.884915},{"id":"19190","name":"Mjogaryd","lat":57.35791,"lon":13.884747},{"id":"19191","name":"Åsenhöga kyrka","lat":57.407082,"lon":13.796371},{"id":"19192","name":"Nissafors affären","lat":57.408758,"lon":13.636197},{"id":"19193","name":"Stråkevedsvägen","lat":57.351476,"lon":13.930659},{"id":"19194","name":"Söderby","lat":57.334262,"lon":13.75893},{"id":"19195","name":"Bårebo","lat":57.30801,"lon":13.761236},{"id":"19196","name":"Högshult","lat":57.285976,"lon":13.790623},{"id":"19197","name":"Hillerstorps skola","lat":57.316254,"lon":13.88888},{"id":"19246","name":"Virserum centrum","lat":57.318648,"lon":15.58276},{"id":"19247","name":"Ekliden","lat":57.321284,"lon":15.568279},{"id":"19248","name":"Ekängen","lat":57.320548,"lon":15.559022},{"id":"19249","name":"Björkmossa","lat":57.321834,"lon":15.538382},{"id":"19250","name":"Hässlid","lat":57.32687,"lon":15.523106},{"id":"19328","name":"Nottebäck terminal","lat":57.088011,"lon":15.183503},{"id":"19329","name":"Skedavägen","lat":57.10094,"lon":15.181232},{"id":"19330","name":"Lugnet","lat":57.104883,"lon":15.179524},{"id":"19331","name":"Nöbbelevägen, Norrhult","lat":57.118589,"lon":15.17292},{"id":"19332","name":"Äspevägen","lat":57.127909,"lon":15.167411},{"id":"19333","name":"Fabriksgatan","lat":57.129074,"lon":15.161711},{"id":"19334","name":"Solgården","lat":57.129509,"lon":15.155577},{"id":"19335","name":"Vinkelgatan","lat":57.135686,"lon":15.144965},{"id":"19336","name":"Källhaga","lat":57.228313,"lon":15.145113},{"id":"19337","name":"Lindshammar","lat":57.221115,"lon":15.144083},{"id":"19338","name":"Vrånghult","lat":57.210216,"lon":15.153132},{"id":"19339","name":"Heda","lat":57.196811,"lon":15.156958},{"id":"19340","name":"Boestad","lat":57.193324,"lon":15.156325},{"id":"19341","name":"Lindås, Uppvidinge","lat":57.166057,"lon":15.16239},{"id":"19342","name":"Skruv","lat":57.1586,"lon":15.160074},{"id":"19343","name":"Svensholm","lat":57.148458,"lon":15.161093},{"id":"19344","name":"Majorsgatan, Klavrestr.","lat":57.140391,"lon":15.134723},{"id":"19345","name":"Målilla kyrka","lat":57.3858,"lon":15.795472},{"id":"19346","name":"Sanatorievägen","lat":57.38473,"lon":15.780042},{"id":"19347","name":"Gårdveda","lat":57.381086,"lon":15.756072},{"id":"19349","name":"Gamla Sanatorievägen","lat":57.385086,"lon":15.786909},{"id":"19350","name":"Stensryd","lat":57.397506,"lon":15.732647},{"id":"19351","name":"Målilla terminalen","lat":57.387561,"lon":15.805348},{"id":"19353","name":"Älvgränd","lat":57.478156,"lon":15.842585},{"id":"19354","name":"Stålhagen","lat":57.482709,"lon":15.842239},{"id":"19355","name":"Hagadal","lat":57.487171,"lon":15.834045},{"id":"19356","name":"Ödhult","lat":57.435974,"lon":15.833844},{"id":"19357","name":"Lillråsa","lat":57.457007,"lon":15.83685},{"id":"19358","name":"Lockebo vsk","lat":57.445043,"lon":15.835241},{"id":"19359","name":"Forshaga","lat":57.412544,"lon":15.617689},{"id":"19360","name":"Klövdalavägen","lat":57.414714,"lon":15.621988},{"id":"19361","name":"Klövdala gård","lat":57.421842,"lon":15.633519},{"id":"19362","name":"Östra Årena","lat":57.40399,"lon":15.707165},{"id":"19363","name":"Västra Årena","lat":57.406919,"lon":15.699055},{"id":"19364","name":"Videbrovägen","lat":57.411261,"lon":15.612621},{"id":"19365","name":"Fröreda östra","lat":57.408359,"lon":15.56962},{"id":"19366","name":"Fröreda västra","lat":57.406587,"lon":15.558742},{"id":"19367","name":"Lunden","lat":57.410113,"lon":15.686151},{"id":"19368","name":"Håkantorp","lat":57.406539,"lon":15.531209},{"id":"19369","name":"Kejsarkullen","lat":57.409994,"lon":15.590149},{"id":"19370","name":"Lammhult station","lat":57.170588,"lon":14.584926},{"id":"19371","name":"Eke terminal","lat":57.017705,"lon":15.053962},{"id":"19416","name":"Broholm","lat":57.13072,"lon":15.273228},{"id":"19417","name":"Hult","lat":57.098744,"lon":15.203221},{"id":"19418","name":"Älghultskolan","lat":57.00998,"lon":15.579002},{"id":"19419","name":"Hammarvägen","lat":57.165673,"lon":15.365674},{"id":"19420","name":"Kexagatan","lat":57.166117,"lon":15.340702},{"id":"19421","name":"Åseda skola","lat":57.170608,"lon":15.350663},{"id":"19422","name":"Höneskruvvägen","lat":56.94069,"lon":15.583359},{"id":"19423","name":"Alsterfors","lat":56.958837,"lon":15.604108},{"id":"19425","name":"Fröseke Kapell","lat":56.972658,"lon":15.768576},{"id":"19426","name":"Bockaskruv","lat":56.983819,"lon":15.703021},{"id":"19427","name":"Östermalm","lat":56.971264,"lon":15.673567},{"id":"19428","name":"Videvägen","lat":56.973968,"lon":15.647174},{"id":"19429","name":"Larmgatan, Alstermo","lat":56.975146,"lon":15.656164},{"id":"19430","name":"Lundby","lat":56.986876,"lon":15.654348},{"id":"19431","name":"Åkerslund","lat":56.998627,"lon":15.621499},{"id":"19432","name":"Älgasjön","lat":57.009832,"lon":15.597577},{"id":"19433","name":"Älghult kyrka","lat":57.008337,"lon":15.584304},{"id":"19434","name":"Svartshult","lat":57.005118,"lon":15.536367},{"id":"19435","name":"Hageskruv","lat":57.002475,"lon":15.503803},{"id":"19436","name":"Alstervägen, Sävsjöström","lat":57.001128,"lon":15.406283},{"id":"19438","name":"Hökhultvägen","lat":57.013623,"lon":15.386939},{"id":"19439","name":"Furubol","lat":57.008869,"lon":15.304163},{"id":"19440","name":"Villagatan","lat":56.999889,"lon":15.286504},{"id":"19441","name":"Kalmarvägen","lat":56.988051,"lon":15.29343},{"id":"19442","name":"Järnvägsgatan","lat":56.991887,"lon":15.289577},{"id":"19443","name":"Lenhovda terminal","lat":56.997367,"lon":15.287789},{"id":"19444","name":"Riksvägen","lat":57.00104,"lon":15.275109},{"id":"19445","name":"Prinsnäs","lat":57.003547,"lon":15.260739},{"id":"19446","name":"Lindesborg","lat":57.063273,"lon":15.192851},{"id":"19447","name":"Älmeshultvägen","lat":57.055649,"lon":15.19568},{"id":"19448","name":"Granhultsvägen","lat":57.048616,"lon":15.19914},{"id":"19449","name":"Glosäng","lat":57.043453,"lon":15.203837},{"id":"19450","name":"Lyreholm","lat":57.039335,"lon":15.210237},{"id":"19451","name":"Björkelund, Uppvidinge","lat":57.033522,"lon":15.222864},{"id":"19452","name":"Marhult","lat":57.025253,"lon":15.234923},{"id":"19453","name":"Hasslavägen","lat":57.020426,"lon":15.242941},{"id":"19454","name":"Marskogvägen","lat":57.028329,"lon":15.540003},{"id":"19455","name":"Hältekärr","lat":57.036658,"lon":15.52143},{"id":"19456","name":"Marshult","lat":57.057052,"lon":15.470894},{"id":"19457","name":"Norramålavägen","lat":57.060023,"lon":15.467208},{"id":"19458","name":"Labbemåla","lat":57.08764,"lon":15.440005},{"id":"19459","name":"Rismåla","lat":57.096095,"lon":15.438487},{"id":"19460","name":"Fagraholm","lat":57.111745,"lon":15.428841},{"id":"19461","name":"Ekhorva","lat":57.126229,"lon":15.417153},{"id":"19462","name":"Ekefors","lat":57.13448,"lon":15.396869},{"id":"19463","name":"Lillahult","lat":57.147545,"lon":15.372572},{"id":"19464","name":"Börsås","lat":57.193852,"lon":15.50774},{"id":"19465","name":"Massamåla","lat":57.178407,"lon":15.496729},{"id":"19466","name":"Mösjöhultsvägen","lat":57.155594,"lon":15.547937},{"id":"19467","name":"Kaxebo","lat":57.165796,"lon":15.472496},{"id":"19468","name":"Sjömillan","lat":57.163007,"lon":15.430848},{"id":"19469","name":"Ekenäs","lat":57.163763,"lon":15.39981},{"id":"19471","name":"Lillgatan","lat":57.166146,"lon":15.353421},{"id":"19472","name":"Badeboda","lat":57.147093,"lon":15.297782},{"id":"19473","name":"Linneberga norra","lat":57.144424,"lon":15.292714},{"id":"19474","name":"Linneberga södra","lat":57.140864,"lon":15.28737},{"id":"19475","name":"Flybo","lat":57.12403,"lon":15.263707},{"id":"19476","name":"Nottebäcksskolan","lat":57.13011,"lon":15.158787},{"id":"19477","name":"Alstermo terminal","lat":56.974976,"lon":15.649143},{"id":"19478","name":"Östra industrigatan","lat":57.168961,"lon":15.369957},{"id":"19480","name":"Grimsnäs","lat":56.66533,"lon":15.332592},{"id":"19481","name":"Grycksbovägen","lat":56.742956,"lon":15.266155},{"id":"19482","name":"Källeskruv","lat":56.82584,"lon":15.387966},{"id":"19483","name":"Bikupan","lat":56.751436,"lon":15.274999},{"id":"19484","name":"Tjugosjö norra","lat":56.706322,"lon":15.287627},{"id":"19485","name":"Tjugosjö södra","lat":56.700047,"lon":15.297965},{"id":"19486","name":"Vidavägen","lat":56.687106,"lon":15.311284},{"id":"19487","name":"Ljuder","lat":56.68068,"lon":15.315684},{"id":"19488","name":"Skogsgatan","lat":56.791043,"lon":15.123625},{"id":"19491","name":"Åkerby vägskäl","lat":56.660645,"lon":15.338097},{"id":"19492","name":"Höjden","lat":56.664514,"lon":15.353526},{"id":"19493","name":"Bergstigen","lat":56.672974,"lon":15.363391},{"id":"19494","name":"Skruvbyvägen","lat":56.6821,"lon":15.360208},{"id":"19495","name":"Skruvby","lat":56.708414,"lon":15.34957},{"id":"19496","name":"Sävsjö, Lessebo kommun","lat":56.720544,"lon":15.341461},{"id":"19497","name":"Kosta Glasbruk","lat":56.849405,"lon":15.395005},{"id":"19498","name":"Åkervägen","lat":56.846497,"lon":15.39543},{"id":"19499","name":"Folkets Hus","lat":56.843045,"lon":15.396869},{"id":"19500","name":"Backgatan","lat":56.836941,"lon":15.399204},{"id":"19501","name":"Ekeberga kyrka","lat":56.833536,"lon":15.399954},{"id":"19502","name":"Hulterstad","lat":56.829725,"lon":15.393459},{"id":"19503","name":"Ringius","lat":56.821875,"lon":15.382385},{"id":"19505","name":"Rydvägen","lat":56.796469,"lon":15.318313},{"id":"19506","name":"Stora Bökås","lat":56.782356,"lon":15.198588},{"id":"19507","name":"Dalagatan","lat":56.785941,"lon":15.149299},{"id":"19508","name":"Västergatan","lat":56.788468,"lon":15.129799},{"id":"19509","name":"Tallvägen, Hovmantorp","lat":56.79304,"lon":15.121698},{"id":"19510","name":"Flädingsmåla","lat":56.730092,"lon":15.309502},{"id":"19511","name":"Linnerydsvägen","lat":56.744514,"lon":15.269287},{"id":"19512","name":"Åkerhultsvägen","lat":56.754467,"lon":15.282607},{"id":"19513","name":"Industrigatan","lat":56.762364,"lon":15.265468},{"id":"19514","name":"Parkgatan","lat":56.756328,"lon":15.267165},{"id":"19516","name":"Videslund","lat":56.728177,"lon":15.265771},{"id":"19517","name":"Genvägen, Skruv","lat":56.674029,"lon":15.363379},{"id":"19519","name":"Fridhem","lat":56.407644,"lon":14.935623},{"id":"19520","name":"Fryggestorp","lat":56.64326,"lon":15.182766},{"id":"19521","name":"Dackeskolan","lat":56.527819,"lon":14.974193},{"id":"19522","name":"Trojaskolan Ryd","lat":56.466674,"lon":14.691572},{"id":"19523","name":"Norrahult","lat":56.419748,"lon":14.953285},{"id":"19524","name":"Degerhaga","lat":56.526872,"lon":14.921077},{"id":"19525","name":"Hunnamålavägen","lat":56.530031,"lon":14.819334},{"id":"19526","name":"Snickaregård","lat":56.529326,"lon":15.170972},{"id":"19527","name":"Botahultsvägen","lat":56.622042,"lon":14.922899},{"id":"19528","name":"Sjöryd","lat":56.51833,"lon":14.750672},{"id":"19529","name":"Jämshög, Tingsryd","lat":56.536964,"lon":14.999771},{"id":"19530","name":"Göljahult, Tingsryd","lat":56.580146,"lon":15.074194},{"id":"19531","name":"Fliselycke norra","lat":56.598773,"lon":15.088348},{"id":"19533","name":"Bredebäckshult","lat":56.634655,"lon":15.125759},{"id":"19534","name":"Norratorp","lat":56.638594,"lon":15.126829},{"id":"19535","name":"Nottrakulla","lat":56.617245,"lon":15.111787},{"id":"19536","name":"Gatehult","lat":56.601817,"lon":15.09368},{"id":"19537","name":"Fliselycke södra","lat":56.592926,"lon":15.078831},{"id":"19538","name":"Siggahult","lat":56.573806,"lon":15.074333},{"id":"19539","name":"Randövägen","lat":56.562541,"lon":15.067736},{"id":"19540","name":"Bjälkalund","lat":56.556936,"lon":15.05407},{"id":"19541","name":"Kroksjöbo","lat":56.5502,"lon":15.033522},{"id":"19542","name":"Södergården","lat":56.545082,"lon":15.023595},{"id":"19543","name":"Wasaskolan","lat":56.531437,"lon":14.984247},{"id":"19545","name":"Bultvägen","lat":56.519554,"lon":14.985316},{"id":"19546","name":"Dubbvägen","lat":56.517312,"lon":14.995445},{"id":"19547","name":"Djuramåla","lat":56.463867,"lon":15.013651},{"id":"19548","name":"Elserås","lat":56.482334,"lon":15.002789},{"id":"19549","name":"Elsemåla","lat":56.490665,"lon":14.999496},{"id":"19550","name":"Skogryd","lat":56.499048,"lon":14.995827},{"id":"19551","name":"Plogvägen Tingsryd","lat":56.515013,"lon":14.996818},{"id":"19552","name":"Hensmåla","lat":56.500786,"lon":15.047907},{"id":"19553","name":"Hensmåla östra","lat":56.498134,"lon":15.064425},{"id":"19554","name":"Kristinelund, Tingsryd","lat":56.497273,"lon":15.074606},{"id":"19555","name":"Aritsbomåla","lat":56.504381,"lon":15.102427},{"id":"19556","name":"Örmoskolan","lat":56.499715,"lon":15.126586},{"id":"19558","name":"Södra Sandsjö","lat":56.510989,"lon":15.152161},{"id":"19559","name":"Holmahult","lat":56.533456,"lon":15.174268},{"id":"19560","name":"Älften","lat":56.547043,"lon":15.189348},{"id":"19561","name":"Hemmingsmåla","lat":56.549668,"lon":15.205378},{"id":"19562","name":"Rörshult, Kråksmåla","lat":56.551528,"lon":15.226487},{"id":"19563","name":"Vallgatan, Rävemåla","lat":56.557891,"lon":15.263322},{"id":"19564","name":"Idrottsplatsen","lat":56.563916,"lon":15.262918},{"id":"19565","name":"Skräddaremåla","lat":56.574061,"lon":15.258331},{"id":"19566","name":"Älmeboda södra","lat":56.587853,"lon":15.251565},{"id":"19567","name":"Älmeboda norra","lat":56.590312,"lon":15.249201},{"id":"19568","name":"Vinnamåla","lat":56.604458,"lon":15.23963},{"id":"19569","name":"Stenvärmsholm","lat":56.614974,"lon":15.21461},{"id":"19570","name":"Kalvsnäsvägen","lat":56.645629,"lon":15.176011},{"id":"19571","name":"Rolsmovägen","lat":56.648997,"lon":15.168155},{"id":"19572","name":"Klockvägen","lat":56.656072,"lon":15.130493},{"id":"19573","name":"Haglyckevägen","lat":56.662422,"lon":15.123195},{"id":"19574","name":"Smöramåla","lat":56.529955,"lon":14.825715},{"id":"19575","name":"Trehörna","lat":56.532103,"lon":14.836118},{"id":"19576","name":"Trehörna östra","lat":56.532352,"lon":14.848601},{"id":"19577","name":"Havralyckevägen","lat":56.530664,"lon":14.862157},{"id":"19578","name":"Bredaslätt","lat":56.530515,"lon":14.884198},{"id":"19579","name":"Drakamåla","lat":56.530023,"lon":14.9022},{"id":"19580","name":"Kroksjömåla","lat":56.527082,"lon":14.946487},{"id":"19581","name":"Mårslycke","lat":56.529498,"lon":14.956345},{"id":"19582","name":"Vipan","lat":56.529728,"lon":14.968325},{"id":"19583","name":"Växjövägen","lat":56.531706,"lon":14.962699},{"id":"19584","name":"Solhem","lat":56.547825,"lon":14.955186},{"id":"19585","name":"Tingsmålavägen","lat":56.553447,"lon":14.953255},{"id":"19586","name":"Salatorpet","lat":56.561254,"lon":14.94968},{"id":"19587","name":"Slättamåla","lat":56.568412,"lon":14.946395},{"id":"19588","name":"Möcklerydsvägen","lat":56.575218,"lon":14.942954},{"id":"19589","name":"Kvarnamåla","lat":56.586626,"lon":14.932986},{"id":"19590","name":"Kåranäs","lat":56.602466,"lon":14.927589},{"id":"19591","name":"Snärshult","lat":56.607916,"lon":14.92673},{"id":"19592","name":"Elovshult","lat":56.61488,"lon":14.925468},{"id":"19593","name":"Väckelsång södra","lat":56.629711,"lon":14.920259},{"id":"19594","name":"Lyckovägen","lat":56.64487,"lon":14.918331},{"id":"19595","name":"Östadvägen","lat":56.654189,"lon":14.915405},{"id":"19596","name":"Stenshult","lat":56.519369,"lon":14.635118},{"id":"19597","name":"Trestenshult","lat":56.503594,"lon":14.686266},{"id":"19598","name":"Anderslund","lat":56.415553,"lon":14.660078},{"id":"19599","name":"Slattesmåla","lat":56.428463,"lon":14.66922},{"id":"19600","name":"Inlockahult","lat":56.444592,"lon":14.680949},{"id":"19601","name":"Maskinvägen","lat":56.462085,"lon":14.686556},{"id":"19603","name":"Sjölunden","lat":56.470413,"lon":14.693328},{"id":"19604","name":"Blidingsholm","lat":56.503053,"lon":14.722563},{"id":"19605","name":"Långaryd","lat":56.512739,"lon":14.739635},{"id":"19606","name":"Östra Älmehult","lat":56.523496,"lon":14.766891},{"id":"19607","name":"Hackekvarnsvägen","lat":56.527329,"lon":14.791714},{"id":"19608","name":"Urshult kyrka","lat":56.529631,"lon":14.798673},{"id":"19609","name":"Stationsvägen Urshult","lat":56.531613,"lon":14.812744},{"id":"19610","name":"Ålshult","lat":56.525154,"lon":14.662263},{"id":"19611","name":"Norraryd","lat":56.484058,"lon":14.69667},{"id":"19612","name":"Kråkebro","lat":56.492497,"lon":14.698738},{"id":"19613","name":"Granö","lat":56.438073,"lon":14.675159},{"id":"19614","name":"Kuppersmåla","lat":56.449185,"lon":14.682289},{"id":"19618","name":"Stenfors","lat":56.458194,"lon":15.000046},{"id":"19619","name":"Knällsberg","lat":56.441311,"lon":14.9785},{"id":"19620","name":"Gäddeviksås vägskäl","lat":56.384648,"lon":14.902409},{"id":"19621","name":"Sundvägen","lat":56.690274,"lon":14.602838},{"id":"19622","name":"Arnanäs","lat":56.951932,"lon":14.628793},{"id":"19623","name":"Bullerbyn","lat":56.935511,"lon":14.577974},{"id":"19624","name":"Hössjö","lat":57.006967,"lon":14.516834},{"id":"19625","name":"Prästängsskolan","lat":56.902648,"lon":14.569451},{"id":"19626","name":"Skulatorp","lat":56.681666,"lon":14.541246},{"id":"19627","name":"Köp, Lönashult","lat":56.66501,"lon":14.528463},{"id":"19628","name":"Dalhem","lat":56.849965,"lon":14.517429},{"id":"19629","name":"Västregård","lat":56.851342,"lon":14.536084},{"id":"19630","name":"Jutagård","lat":56.85464,"lon":14.537201},{"id":"19631","name":"Salsryd","lat":56.858554,"lon":14.538315},{"id":"19632","name":"Benestad norra","lat":56.883257,"lon":14.547362},{"id":"19635","name":"Sisslebodavägen","lat":56.842168,"lon":14.483365},{"id":"19636","name":"Änganäs","lat":56.876297,"lon":14.523034},{"id":"19637","name":"Stora Målen","lat":57.080971,"lon":14.618012},{"id":"19638","name":"Gemmatorp","lat":56.920724,"lon":14.594897},{"id":"19639","name":"Skatelövskolan","lat":56.738662,"lon":14.544071},{"id":"19640","name":"Vislanda Skola","lat":56.786586,"lon":14.44844},{"id":"19641","name":"Benestad södra","lat":56.871692,"lon":14.544045},{"id":"19642","name":"Borshult","lat":56.946474,"lon":14.659974},{"id":"19643","name":"Hästhagen","lat":56.769106,"lon":14.469001},{"id":"19644","name":"Spånghult","lat":56.775349,"lon":14.483403},{"id":"19645","name":"Notteryd, Torpsbruk","lat":57.041106,"lon":14.577934},{"id":"19646","name":"Grönkullaskolan","lat":56.90086,"lon":14.544218},{"id":"19647","name":"Blädinge kyrka","lat":56.848961,"lon":14.532067},{"id":"19648","name":"Södersol","lat":56.867206,"lon":14.543089},{"id":"19649","name":"Lindhult","lat":57.151781,"lon":14.463013},{"id":"19650","name":"Gölsjöskruv","lat":57.134681,"lon":14.463798},{"id":"19651","name":"Bokelund","lat":57.114741,"lon":14.458494},{"id":"19652","name":"Österhult","lat":57.104998,"lon":14.462726},{"id":"19653","name":"Åboda","lat":57.085108,"lon":14.471362},{"id":"19655","name":"Klasentorp","lat":57.033609,"lon":14.514751},{"id":"19656","name":"Slätthög","lat":57.021015,"lon":14.510939},{"id":"19657","name":"Härlöv","lat":56.958842,"lon":14.638742},{"id":"19658","name":"Gåvetorp","lat":56.948038,"lon":14.587866},{"id":"19659","name":"Lekaryd vägskäl","lat":56.92172,"lon":14.568237},{"id":"19662","name":"Näs, Alvesta","lat":57.0754,"lon":14.612039},{"id":"19663","name":"Bäckanäs","lat":57.066076,"lon":14.605135},{"id":"19664","name":"Björkedal, Alvesta","lat":56.751908,"lon":14.491428},{"id":"19665","name":"Skörda","lat":56.762355,"lon":14.485618},{"id":"19666","name":"Elnarydsvägen","lat":56.769132,"lon":14.478968},{"id":"19667","name":"Kärr, Alvesta","lat":56.712585,"lon":14.491118},{"id":"19668","name":"Björnstorp","lat":56.918618,"lon":14.555253},{"id":"19669","name":"Svampvägen","lat":56.903518,"lon":14.529627},{"id":"19670","name":"Gemlavägen","lat":56.888013,"lon":14.584488},{"id":"19671","name":"Aplamon","lat":56.793729,"lon":14.427438},{"id":"19672","name":"Spjutaretorp","lat":56.795809,"lon":14.420225},{"id":"19673","name":"Speleboda","lat":56.803485,"lon":14.395092},{"id":"19674","name":"Mörhultvägen","lat":56.808289,"lon":14.376885},{"id":"19675","name":"Ugnabygden","lat":56.810999,"lon":14.366089},{"id":"19676","name":"Mjöhultvägen","lat":56.812617,"lon":14.358438},{"id":"19677","name":"Åäng","lat":56.81695,"lon":14.317615},{"id":"19678","name":"Vrankunge","lat":56.707536,"lon":14.6383},{"id":"19679","name":"Buskahult","lat":56.721932,"lon":14.647866},{"id":"19680","name":"Väghult, Alvesta","lat":56.740596,"lon":14.664615},{"id":"19681","name":"Torne","lat":56.692328,"lon":14.604919},{"id":"19682","name":"Hunna","lat":56.720562,"lon":14.582515},{"id":"19683","name":"Torp, Alvesta","lat":56.726059,"lon":14.57755},{"id":"19684","name":"Sjöborgen","lat":56.738099,"lon":14.560897},{"id":"19685","name":"Bleckslagarevägen","lat":56.737769,"lon":14.546364},{"id":"19686","name":"Torsåsby","lat":56.693077,"lon":14.568644},{"id":"19687","name":"Smörhöga","lat":56.733705,"lon":14.516966},{"id":"19688","name":"Högabergsvägen","lat":56.735644,"lon":14.533453},{"id":"19690","name":"Föreningslokalen","lat":56.740797,"lon":14.545601},{"id":"19691","name":"Persgården","lat":56.747518,"lon":14.558052},{"id":"19692","name":"Tornevägen","lat":56.759848,"lon":14.561486},{"id":"19693","name":"Ströby","lat":56.767406,"lon":14.562478},{"id":"19694","name":"Rosenborg","lat":56.750416,"lon":14.567135},{"id":"19695","name":"Grimslöv folkhögskola","lat":56.753655,"lon":14.570911},{"id":"19696","name":"Skatelöv kyrka","lat":56.7577,"lon":14.575332},{"id":"19697","name":"Nyalund","lat":56.762815,"lon":14.578615},{"id":"19698","name":"Opparyd","lat":56.700297,"lon":14.498183},{"id":"19699","name":"Hynnenäs","lat":56.684563,"lon":14.490602},{"id":"19700","name":"Bygdegården","lat":56.676562,"lon":14.492023},{"id":"19701","name":"Lönashult","lat":56.649374,"lon":14.5129},{"id":"19702","name":"Västra Torsås kyrka","lat":56.650336,"lon":14.516454},{"id":"19703","name":"Skolan, Lönashult","lat":56.647549,"lon":14.51787},{"id":"19704","name":"Lövhult","lat":56.706812,"lon":14.414413},{"id":"19705","name":"Granhyltan","lat":56.718084,"lon":14.455663},{"id":"19706","name":"Gottåsa Gård","lat":56.730188,"lon":14.478348},{"id":"19707","name":"Gottåsa vägskäl","lat":56.733148,"lon":14.487157},{"id":"19709","name":"Odensjövägen","lat":56.782401,"lon":14.601486},{"id":"19710","name":"Huseby","lat":56.778321,"lon":14.584554},{"id":"19711","name":"Kojtet","lat":56.786021,"lon":14.480695},{"id":"19712","name":"Hönetorp","lat":56.785979,"lon":14.472123},{"id":"19713","name":"Husebyvägen","lat":56.786066,"lon":14.461787},{"id":"19714","name":"Torggatan","lat":56.788072,"lon":14.447118},{"id":"19715","name":"Olvägen","lat":56.793732,"lon":14.442421},{"id":"19716","name":"Stolparås","lat":56.807148,"lon":14.462055},{"id":"19717","name":"Hjälmaryd","lat":56.854419,"lon":14.496227},{"id":"19718","name":"Hamrarnavägen","lat":56.890376,"lon":14.545277},{"id":"19719","name":"Hjortsberga, Alvesta","lat":56.914668,"lon":14.455352},{"id":"19720","name":"Hjortsberga Kyrka, Alvesta","lat":56.921781,"lon":14.478776},{"id":"19721","name":"Transjö","lat":56.937019,"lon":14.490433},{"id":"19722","name":"Sköldstad","lat":56.94609,"lon":14.511599},{"id":"19723","name":"Aringsbergsvägen","lat":56.896501,"lon":14.567291},{"id":"19724","name":"Planen","lat":56.920606,"lon":14.567354},{"id":"19725","name":"Fjärdingsvägen","lat":56.906477,"lon":14.567084},{"id":"19726","name":"Alvesta Kyrka","lat":56.900758,"lon":14.564614},{"id":"19727","name":"Hagaparken","lat":56.903243,"lon":14.553994},{"id":"19728","name":"Sköldstavägen","lat":56.904156,"lon":14.547381},{"id":"19729","name":"Odlingsvägen","lat":56.904368,"lon":14.535105},{"id":"19730","name":"Riksdagsmannagården","lat":56.899386,"lon":14.552162},{"id":"19731","name":"Alvesta Folkets hus","lat":56.900764,"lon":14.553462},{"id":"19732","name":"Trädgårdsgatan","lat":56.904718,"lon":14.556899},{"id":"19733","name":"Videgatan","lat":56.909798,"lon":14.555687},{"id":"19734","name":"Hjärtanäs","lat":56.935843,"lon":14.559284},{"id":"19735","name":"Grännaforsa","lat":56.970555,"lon":14.57026},{"id":"19736","name":"Skarnen","lat":56.981772,"lon":14.567528},{"id":"19737","name":"Marknadsvägen","lat":56.999787,"lon":14.564814},{"id":"19738","name":"Gloelidsvägen","lat":56.984315,"lon":14.630584},{"id":"19739","name":"Sjöanäsvägen","lat":56.985848,"lon":14.612276},{"id":"19740","name":"Västra Hordavägen","lat":56.989632,"lon":14.598533},{"id":"19743","name":"Bäckvägen","lat":56.998136,"lon":14.578207},{"id":"19744","name":"Granefors","lat":57.050952,"lon":14.569567},{"id":"19745","name":"Högåsvägen","lat":57.004693,"lon":14.570477},{"id":"19747","name":"Vegby sporthall","lat":57.012062,"lon":14.571887},{"id":"19748","name":"Nackekvarn","lat":57.016174,"lon":14.573192},{"id":"19749","name":"Östanåkra","lat":57.027471,"lon":14.57402},{"id":"19750","name":"Lyckevägen","lat":57.036122,"lon":14.566115},{"id":"19751","name":"Ölsåkravägen","lat":57.055977,"lon":14.589787},{"id":"19752","name":"Lidnäs","lat":57.06954,"lon":14.605814},{"id":"19753","name":"Hagaskolan","lat":56.901738,"lon":14.553019},{"id":"19756","name":"Brunnshult","lat":56.904458,"lon":14.383825},{"id":"19757","name":"Forsdalavägen","lat":56.899229,"lon":14.529568},{"id":"19758","name":"Skogskyrkan","lat":56.912432,"lon":14.567133},{"id":"19760","name":"Härlöv kyrka","lat":56.96114,"lon":14.637742},{"id":"19761","name":"Åeke Hjortsberga","lat":56.988069,"lon":14.526248},{"id":"19762","name":"Elofstorp","lat":56.973922,"lon":14.514614},{"id":"19763","name":"Sköldsta","lat":56.940102,"lon":14.510493},{"id":"19764","name":"Nordberg","lat":56.929916,"lon":14.484614},{"id":"19766","name":"Hallanäset nya","lat":56.879446,"lon":14.551091},{"id":"19767","name":"Bygdegården Blädinge","lat":56.850984,"lon":14.509624},{"id":"19769","name":"Lästad säteri","lat":56.810652,"lon":14.543928},{"id":"19771","name":"Vislanda Centrum","lat":56.786771,"lon":14.453048},{"id":"19773","name":"Björkeryd, Torpsbruk","lat":57.030803,"lon":14.563155},{"id":"19774","name":"Kronobergshed","lat":56.971971,"lon":14.565049},{"id":"19777","name":"Degerön","lat":56.702448,"lon":14.379969},{"id":"19778","name":"Boansö","lat":56.703933,"lon":14.39362},{"id":"19779","name":"Kåraböke","lat":56.551535,"lon":14.265793},{"id":"19780","name":"Örtvägen","lat":56.544798,"lon":14.118448},{"id":"19781","name":"Klöxhultskolan","lat":56.547508,"lon":14.119563},{"id":"19782","name":"Älgstigen","lat":56.553459,"lon":14.124901},{"id":"19783","name":"Haganässkolan","lat":56.551957,"lon":14.15655},{"id":"19784","name":"Gemöskolan","lat":56.557504,"lon":14.147484},{"id":"19785","name":"Rödingstigen","lat":56.57122,"lon":14.148267},{"id":"19786","name":"Gäddstigen","lat":56.57449,"lon":14.150955},{"id":"19787","name":"Möckelns väg","lat":56.576704,"lon":14.153316},{"id":"19788","name":"Möckeln,Bokv.","lat":56.576507,"lon":14.158133},{"id":"19789","name":"Amundshylte","lat":56.515925,"lon":14.574326},{"id":"19790","name":"Karsemålavägen","lat":56.521369,"lon":14.523845},{"id":"19791","name":"Brändetorpsvägen","lat":56.521029,"lon":14.499809},{"id":"19792","name":"Häradsmåla","lat":56.520454,"lon":14.480363},{"id":"19793","name":"Bygdegården, Häradsbäck","lat":56.530051,"lon":14.463166},{"id":"19794","name":"Knoxhultsv. Häradsbäck","lat":56.529955,"lon":14.451021},{"id":"19795","name":"Torbjörnahult","lat":56.527913,"lon":14.412578},{"id":"19796","name":"Uthövdan","lat":56.527565,"lon":14.400874},{"id":"19797","name":"Barkhult","lat":56.526774,"lon":14.377193},{"id":"19798","name":"Sänneshult vägskäl","lat":56.535326,"lon":14.359429},{"id":"19799","name":"Agnshult","lat":56.540295,"lon":14.351924},{"id":"19800","name":"Dammen","lat":56.545214,"lon":14.322843},{"id":"19801","name":"Virestadvägen","lat":56.54847,"lon":14.31048},{"id":"19802","name":"Bråthult","lat":56.558768,"lon":14.28718},{"id":"19803","name":"Möllekulla","lat":56.557536,"lon":14.237135},{"id":"19804","name":"Högadal","lat":56.558908,"lon":14.220674},{"id":"19805","name":"Nybygden","lat":56.560616,"lon":14.199124},{"id":"19806","name":"Ringcentralen","lat":56.532417,"lon":14.131384},{"id":"19807","name":"Centrallager syd","lat":56.532946,"lon":14.12403},{"id":"19808","name":"Centrallager nord","lat":56.535899,"lon":14.123184},{"id":"19810","name":"Lundgatan","lat":56.560807,"lon":14.14529},{"id":"19811","name":"Sommarvägen","lat":56.568048,"lon":14.149829},{"id":"19812","name":"Möckeln","lat":56.575914,"lon":14.158769},{"id":"19813","name":"Stolpastugan","lat":56.591848,"lon":14.177172},{"id":"19814","name":"Södra Borshultsvägen","lat":56.598188,"lon":14.182581},{"id":"19815","name":"Stockanäs vägskäl","lat":56.607105,"lon":14.182125},{"id":"19817","name":"Butiksgatan","lat":56.636521,"lon":14.219742},{"id":"19818","name":"Ekebo","lat":56.641775,"lon":14.222554},{"id":"19819","name":"Bryggerivägen","lat":56.646757,"lon":14.228687},{"id":"19820","name":"Dihult","lat":56.649305,"lon":14.23414},{"id":"19821","name":"Värpeshult södra","lat":56.65298,"lon":14.244268},{"id":"19822","name":"Värpeshult norra","lat":56.657641,"lon":14.25103},{"id":"19823","name":"Brandstationen, Liatorp","lat":56.66457,"lon":14.259977},{"id":"19824","name":"Regnbågsvägen, Liatorp","lat":56.663041,"lon":14.269997},{"id":"19825","name":"Virestad kyrka","lat":56.625452,"lon":14.339119},{"id":"19826","name":"Enerydavägen","lat":56.629468,"lon":14.336959},{"id":"19828","name":"Baggåsvägen","lat":56.653006,"lon":14.308845},{"id":"19829","name":"Gölshultsgränd","lat":56.663031,"lon":14.280101},{"id":"19830","name":"Liljansvägen","lat":56.666927,"lon":14.272685},{"id":"19831","name":"Blåsippan","lat":56.549853,"lon":14.129915},{"id":"19833","name":"Blåljushuset","lat":56.53929,"lon":14.127204},{"id":"19834","name":"Stålgatan","lat":56.535725,"lon":14.132588},{"id":"19835","name":"Wallingatan","lat":56.541938,"lon":14.13576},{"id":"19836","name":"Bökhult","lat":56.566268,"lon":14.126277},{"id":"19838","name":"Sjöastadsbygd","lat":56.578601,"lon":14.102547},{"id":"19839","name":"Skärshultsvägen","lat":56.585391,"lon":14.098571},{"id":"19840","name":"Boastads vägskäl","lat":56.592195,"lon":14.097971},{"id":"19841","name":"Kärstavik","lat":56.602606,"lon":14.077862},{"id":"19842","name":"Länshult","lat":56.608936,"lon":14.065805},{"id":"19843","name":"Bergagården","lat":56.627213,"lon":14.037971},{"id":"19844","name":"Pjätteryd","lat":56.640822,"lon":14.026722},{"id":"19845","name":"Käxnäs","lat":56.63821,"lon":14.014962},{"id":"19846","name":"Långaskog","lat":56.631089,"lon":13.985949},{"id":"19847","name":"Ugnhult","lat":56.705286,"lon":14.243677},{"id":"19848","name":"Rephult","lat":56.695406,"lon":14.243662},{"id":"19849","name":"Kateboda","lat":56.68051,"lon":14.251867},{"id":"19850","name":"Järpastugan","lat":56.681496,"lon":14.29329},{"id":"19851","name":"Mölleryd","lat":56.684806,"lon":14.31416},{"id":"19852","name":"Gummegatan, Eneryda","lat":56.705188,"lon":14.336735},{"id":"19853","name":"Eneryda Skola","lat":56.700938,"lon":14.340729},{"id":"19854","name":"Eneryda vägskäl","lat":56.698098,"lon":14.345182},{"id":"19855","name":"Lindås","lat":56.699868,"lon":14.354036},{"id":"19856","name":"Forreryd","lat":56.569999,"lon":13.823163},{"id":"19857","name":"Juddhult","lat":56.569331,"lon":13.848451},{"id":"19858","name":"Hästberga","lat":56.570801,"lon":13.866013},{"id":"19859","name":"Göteryd","lat":56.57117,"lon":13.882006},{"id":"19861","name":"Ramnäs","lat":56.569523,"lon":13.919578},{"id":"19862","name":"Ryfors","lat":56.563101,"lon":13.934474},{"id":"19863","name":"Delary","lat":56.548537,"lon":13.955227},{"id":"19864","name":"Delary östra","lat":56.547478,"lon":13.962532},{"id":"19865","name":"Kölaboda","lat":56.550459,"lon":13.97673},{"id":"19866","name":"Skateboda vägskäl","lat":56.552583,"lon":13.995119},{"id":"19867","name":"Brokhult","lat":56.550709,"lon":14.035515},{"id":"19868","name":"Brokhult Ö:a","lat":56.551129,"lon":14.058532},{"id":"19869","name":"Linneboda","lat":56.551588,"lon":14.07109},{"id":"19870","name":"Svanaboda","lat":56.552046,"lon":14.084315},{"id":"19871","name":"Majtorpsgatan","lat":56.557656,"lon":14.130042},{"id":"19872","name":"Häradsbäckskola","lat":56.530881,"lon":14.461032},{"id":"19873","name":"Vattentornet","lat":56.550446,"lon":14.149029},{"id":"19874","name":"Handelsområdet","lat":56.551354,"lon":14.160568},{"id":"19875","name":"Tulpanvägen","lat":56.550504,"lon":14.13122},{"id":"19876","name":"Kontorshuset","lat":56.550924,"lon":14.133738},{"id":"19877","name":"Silverdalsgatan","lat":56.556604,"lon":14.148744},{"id":"19878","name":"Sparvgatan","lat":56.538318,"lon":14.116834},{"id":"19879","name":"Norregård","lat":56.558372,"lon":14.12256},{"id":"19880","name":"Hagabo","lat":56.553439,"lon":14.158591},{"id":"19882","name":"Glasbruksvägen","lat":56.556699,"lon":13.721302},{"id":"19883","name":"Majenfors","lat":56.492904,"lon":13.461548},{"id":"19884","name":"Västra Haghult","lat":56.480707,"lon":13.484842},{"id":"19885","name":"Ternhult","lat":56.578869,"lon":13.785249},{"id":"19887","name":"Smedjegatan","lat":56.577839,"lon":13.751688},{"id":"19888","name":"Södra stationsgatan","lat":56.574076,"lon":13.743072},{"id":"19889","name":"Luhrpasset","lat":56.560391,"lon":13.723978},{"id":"19890","name":"Röcklavägen","lat":56.552016,"lon":13.725138},{"id":"19891","name":"Fågelvägen","lat":56.540994,"lon":13.723783},{"id":"19892","name":"Alandsköp","lat":56.526667,"lon":13.698508},{"id":"19893","name":"Johansro","lat":56.515472,"lon":13.687325},{"id":"19894","name":"Spelmansliden","lat":56.500234,"lon":13.646481},{"id":"19896","name":"Bokhultsvägen","lat":56.493137,"lon":13.616436},{"id":"19897","name":"Exhultvägen","lat":56.482509,"lon":13.609507},{"id":"19898","name":"Sjöängsvägen","lat":56.471885,"lon":13.603361},{"id":"19899","name":"Skolgatan, Markaryd","lat":56.464251,"lon":13.597888},{"id":"19901","name":"Skulptörvägen","lat":56.449208,"lon":13.59761},{"id":"19902","name":"Skogshyddan","lat":56.420877,"lon":13.549346},{"id":"19903","name":"Brånhult","lat":56.432997,"lon":13.570257},{"id":"19904","name":"Köphult","lat":56.413548,"lon":13.541045},{"id":"19908","name":"Vagnmakarevägen","lat":56.448369,"lon":13.609061},{"id":"19909","name":"Hyltevägen","lat":56.446279,"lon":13.586523},{"id":"19910","name":"Björkebergsvägen","lat":56.449899,"lon":13.613791},{"id":"19911","name":"Romalyckan","lat":56.854035,"lon":14.814131},{"id":"19912","name":"Furutåskolan","lat":56.854442,"lon":14.808777},{"id":"19913","name":"Elin Wägners väg","lat":56.853495,"lon":14.804999},{"id":"19914","name":"Bondevägen","lat":56.8489,"lon":14.80309},{"id":"19915","name":"Slåttervägen","lat":56.84474,"lon":14.800595},{"id":"19916","name":"Allmogevägen","lat":56.842154,"lon":14.800648},{"id":"19917","name":"P G Vejdes väg","lat":56.854696,"lon":14.827826},{"id":"19918","name":"Annae Gärde","lat":56.873029,"lon":14.819713},{"id":"19919","name":"Alegatan","lat":56.873371,"lon":14.823886},{"id":"19920","name":"Stjärnvägen","lat":56.872565,"lon":14.827597},{"id":"19921","name":"Spånadsvägen","lat":56.871377,"lon":14.833622},{"id":"19922","name":"Lilla Trädgårdstorpet","lat":56.935508,"lon":14.796298},{"id":"19924","name":"Åbyvägen","lat":57.024194,"lon":14.884179},{"id":"19925","name":"Tolg Kyrkan","lat":57.091515,"lon":14.825745},{"id":"19927","name":"Sjöamellan","lat":56.795365,"lon":14.88072},{"id":"19928","name":"Granstugan","lat":56.933416,"lon":14.866668},{"id":"19929","name":"Eke","lat":57.020754,"lon":15.037814},{"id":"19931","name":"Västra Esplanaden","lat":56.87819,"lon":14.80137},{"id":"19932","name":"Spetsamossen","lat":56.882716,"lon":14.800281},{"id":"19933","name":"Vintervägen","lat":56.886189,"lon":14.80109},{"id":"19934","name":"Dalbo Centrum","lat":56.890807,"lon":14.799063},{"id":"19935","name":"Dalbovägen","lat":56.893348,"lon":14.798945},{"id":"19937","name":"Nydalavägen","lat":56.898252,"lon":14.799092},{"id":"19938","name":"Kalendervägen","lat":56.904298,"lon":14.789344},{"id":"19939","name":"Päronvägen","lat":56.903352,"lon":14.793391},{"id":"19940","name":"Murvägen","lat":56.909756,"lon":14.787931},{"id":"19941","name":"Blockhusvägen","lat":56.911329,"lon":14.787068},{"id":"19942","name":"Värnvägen","lat":56.912649,"lon":14.788132},{"id":"19943","name":"Paradvägen","lat":56.912707,"lon":14.793072},{"id":"19944","name":"Lugnetvägen","lat":56.919044,"lon":14.799304},{"id":"19945","name":"Kronobergs kungsgård","lat":56.932295,"lon":14.793231},{"id":"19946","name":"Kronobergs slottsruin","lat":56.938665,"lon":14.798069},{"id":"19947","name":"Evedal","lat":56.921778,"lon":14.820151},{"id":"19948","name":"Oxtorget","lat":56.878371,"lon":14.798167},{"id":"19949","name":"Norrtullskolan","lat":56.878769,"lon":14.814887},{"id":"19950","name":"Blomstervägen","lat":56.888747,"lon":14.805402},{"id":"19953","name":"Ringsbergsvägen","lat":56.886821,"lon":14.806695},{"id":"19954","name":"Antons väg","lat":56.894139,"lon":14.801918},{"id":"19955","name":"Mårdvägen","lat":56.904613,"lon":14.825987},{"id":"19956","name":"Lämmelvägen","lat":56.907209,"lon":14.83127},{"id":"19957","name":"Långarörsvägen","lat":56.929203,"lon":14.851638},{"id":"19958","name":"Sandsbro badplats","lat":56.914964,"lon":14.856303},{"id":"19959","name":"Vik","lat":56.921531,"lon":14.859651},{"id":"19960","name":"Östratorp","lat":56.859762,"lon":14.853547},{"id":"19961","name":"Skirsnäs","lat":56.849844,"lon":14.856569},{"id":"19962","name":"Söderleden","lat":56.879409,"lon":14.785009},{"id":"19963","name":"Viktor Rydbergsgatan","lat":56.884012,"lon":14.783973},{"id":"19964","name":"Arabygatan","lat":56.88811,"lon":14.782122},{"id":"19965","name":"Ljungadalsgatan","lat":56.886984,"lon":14.771431},{"id":"19966","name":"Johannesberg","lat":56.873456,"lon":14.74162},{"id":"19967","name":"Liedbergsgatan","lat":56.889785,"lon":14.799344},{"id":"19968","name":"Sjöudderondellen","lat":56.891385,"lon":14.770066},{"id":"19969","name":"Stinavägen","lat":56.89396,"lon":14.767316},{"id":"19970","name":"Sjöudden","lat":56.895559,"lon":14.767395},{"id":"19971","name":"Systratorpsv.","lat":56.897222,"lon":14.771968},{"id":"19972","name":"Idavägen","lat":56.897637,"lon":14.774378},{"id":"19974","name":"Sjöuddevägen","lat":56.890582,"lon":14.781873},{"id":"19975","name":"Fagrabäck","lat":56.880334,"lon":14.830527},{"id":"19976","name":"Rinkaby Norragård","lat":56.821099,"lon":14.829512},{"id":"19977","name":"Vildgåsvägen","lat":56.883686,"lon":14.852996},{"id":"19979","name":"Nyborg","lat":56.857915,"lon":14.843422},{"id":"19980","name":"Brände Udde","lat":56.862313,"lon":14.838481},{"id":"19981","name":"Lantmannavägen","lat":56.867977,"lon":14.830521},{"id":"19983","name":"Djupadal","lat":56.83871,"lon":14.826055},{"id":"19984","name":"Katedralskolan","lat":56.880596,"lon":14.821547},{"id":"19985","name":"Björnvägen","lat":56.908916,"lon":14.834181},{"id":"19986","name":"Kvarnvägen","lat":56.86974,"lon":14.835591},{"id":"19987","name":"Hjalmar Petris väg","lat":56.894454,"lon":14.781089},{"id":"19988","name":"Östra Räppe","lat":56.877689,"lon":14.744058},{"id":"19989","name":"Norremark","lat":56.904596,"lon":14.830641},{"id":"19990","name":"Sjögård","lat":56.851381,"lon":14.859152},{"id":"19991","name":"Rådjursvägen","lat":56.90419,"lon":14.825309},{"id":"19992","name":"Renvägen","lat":56.90963,"lon":14.819355},{"id":"19993","name":"Tulavägen","lat":57.034747,"lon":14.90281},{"id":"19994","name":"Målajord","lat":57.031584,"lon":14.968395},{"id":"19995","name":"Hådala","lat":56.856144,"lon":14.713801},{"id":"19996","name":"Gemla terminal","lat":56.867995,"lon":14.644272},{"id":"19997","name":"Nyholmsvägen","lat":57.148992,"lon":14.596699},{"id":"19998","name":"Bjursjö","lat":57.126688,"lon":14.627198},{"id":"19999","name":"Nabbudden","lat":56.959082,"lon":14.714547},{"id":"20000","name":"Marklanda Gård","lat":56.848504,"lon":14.719236},{"id":"20001","name":"Albrekts väg","lat":56.747675,"lon":14.925575},{"id":"20002","name":"Häggekullen","lat":56.707874,"lon":14.930293},{"id":"20003","name":"Rinkaby vägskäl","lat":56.824786,"lon":14.826747},{"id":"20004","name":"Teleborgshallen, Teleborgsv.","lat":56.849653,"lon":14.823294},{"id":"20005","name":"Hovsberg","lat":56.883828,"lon":14.80792},{"id":"20006","name":"Vingavägen","lat":56.901695,"lon":14.798359},{"id":"20007","name":"Påskvägen","lat":56.90626,"lon":14.788831},{"id":"20008","name":"Pene vägskäl","lat":56.927404,"lon":14.794808},{"id":"20009","name":"Växjö sjukhus","lat":56.875587,"lon":14.806},{"id":"20010","name":"Samarkand södra","lat":56.882784,"lon":14.765748},{"id":"20012","name":"Linnéuniversitetet","lat":56.8551,"lon":14.831905},{"id":"20013","name":"Georg Lückligsväg","lat":56.851355,"lon":14.831838},{"id":"20014","name":"Fredrik Bondes väg","lat":56.850861,"lon":14.826131},{"id":"20015","name":"Olsberg","lat":56.914445,"lon":14.799181},{"id":"20016","name":"Schwerinvägen","lat":56.909543,"lon":14.841535},{"id":"20017","name":"Gränsvägen","lat":56.913153,"lon":14.847336},{"id":"20018","name":"Lyckebo","lat":56.92193,"lon":14.799686},{"id":"20019","name":"Kurortsvägen","lat":56.921525,"lon":14.804049},{"id":"20020","name":"Saturnusvägen","lat":56.914609,"lon":14.8164},{"id":"20021","name":"Jupitervägen","lat":56.913658,"lon":14.806344},{"id":"20022","name":"Hångeryd","lat":57.181306,"lon":14.733228},{"id":"20023","name":"Strålsund","lat":57.184733,"lon":14.650918},{"id":"20024","name":"Björnö","lat":57.175719,"lon":14.60759},{"id":"20025","name":"Lammhult skola","lat":57.169344,"lon":14.587604},{"id":"20026","name":"Nylandavägen","lat":56.91007,"lon":14.722848},{"id":"20027","name":"Kalvsviks Kyrka","lat":56.718302,"lon":14.724693},{"id":"20028","name":"Kalvsviks Såg","lat":56.715342,"lon":14.742857},{"id":"20029","name":"Kullen","lat":56.708224,"lon":14.766734},{"id":"20030","name":"Rungeboda","lat":56.704664,"lon":14.782571},{"id":"20031","name":"Altona","lat":56.695893,"lon":14.799426},{"id":"20032","name":"Lädja","lat":57.104297,"lon":14.683638},{"id":"20033","name":"Lindbo","lat":56.834081,"lon":15.073596},{"id":"20034","name":"Odenslanda","lat":56.774708,"lon":14.699795},{"id":"20035","name":"Ekesåsvägen","lat":56.957236,"lon":14.838388},{"id":"20036","name":"Tunatorp södra","lat":56.941812,"lon":14.724902},{"id":"20037","name":"Gransholm","lat":56.844746,"lon":14.603253},{"id":"20038","name":"Öja Kyrka","lat":56.85061,"lon":14.617308},{"id":"20039","name":"Söregårdsvägen","lat":56.853028,"lon":14.621288},{"id":"20041","name":"Skolvägen","lat":56.866007,"lon":14.642514},{"id":"20043","name":"Skärvavägen","lat":56.865539,"lon":14.655425},{"id":"20044","name":"Härensås västra","lat":56.863355,"lon":14.665616},{"id":"20045","name":"Härensås östra","lat":56.861368,"lon":14.675235},{"id":"20047","name":"Inglingehög","lat":56.750574,"lon":14.906496},{"id":"20048","name":"Skogshill","lat":56.755007,"lon":14.903006},{"id":"20049","name":"Krokvik","lat":56.766297,"lon":14.896284},{"id":"20051","name":"Knalleborg","lat":56.787691,"lon":14.885065},{"id":"20052","name":"Skogslund","lat":56.809872,"lon":14.881164},{"id":"20053","name":"Bramstorp","lat":56.82313,"lon":14.878586},{"id":"20054","name":"Lillegård","lat":56.83457,"lon":14.864639},{"id":"20055","name":"Lidhem","lat":56.843328,"lon":14.859479},{"id":"20056","name":"Broaryd","lat":56.668709,"lon":15.100663},{"id":"20057","name":"Broarydsmåla","lat":56.671712,"lon":15.09741},{"id":"20059","name":"Ryd, Solvalla / Broaryd","lat":56.681611,"lon":15.068409},{"id":"20060","name":"Nöbbele Kärr","lat":56.684602,"lon":15.053396},{"id":"20061","name":"Torpvägen","lat":56.687256,"lon":15.030847},{"id":"20063","name":"Tjället","lat":56.695564,"lon":15.006838},{"id":"20064","name":"Orraryd","lat":56.695674,"lon":14.996699},