[{"id":"71","name":"Gårdsjö station","lat":58.87228,"lon":14.333313},{"id":"77","name":"Hallsbergs resecentrum","lat":59.066661,"lon":15.110266},{"id":"93","name":"Lindesberg Resecentrum","lat":59.595,"lon":15.227707},{"id":"129","name":"Degerfors jvstn","lat":59.229313,"lon":14.441042},{"id":"133","name":"Örebro Centralstation","lat":59.277438,"lon":15.210546},{"id":"162","name":"Grängesberg jvstn","lat":60.076037,"lon":15.005543},{"id":"176","name":"Karlskoga busstation","lat":59.326775,"lon":14.512201},{"id":"183","name":"Töreboda resecentrum (tåg)","lat":58.706108,"lon":14.128479},{"id":"186","name":"Skinnskatteberg jvstn","lat":59.83263,"lon":15.692642},{"id":"192","name":"Kumla resecentrum","lat":59.126464,"lon":15.140417},{"id":"194","name":"Laxå jvstn","lat":58.989116,"lon":14.616945},{"id":"222","name":"Kristinehamn resecentrum","lat":59.316542,"lon":14.108061},{"id":"223","name":"Gullspång busstation","lat":58.986007,"lon":14.098887},{"id":"262","name":"Arboga Resecentrum","lat":59.396729,"lon":15.841553},{"id":"266","name":"Fagersta Central","lat":59.990032,"lon":15.8159},{"id":"280","name":"Kopparbergs jvstn","lat":59.872946,"lon":14.987008},{"id":"293","name":"Frövi Resecentrum","lat":59.467648,"lon":15.362423},{"id":"332","name":"Filipstad station","lat":59.70829,"lon":14.15927},{"id":"347","name":"Storfors busstation","lat":59.533348,"lon":14.272973},{"id":"361","name":"Södra station","lat":59.269566,"lon":15.203002},{"id":"419","name":"Hällefors Resecentrum","lat":59.780803,"lon":14.519342},{"id":"468","name":"Lyrestad station","lat":58.805112,"lon":14.057073},{"id":"484","name":"Hova station","lat":58.854868,"lon":14.215364},{"id":"610","name":"Askersunds busstation","lat":58.879123,"lon":14.907653},{"id":"638","name":"Ställdalens jvstn","lat":59.93445,"lon":14.94319},{"id":"675","name":"Kolsva Centrum","lat":59.600034,"lon":15.842509},{"id":"678","name":"Norbergs Bstn","lat":60.064808,"lon":15.925311},{"id":"683","name":"Vad TÅG","lat":60.032323,"lon":15.642931},{"id":"684","name":"Valskog centrum","lat":59.442526,"lon":15.949115},{"id":"792","name":"Finnerödja","lat":58.926192,"lon":14.442916},{"id":"800","name":"Folkets park, Björneborg","lat":59.241778,"lon":14.237891},{"id":"814","name":"Coop, Lesjöfors","lat":59.977338,"lon":14.18401},{"id":"839","name":"Vingåker station","lat":59.042343,"lon":15.874862},{"id":"855","name":"Rejmyre vändplats","lat":58.83902,"lon":15.915348},{"id":"867","name":"Daglösen station","lat":59.64184,"lon":14.19048},{"id":"1127","name":"Götlunda Fårtallen","lat":59.35279,"lon":15.665262},{"id":"1268","name":"Persberg gamla järnvägsstation","lat":59.748884,"lon":14.238336},{"id":"1348","name":"Torved station","lat":58.825601,"lon":14.100109},{"id":"1369","name":"Vedevåg","lat":59.523596,"lon":15.282285},{"id":"1522","name":"Älgarås","lat":58.810752,"lon":14.254844},{"id":"1531","name":"Loka station","lat":59.63662,"lon":14.46992},{"id":"1619","name":"Skäret station","lat":59.89475,"lon":14.92973},{"id":"13463","name":"Norra Torggatan","lat":59.044113,"lon":15.87112},{"id":"13464","name":"Badhuset Vingåker","lat":59.046509,"lon":15.873146},{"id":"13465","name":"V. Vingåkers k:a","lat":59.054685,"lon":15.877239},{"id":"13466","name":"Hacksta vsk","lat":59.057881,"lon":15.877019},{"id":"13467","name":"Nämdemansvägen","lat":59.059461,"lon":15.875977},{"id":"13468","name":"Vattentornet","lat":59.062849,"lon":15.870528},{"id":"13469","name":"Sandvägen","lat":59.066881,"lon":15.866317},{"id":"13470","name":"Fagerhults vsk","lat":59.069943,"lon":15.865555},{"id":"13471","name":"Vidåkersvägen","lat":59.049514,"lon":15.877926},{"id":"13472","name":"Åbron","lat":59.049919,"lon":15.876079},{"id":"13473","name":"Skolgatan","lat":59.039383,"lon":15.870571},{"id":"13474","name":"Vannalaplan","lat":59.036237,"lon":15.860411},{"id":"13475","name":"Glasmästargatan","lat":59.034206,"lon":15.865006},{"id":"13476","name":"Vikingavägen","lat":59.032894,"lon":15.868069},{"id":"13477","name":"Humlegatan","lat":59.030092,"lon":15.869927},{"id":"13478","name":"Tegelgatan","lat":59.031634,"lon":15.87343},{"id":"13479","name":"Sävstaskolan","lat":59.033657,"lon":15.87636},{"id":"13480","name":"Sävsta","lat":59.036407,"lon":15.87856},{"id":"13481","name":"Vasagatan","lat":59.039076,"lon":15.874141},{"id":"13482","name":"Lärkparksvägen","lat":59.04054,"lon":15.872577},{"id":"13483","name":"Sävstaskolans vändslinga","lat":59.034047,"lon":15.876988},{"id":"13862","name":"Lövhult","lat":58.920161,"lon":15.983822},{"id":"13863","name":"Tisenhult","lat":58.921601,"lon":15.980931},{"id":"13864","name":"Hagen","lat":58.929392,"lon":15.956983},{"id":"13865","name":"Ekeby vägskäl","lat":58.927468,"lon":15.934308},{"id":"13866","name":"Torp","lat":58.916156,"lon":15.930639},{"id":"13867","name":"Soludden","lat":58.916252,"lon":15.924182},{"id":"13868","name":"Mullsäter östra","lat":58.914315,"lon":15.910725},{"id":"13869","name":"Mullsäter västra","lat":58.914121,"lon":15.90642},{"id":"13872","name":"Hävla affär","lat":58.915223,"lon":15.868171},{"id":"13873","name":"Guldsmedsviken","lat":58.916486,"lon":15.862558},{"id":"13874","name":"Sundskogen","lat":58.919226,"lon":15.846637},{"id":"13875","name":"Käxelvik","lat":58.929042,"lon":15.830483},{"id":"13876","name":"Stenfallet","lat":58.932704,"lon":15.833195},{"id":"13877","name":"Husby","lat":58.936736,"lon":15.867836},{"id":"13878","name":"Skedevi kyrka","lat":58.938557,"lon":15.879971},{"id":"13879","name":"Skedevi prästgård","lat":58.946422,"lon":15.87733},{"id":"13880","name":"Lillsjön","lat":58.949261,"lon":15.873618},{"id":"13881","name":"Mon","lat":58.962892,"lon":15.84203},{"id":"13882","name":"Valleräng","lat":58.966278,"lon":15.833464},{"id":"13883","name":"Kvarnängen","lat":58.972421,"lon":15.817823},{"id":"13884","name":"Byle","lat":58.983804,"lon":15.807131},{"id":"13885","name":"Ekudden","lat":58.986578,"lon":15.812471},{"id":"13886","name":"Stenstorp","lat":58.9891,"lon":15.814924},{"id":"13887","name":"Sjölund","lat":58.991039,"lon":15.817133},{"id":"13888","name":"Ekesjö skola","lat":58.994486,"lon":15.820353},{"id":"13889","name":"Sunda vsk","lat":59.004244,"lon":15.822984},{"id":"13890","name":"Landshagen","lat":59.011937,"lon":15.820969},{"id":"13891","name":"Byle barnkoloni","lat":58.98542,"lon":15.803705},{"id":"13892","name":"Båltorps vsk","lat":59.016318,"lon":15.819874},{"id":"13893","name":"Torsmossen","lat":59.017557,"lon":15.817873},{"id":"14665","name":"Morjanå","lat":59.031899,"lon":15.989666},{"id":"14666","name":"Vialabadet","lat":59.039449,"lon":15.972462},{"id":"14667","name":"Viala gata","lat":59.040277,"lon":15.96022},{"id":"14668","name":"Viala by","lat":59.042868,"lon":15.947027},{"id":"14669","name":"Skeppmyrelund","lat":59.047643,"lon":15.930826},{"id":"14670","name":"Kjesäter","lat":59.04881,"lon":15.910279},{"id":"14671","name":"Industrihuset","lat":59.04647,"lon":15.893399},{"id":"14672","name":"Slottet","lat":59.044749,"lon":15.882968},{"id":"14673","name":"Slottsskolan","lat":59.049062,"lon":15.88242},{"id":"14674","name":"Vrettstalund","lat":59.060923,"lon":15.860372},{"id":"14675","name":"Vrettsta","lat":59.062232,"lon":15.852391},{"id":"14676","name":"Lund","lat":59.062608,"lon":15.840861},{"id":"14677","name":"Hansta","lat":59.063989,"lon":15.831031},{"id":"14678","name":"Kåsta vsk","lat":59.062927,"lon":15.819335},{"id":"14679","name":"Lunda","lat":59.058421,"lon":15.813163},{"id":"14680","name":"Bergakorset","lat":59.052514,"lon":15.807185},{"id":"14681","name":"Karlsborg (Berglunda)","lat":59.048833,"lon":15.792393},{"id":"14682","name":"Billsbro","lat":59.045959,"lon":15.785364},{"id":"14683","name":"Stensborg","lat":59.046725,"lon":15.774945},{"id":"14684","name":"Galltorp","lat":59.043295,"lon":15.757815},{"id":"14685","name":"Lönntorp","lat":59.039555,"lon":15.735838},{"id":"14686","name":"Högsjö station","lat":59.039566,"lon":15.731248},{"id":"14687","name":"Bistorp","lat":59.036895,"lon":15.717059},{"id":"14688","name":"Högsjö gård","lat":59.031375,"lon":15.680546},{"id":"14689","name":"Högsjö","lat":59.029078,"lon":15.672858},{"id":"14690","name":"Bruksvägen","lat":59.028096,"lon":15.668961},{"id":"14691","name":"Högsjö bruk","lat":59.026115,"lon":15.67233},{"id":"14692","name":"Stengården","lat":59.045168,"lon":15.763675},{"id":"14693","name":"Johanneslund","lat":59.046483,"lon":15.779153},{"id":"14694","name":"Kåstavägen","lat":59.06413,"lon":15.81482},{"id":"14695","name":"Bresäters Gård","lat":59.041266,"lon":15.747419},{"id":"14696","name":"Östergården","lat":58.994414,"lon":15.788605},{"id":"14697","name":"Marsjö","lat":58.995598,"lon":15.784081},{"id":"14698","name":"Skälet","lat":58.999093,"lon":15.777955},{"id":"14699","name":"Badet","lat":59.00233,"lon":15.77924},{"id":"14700","name":"Marsjö skola","lat":59.005113,"lon":15.780699},{"id":"14701","name":"Billsbrokorset","lat":59.007609,"lon":15.78477},{"id":"14702","name":"Saltorp","lat":59.011862,"lon":15.799448},{"id":"14703","name":"Sätratorp","lat":59.015421,"lon":15.811553},{"id":"14704","name":"Grindstugan","lat":59.026296,"lon":15.824919},{"id":"14705","name":"Spångavägen","lat":59.03449,"lon":15.848461},{"id":"14706","name":"Övre Vannala","lat":59.037921,"lon":15.844041},{"id":"14707","name":"Söderspånga","lat":59.044774,"lon":15.828544},{"id":"14708","name":"Spånga bruk","lat":59.049389,"lon":15.820514},{"id":"14709","name":"Norrspånga","lat":59.053609,"lon":15.814225},{"id":"14710","name":"Kåsta gård","lat":59.068708,"lon":15.795558},{"id":"14711","name":"Lilla Lunda","lat":59.071562,"lon":15.792349},{"id":"14712","name":"Spadtorpsvägen","lat":59.076319,"lon":15.782216},{"id":"14713","name":"Persdal","lat":59.079942,"lon":15.767146},{"id":"14714","name":"Lövhälla","lat":59.08416,"lon":15.763444},{"id":"14715","name":"Ängtorp","lat":59.08491,"lon":15.754164},{"id":"14716","name":"Lundaholm","lat":59.08912,"lon":15.73401},{"id":"14717","name":"Nästorp","lat":59.076522,"lon":15.770288},{"id":"14718","name":"Ärnebäck","lat":59.09151,"lon":15.710576},{"id":"14719","name":"Ärnebäck, länsgränsen","lat":59.094448,"lon":15.701286},{"id":"14720","name":"Hökhult","lat":59.083855,"lon":15.860233},{"id":"14721","name":"Oscarsborg","lat":59.088656,"lon":15.850865},{"id":"14722","name":"Högsätter","lat":59.092487,"lon":15.845968},{"id":"14723","name":"Johannesdal","lat":59.098953,"lon":15.835131},{"id":"14724","name":"Hälleråd","lat":59.111824,"lon":15.817491},{"id":"14725","name":"Stavhälla","lat":59.118305,"lon":15.814624},{"id":"14726","name":"Brukskvarn","lat":59.126986,"lon":15.805816},{"id":"14727","name":"Läppe","lat":59.129877,"lon":15.809021},{"id":"14728","name":"Läppe Hamn","lat":59.132667,"lon":15.824566},{"id":"14729","name":"Högbacken","lat":59.062196,"lon":15.902816},{"id":"14730","name":"Båsenberga","lat":59.063804,"lon":15.917654},{"id":"14731","name":"Långängen","lat":59.063866,"lon":15.969503},{"id":"14732","name":"Vintergatan","lat":59.064843,"lon":15.984194},{"id":"14733","name":"Tomtebo","lat":59.069418,"lon":15.992699},{"id":"14734","name":"Forsby","lat":59.143489,"lon":15.955765},{"id":"14735","name":"Lilla Brene","lat":59.063981,"lon":15.885068},{"id":"14736","name":"Rolandsro","lat":59.075897,"lon":15.893046},{"id":"14737","name":"Nylund","lat":59.084419,"lon":15.901649},{"id":"14738","name":"Brene","lat":59.061121,"lon":15.893148},{"id":"14739","name":"Stenstugan","lat":59.093659,"lon":15.929728},{"id":"14740","name":"Klockarbol","lat":59.105251,"lon":15.936174},{"id":"14741","name":"Hedgölet","lat":59.113523,"lon":15.941111},{"id":"14742","name":"Torps vsk","lat":59.119135,"lon":15.948343},{"id":"14743","name":"Sjöäng","lat":59.126038,"lon":15.955741},{"id":"14744","name":"Vik vsk","lat":59.082106,"lon":15.897666},{"id":"14745","name":"Skenäs Albacka","lat":59.065559,"lon":15.949952},{"id":"14746","name":"Ätterstakorset","lat":59.136602,"lon":15.957883},{"id":"14768","name":"Hulla by","lat":59.119485,"lon":15.996969},{"id":"14769","name":"Österåker k:a","lat":59.122565,"lon":15.990211},{"id":"14770","name":"Solåker","lat":59.12412,"lon":15.98905},{"id":"14771","name":"Rosa villavägen","lat":59.127093,"lon":15.987721},{"id":"14772","name":"Askö vsk","lat":59.134979,"lon":15.984723},{"id":"14773","name":"Backamon","lat":59.135971,"lon":15.98134},{"id":"14774","name":"Skomartorp","lat":59.137179,"lon":15.970681},{"id":"14775","name":"Ättersta","lat":59.136855,"lon":15.967422},{"id":"14776","name":"Månsta","lat":59.136586,"lon":15.963456},{"id":"14777","name":"Ekbacka","lat":59.134409,"lon":15.952057},{"id":"14778","name":"Tallsätter","lat":59.133681,"lon":15.93623},{"id":"14779","name":"Skogstorps vsk","lat":59.135454,"lon":15.92193},{"id":"14780","name":"Ekeborg","lat":59.137804,"lon":15.913676},{"id":"14781","name":"Blomsterhult","lat":59.139694,"lon":15.906973},{"id":"14782","name":"Rörvik","lat":59.144428,"lon":15.890564},{"id":"14783","name":"Maren","lat":59.146733,"lon":15.900092},{"id":"14784","name":"Ektorp","lat":59.151023,"lon":15.917597},{"id":"14785","name":"Kalkbrottsvillorna","lat":59.160496,"lon":15.934566},{"id":"14786","name":"Stavbäcken","lat":59.147038,"lon":15.945506},{"id":"14787","name":"Nedre gatan","lat":59.161337,"lon":15.937243},{"id":"14788","name":"Kartstugan","lat":59.149413,"lon":15.911371},{"id":"14859","name":"Gimgöl","lat":59.167659,"lon":15.956369},{"id":"14860","name":"Gimgöls bygdegård","lat":59.168263,"lon":15.965052},{"id":"14861","name":"Fagerbjörk","lat":59.167928,"lon":15.978338},{"id":"14862","name":"Gustavsberg","lat":59.165636,"lon":15.986561},{"id":"14863","name":"Västerängen","lat":59.162759,"lon":15.996239},{"id":"14874","name":"Hyttan","lat":59.198155,"lon":15.99312},{"id":"14880","name":"Lucketorp","lat":59.177502,"lon":15.910757},{"id":"14881","name":"Eksjö","lat":59.174712,"lon":15.918618},{"id":"14882","name":"Hjälmsätter","lat":59.169819,"lon":15.929215},{"id":"14883","name":"Liljedalen","lat":59.183144,"lon":15.915147},{"id":"14884","name":"Skogås","lat":59.19116,"lon":15.93573},{"id":"14885","name":"Slätten","lat":59.192203,"lon":15.950484},{"id":"14886","name":"Dagsjön","lat":59.191046,"lon":15.965403},{"id":"14887","name":"Dagsjötorp","lat":59.194917,"lon":15.971002},{"id":"14893","name":"Forsbron","lat":59.163409,"lon":15.939069},{"id":"15273","name":"Örtagsvägen","lat":58.72337,"lon":15.635694},{"id":"15274","name":"Borggårds station","lat":58.73147,"lon":15.550178},{"id":"15276","name":"Prästköp","lat":58.758037,"lon":15.525517},{"id":"15277","name":"Varggropsvägen","lat":58.71321,"lon":15.779275},{"id":"15278","name":"Brestorp","lat":58.722052,"lon":15.70474},{"id":"15279","name":"Siemens kontor","lat":58.708632,"lon":15.78209},{"id":"15280","name":"Gröna vägen","lat":58.710653,"lon":15.78918},{"id":"15281","name":"Missionskyrkan","lat":58.710015,"lon":15.782745},{"id":"15282","name":"Bergska skolan","lat":58.707173,"lon":15.764063},{"id":"15283","name":"Högby","lat":58.707641,"lon":15.768203},{"id":"15284","name":"Bönnernviken","lat":58.710342,"lon":15.762558},{"id":"15285","name":"Stora allén","lat":58.708167,"lon":15.7912},{"id":"15286","name":"Vibjörnsparken","lat":58.706937,"lon":15.795238},{"id":"15287","name":"Skatglädjen","lat":58.703051,"lon":15.809419},{"id":"15290","name":"Ekviken","lat":58.700067,"lon":15.894783},{"id":"15291","name":"Gronvägen","lat":58.71227,"lon":15.809575},{"id":"15292","name":"Dunderbacksvägen","lat":58.71078,"lon":15.815942},{"id":"15297","name":"Högsäter","lat":58.718797,"lon":15.688889},{"id":"15298","name":"Fränntorp","lat":58.719962,"lon":15.652659},{"id":"15299","name":"Grytgöls vägkors","lat":58.724749,"lon":15.633064},{"id":"15300","name":"Lötenborg","lat":58.728029,"lon":15.593084},{"id":"15301","name":"Djupedal","lat":58.729999,"lon":15.584596},{"id":"15302","name":"Solbacka","lat":58.73143,"lon":15.566752},{"id":"15303","name":"Borggårds bruk","lat":58.729686,"lon":15.551296},{"id":"15304","name":"Mellantorpsvägen","lat":58.745671,"lon":15.583477},{"id":"15305","name":"Skånstorp","lat":58.745443,"lon":15.591855},{"id":"15306","name":"Bäcken","lat":58.747056,"lon":15.60682},{"id":"15307","name":"Talltorp","lat":58.753071,"lon":15.612901},{"id":"15308","name":"Vargfallet","lat":58.7583,"lon":15.604026},{"id":"15309","name":"Stigstorps bro","lat":58.761028,"lon":15.603371},{"id":"15310","name":"Fabriken Barketorp","lat":58.767766,"lon":15.594776},{"id":"15311","name":"Barketorp","lat":58.77198,"lon":15.591709},{"id":"15312","name":"Göl","lat":58.799887,"lon":15.573892},{"id":"15313","name":"Grytgöls skola","lat":58.801336,"lon":15.571391},{"id":"15314","name":"Herrgården","lat":58.802855,"lon":15.562731},{"id":"15315","name":"Bruket","lat":58.80401,"lon":15.560733},{"id":"15316","name":"Sveaborg 2","lat":58.725285,"lon":15.831861},{"id":"15317","name":"Lotorps skola","lat":58.732881,"lon":15.826514},{"id":"15318","name":"Bygatan","lat":58.734991,"lon":15.823131},{"id":"15319","name":"Yxviken","lat":58.749605,"lon":15.828113},{"id":"15320","name":"Börgöl","lat":58.80388,"lon":15.731351},{"id":"15321","name":"Hushagen","lat":58.808928,"lon":15.720249},{"id":"15322","name":"Hårtorp","lat":58.823606,"lon":15.707801},{"id":"15323","name":"Anderslund","lat":58.862185,"lon":15.691263},{"id":"15324","name":"Risinge kyrka 2","lat":58.700962,"lon":15.845918},{"id":"15330","name":"Lämmenäs","lat":58.707246,"lon":15.930256},{"id":"15331","name":"Lämmetorp","lat":58.717981,"lon":15.940994},{"id":"15332","name":"Falsnäset","lat":58.753747,"lon":15.979293},{"id":"15333","name":"Skogstorpets vägkors","lat":58.788763,"lon":15.961345},{"id":"15334","name":"Rosenlund","lat":58.819271,"lon":15.942598},{"id":"15335","name":"Blåsarevägen","lat":58.835363,"lon":15.918972},{"id":"15336","name":"Åndviken","lat":58.848972,"lon":15.908519},{"id":"15337","name":"Åndenäs","lat":58.856632,"lon":15.906012},{"id":"15338","name":"Österbyhyttan","lat":58.75319,"lon":15.556393},{"id":"15339","name":"Högamon","lat":58.782465,"lon":15.505921},{"id":"15340","name":"Grosvadsskolan","lat":58.713698,"lon":15.806124},{"id":"15341","name":"Storängsskolan","lat":58.705762,"lon":15.803692},{"id":"15342","name":"Liljevägen","lat":58.789088,"lon":15.493482},{"id":"15343","name":"Stolpen","lat":58.747167,"lon":15.603106},{"id":"15344","name":"Nitvägen","lat":58.729412,"lon":15.56283},{"id":"15345","name":"Nyhemsskolan","lat":58.700047,"lon":15.770591},{"id":"15346","name":"Lasarettsvägen","lat":58.709227,"lon":15.759333},{"id":"15347","name":"Sonstorps gård","lat":58.743429,"lon":15.624647},{"id":"15348","name":"Jerketorp","lat":58.808483,"lon":15.940323},{"id":"15349","name":"Knektvägen","lat":58.703158,"lon":15.756253},{"id":"15350","name":"Lillsjötorp","lat":58.701982,"lon":15.757048},{"id":"15351","name":"Bäcktorpet","lat":58.79708,"lon":15.739219},{"id":"15352","name":"Igelforsvägen 52","lat":58.742549,"lon":15.828454},{"id":"15353","name":"Skäggebyvägen","lat":58.7012,"lon":15.822701},{"id":"15874","name":"Hargebaden","lat":58.785188,"lon":14.964794},{"id":"15878","name":"Sänna södra","lat":58.792656,"lon":14.985558},{"id":"15880","name":"Hammars kyrka","lat":58.817085,"lon":14.959244},{"id":"15883","name":"Torget Askersund","lat":58.879369,"lon":14.903052},{"id":"16224","name":"Lindåkravägen","lat":58.748854,"lon":15.164389},{"id":"16295","name":"Mummelhultsvägen","lat":58.714274,"lon":15.126319},{"id":"16296","name":"Unnavägen","lat":58.746903,"lon":15.160366},{"id":"16297","name":"Servicehuset","lat":58.750123,"lon":15.161601},{"id":"16298","name":"Hässleåsvägen","lat":58.747405,"lon":15.162014},{"id":"16324","name":"Grandalen","lat":58.709713,"lon":15.342809},{"id":"16336","name":"Godegårds festplats","lat":58.739931,"lon":15.159251},{"id":"16341","name":"Tjällmos bygdegård","lat":58.714939,"lon":15.355785},{"id":"16357","name":"Ingesgärde","lat":58.898569,"lon":15.691004},{"id":"16717","name":"Degeröns vägkors","lat":58.701726,"lon":15.116714},{"id":"16744","name":"Yxhultsvägen","lat":58.714087,"lon":15.348307},{"id":"17072","name":"Risinge kyrka","lat":58.704023,"lon":15.84763},{"id":"17074","name":"Tallberga","lat":58.733265,"lon":15.578463},{"id":"17075","name":"Torgvägen","lat":58.736696,"lon":15.827449},{"id":"17076","name":"Flasbjörke","lat":58.784685,"lon":15.769173},{"id":"17077","name":"Igelfors skola","lat":58.845243,"lon":15.698993},{"id":"17079","name":"Häradstorp","lat":58.771554,"lon":15.968476},{"id":"17080","name":"Pumphuset","lat":58.785603,"lon":15.500274},{"id":"17081","name":"Finspångs centrum","lat":58.706475,"lon":15.770378},{"id":"17082","name":"Prästkragen","lat":58.704218,"lon":15.806642},{"id":"17083","name":"Storängsgården","lat":58.705367,"lon":15.803105},{"id":"17084","name":"Djupdalsvägen","lat":58.708347,"lon":15.798291},{"id":"17085","name":"Myrmalmskiosken","lat":58.70971,"lon":15.752638},{"id":"17086","name":"Mellangrind","lat":58.710506,"lon":15.746028},{"id":"17087","name":"Ekkällevägen","lat":58.705115,"lon":15.799206},{"id":"17088","name":"Hårstorpsvägen","lat":58.702494,"lon":15.816146},{"id":"17091","name":"Lotorps vägkors","lat":58.706618,"lon":15.867386},{"id":"17092","name":"Stjärnvik","lat":58.706173,"lon":15.858415},{"id":"17093","name":"Ölstad","lat":58.702958,"lon":15.832276},{"id":"17094","name":"Linköpingsvägen Finspång","lat":58.700311,"lon":15.753394},{"id":"17097","name":"Filarevägen","lat":58.710815,"lon":15.794029},{"id":"17099","name":"Olstorpsvägen","lat":58.713214,"lon":15.711098},{"id":"17100","name":"Östentorp","lat":58.720486,"lon":15.662788},{"id":"17101","name":"Bangrindarna","lat":58.719728,"lon":15.644669},{"id":"17102","name":"Ullstorp","lat":58.726784,"lon":15.61208},{"id":"17103","name":"Borggårds vägkors","lat":58.731973,"lon":15.573931},{"id":"17104","name":"Lövdalen","lat":58.747651,"lon":15.614347},{"id":"17105","name":"Kvarnbacken Sonstorp","lat":58.747931,"lon":15.621877},{"id":"17106","name":"Sonstorps bruks vk","lat":58.748454,"lon":15.616796},{"id":"17107","name":"Stigstorps gård","lat":58.76334,"lon":15.600195},{"id":"17108","name":"Stigstorp","lat":58.7647,"lon":15.597698},{"id":"17109","name":"Sontorp","lat":58.780781,"lon":15.593833},{"id":"17110","name":"Rommetorp","lat":58.795619,"lon":15.587273},{"id":"17111","name":"Grostorps gård","lat":58.714056,"lon":15.825364},{"id":"17112","name":"Sveaborg 1","lat":58.723077,"lon":15.832515},{"id":"17113","name":"Lotorps gård","lat":58.729029,"lon":15.830551},{"id":"17114","name":"Skiren","lat":58.761511,"lon":15.814919},{"id":"17115","name":"Hälla gård","lat":58.816559,"lon":15.708046},{"id":"17116","name":"Björke vägskäl","lat":58.842425,"lon":15.700058},{"id":"17117","name":"Sandhagsvägen","lat":58.849406,"lon":15.696589},{"id":"17118","name":"Kopparkullen","lat":58.87263,"lon":15.686548},{"id":"17119","name":"Regna kyrka","lat":58.892603,"lon":15.694475},{"id":"17123","name":"Glasbruksvägen","lat":58.828074,"lon":15.937162},{"id":"17124","name":"Rejmyre kyrka","lat":58.828922,"lon":15.93339},{"id":"17125","name":"Rejmyre glasbruk","lat":58.830381,"lon":15.928548},{"id":"17126","name":"Gamla kyrkogården","lat":58.832845,"lon":15.924141},{"id":"17127","name":"Sandåkravägen","lat":58.837152,"lon":15.916069},{"id":"17128","name":"Frängsätter","lat":58.873178,"lon":15.876347},{"id":"17129","name":"Hävla gård","lat":58.903045,"lon":15.85708},{"id":"17130","name":"Sandbäcken","lat":58.75376,"lon":15.545039},{"id":"17131","name":"Ljusfallshammars skola","lat":58.790269,"lon":15.488249},{"id":"17132","name":"Lämneåvägen","lat":58.791537,"lon":15.467899},{"id":"17133","name":"Skönnarbo","lat":58.795508,"lon":15.462222},{"id":"17134","name":"Sliparevägen","lat":58.823886,"lon":15.942079},{"id":"17135","name":"Ljumma","lat":58.728644,"lon":15.63206},{"id":"17136","name":"Laduvägen","lat":58.708939,"lon":15.795375},{"id":"17137","name":"Lina Gauffins väg","lat":58.705583,"lon":15.758941},{"id":"17150","name":"Hällestad skola","lat":58.730934,"lon":15.580205},{"id":"17155","name":"Skönnarbo vändplats","lat":58.801525,"lon":15.449793},{"id":"17281","name":"Bergslagstorget","lat":58.707939,"lon":15.774465},{"id":"17294","name":"Forsaviken norra","lat":58.73491,"lon":14.983983},{"id":"17296","name":"Gärdshyttan","lat":58.782338,"lon":14.999357},{"id":"17298","name":"Lunnafallsvägen Sänna","lat":58.794732,"lon":14.980164},{"id":"17301","name":"Landskyrkan Askersund","lat":58.878633,"lon":14.896708},{"id":"17302","name":"Nydalen vändplats","lat":58.701743,"lon":14.958613},{"id":"17304","name":"Dalkullen","lat":58.702148,"lon":14.964175},{"id":"17318","name":"Mandelblomsvägen","lat":58.709406,"lon":15.820237},{"id":"17329","name":"Butbro vägkors","lat":58.715724,"lon":15.832889},{"id":"17330","name":"Viberga","lat":58.700662,"lon":15.817457},{"id":"17336","name":"Tegelbruket","lat":58.711507,"lon":15.800275},{"id":"17359","name":"Hällestads kyrka","lat":58.742169,"lon":15.572792},{"id":"17362","name":"Eriksberg Igelfors","lat":58.855526,"lon":15.693243},{"id":"17363","name":"Asketorps vägskäl","lat":58.867865,"lon":15.68887},{"id":"17364","name":"Lövsätter Regna","lat":58.884592,"lon":15.691553},{"id":"17365","name":"Hembygdsgården Regna","lat":58.890178,"lon":15.693651},{"id":"17368","name":"Skördevägen","lat":58.70013,"lon":15.750082},{"id":"17494","name":"Grytgöls centrum","lat":58.803599,"lon":15.557328},{"id":"17505","name":"Finspång station","lat":58.706728,"lon":15.776985},{"id":"17588","name":"Huvklintsvägen","lat":58.73684,"lon":15.822752},{"id":"17589","name":"Norra Storängsvägen","lat":58.709684,"lon":15.792062},{"id":"17591","name":"Komministergården","lat":58.702726,"lon":15.827083},{"id":"17592","name":"Sjövik","lat":58.701228,"lon":15.756635},{"id":"17595","name":"Falla","lat":58.719413,"lon":15.675132},{"id":"17596","name":"Idrottsplatsen","lat":58.728981,"lon":15.558068},{"id":"17597","name":"Bogetorp","lat":58.737724,"lon":15.577294},{"id":"17598","name":"Länsmansgårdens vägkors","lat":58.746251,"lon":15.597291},{"id":"17599","name":"Granliden","lat":58.785662,"lon":15.592351},{"id":"17600","name":"Simonstorps vägkors","lat":58.788689,"lon":15.592764},{"id":"17602","name":"Marieberg","lat":58.796663,"lon":15.578255},{"id":"17603","name":"Lämmetorp, norra","lat":58.725805,"lon":15.945408},{"id":"17605","name":"Österby","lat":58.74513,"lon":15.572081},{"id":"17607","name":"Dalhem","lat":58.72667,"lon":15.626408},{"id":"17642","name":"Egelstorp","lat":58.714966,"lon":15.360944},{"id":"17657","name":"Axhultsvägen","lat":58.717908,"lon":15.129268},{"id":"17658","name":"Hälla","lat":58.733094,"lon":15.152921},{"id":"17760","name":"Dunderbacken","lat":58.709793,"lon":15.811645},{"id":"17761","name":"Bävervägen","lat":58.704001,"lon":15.822254},{"id":"17820","name":"Skathagsvägen","lat":58.702431,"lon":15.814594},{"id":"30373","name":"Gullspång vårdcentrum","lat":58.98111,"lon":14.088246},{"id":"31390","name":"Hova torget","lat":58.85828,"lon":14.216726},{"id":"31391","name":"Otterbäcken fabriken","lat":58.953936,"lon":14.04879},{"id":"31392","name":"Otterbäcken Badängen","lat":58.943973,"lon":14.039905},{"id":"31393","name":"Folkets hus","lat":58.941864,"lon":14.038956},{"id":"31394","name":"Gallernäset","lat":58.936394,"lon":14.034069},{"id":"31395","name":"Kvarntorpet","lat":58.904327,"lon":14.020487},{"id":"31396","name":"Malm","lat":58.920207,"lon":14.030041},{"id":"31397","name":"Östergatan","lat":58.981937,"lon":14.096123},{"id":"31398","name":"Kvarntorp","lat":58.870211,"lon":14.243058},{"id":"31399","name":"Villagatan","lat":58.983113,"lon":14.09985},{"id":"31401","name":"Älvstorp","lat":58.97447,"lon":14.077707},{"id":"31402","name":"Bronserud","lat":58.969053,"lon":14.068843},{"id":"31403","name":"Delebäcksvägen","lat":58.964216,"lon":14.102429},{"id":"31404","name":"Torsvid","lat":58.957973,"lon":14.08804},{"id":"31405","name":"Hägnerna","lat":58.943527,"lon":14.077386},{"id":"31406","name":"Gunnarstorp","lat":58.951188,"lon":14.07739},{"id":"31407","name":"Hult","lat":58.934509,"lon":14.086191},{"id":"31408","name":"Huddingsbacken","lat":58.926846,"lon":14.098692},{"id":"31409","name":"Ödeslyckan","lat":58.918694,"lon":14.108091},{"id":"31410","name":"Midskog","lat":58.900746,"lon":14.120824},{"id":"31411","name":"Bjerke","lat":58.895841,"lon":14.165237},{"id":"31412","name":"Bråta","lat":58.885222,"lon":14.167609},{"id":"31413","name":"Bråta södra","lat":58.8803,"lon":14.173088},{"id":"31414","name":"Björstorp","lat":58.872934,"lon":14.18712},{"id":"31415","name":"Hungstorp","lat":58.872744,"lon":14.193975},{"id":"31416","name":"Struppkärr","lat":58.870005,"lon":14.207114},{"id":"31417","name":"Hova skola","lat":58.863774,"lon":14.214903},{"id":"31419","name":"Mogården","lat":58.852795,"lon":14.220056},{"id":"31420","name":"Industrigatan östra","lat":58.850128,"lon":14.220134},{"id":"31421","name":"Skarpskyttegatan","lat":58.843883,"lon":14.224155},{"id":"31422","name":"Berget","lat":58.870536,"lon":14.269808},{"id":"31423","name":"Håhult","lat":58.868533,"lon":14.294092},{"id":"31424","name":"Åsebolsvägen","lat":58.868413,"lon":14.323747},{"id":"31425","name":"Motorp","lat":58.885251,"lon":14.34788},{"id":"31426","name":"Korsvägen","lat":58.892888,"lon":14.344821},{"id":"31427","name":"Bahult","lat":58.883937,"lon":14.294212},{"id":"31428","name":"Gullstensskolan","lat":58.980669,"lon":14.111378},{"id":"31429","name":"Gårdsjö centrumhus","lat":58.869286,"lon":14.329175},{"id":"31430","name":"Hova industriområde","lat":58.84943,"lon":14.211709},{"id":"31431","name":"Gastorp","lat":58.821825,"lon":14.148539},{"id":"31432","name":"Fagerlid","lat":58.825778,"lon":14.16254},{"id":"31433","name":"Grimstorp","lat":58.831782,"lon":14.23106},{"id":"31434","name":"Regnbågsskolan","lat":58.863101,"lon":14.214987},{"id":"31435","name":"Hova vårdcentral","lat":58.858299,"lon":14.213935},{"id":"31436","name":"Badhusvägen","lat":58.855407,"lon":14.218438},{"id":"34050","name":"Askevikens camping","lat":58.888833,"lon":14.014419},{"id":"34051","name":"Moviken","lat":58.869442,"lon":14.008536},{"id":"34052","name":"Sannerudskärr","lat":58.860863,"lon":14.00599},{"id":"34068","name":"Grindängsvägen","lat":58.79944,"lon":14.055167},{"id":"34069","name":"Bjuråsen","lat":58.804084,"lon":14.065166},{"id":"34070","name":"Torpelund","lat":58.777616,"lon":14.003925},{"id":"34093","name":"Ymsen","lat":58.708713,"lon":14.002148},{"id":"34186","name":"Håttorp","lat":58.805008,"lon":14.099067},{"id":"34221","name":"Lyrestad","lat":58.803103,"lon":14.059931},{"id":"34227","name":"Broslätten","lat":58.810107,"lon":14.123465},{"id":"37214","name":"Uddavägen","lat":58.737211,"lon":14.078052},{"id":"37215","name":"Nolåsen","lat":58.72229,"lon":14.079016},{"id":"37216","name":"Hulteboda","lat":58.705772,"lon":14.078865},{"id":"37217","name":"Atterud","lat":58.70408,"lon":14.036591},{"id":"37224","name":"Sandbräckan","lat":58.817064,"lon":14.228425},{"id":"37225","name":"Korssjön","lat":58.798231,"lon":14.225573},{"id":"37226","name":"Björkulla","lat":58.790243,"lon":14.223449},{"id":"37227","name":"Granhaga","lat":58.783608,"lon":14.223926},{"id":"37228","name":"Hassleflo","lat":58.770614,"lon":14.21085},{"id":"37229","name":"Slätte norra","lat":58.763885,"lon":14.203257},{"id":"37230","name":"Slätte","lat":58.760602,"lon":14.201119},{"id":"37231","name":"Friabäck","lat":58.755809,"lon":14.195733},{"id":"37232","name":"Kyrketorp","lat":58.749863,"lon":14.161912},{"id":"37233","name":"Boda","lat":58.746291,"lon":14.152685},{"id":"37234","name":"Levsäng","lat":58.736006,"lon":14.132188},{"id":"37235","name":"Järneberg","lat":58.72184,"lon":14.131815},{"id":"37236","name":"Riksberg","lat":58.753874,"lon":14.098783},{"id":"37237","name":"Hajstorp södra","lat":58.748075,"lon":14.112066},{"id":"37238","name":"Borrebodagatan","lat":58.704572,"lon":14.11918},{"id":"37239","name":"Syrenen","lat":58.704723,"lon":14.115017},{"id":"37240","name":"Habo","lat":58.708372,"lon":14.172127},{"id":"37256","name":"Norra Bergsgatan","lat":58.715555,"lon":14.12422},{"id":"37257","name":"Hajstorp norra","lat":58.750861,"lon":14.107225},{"id":"37258","name":"Kilen","lat":58.707447,"lon":14.135177},{"id":"37259","name":"Nygatan","lat":58.811872,"lon":14.249713},{"id":"37260","name":"Centralskolan","lat":58.71138,"lon":14.123082},{"id":"37261","name":"Fredsbergs kyrka","lat":58.742859,"lon":14.079146},{"id":"37275","name":"Äng","lat":58.704919,"lon":14.062733},{"id":"37277","name":"Östra Börstorp","lat":58.703142,"lon":14.134731},{"id":"37279","name":"Kilenskolan","lat":58.706646,"lon":14.14702},{"id":"37280","name":"Björkängskolan","lat":58.706795,"lon":14.118468},{"id":"37284","name":"Moängen","lat":58.702758,"lon":14.183322},{"id":"37285","name":"Månsarud","lat":58.700161,"lon":14.187369},{"id":"37288","name":"Mårby","lat":58.751141,"lon":14.090645},{"id":"37289","name":"Sörby","lat":58.748054,"lon":14.084677},{"id":"37290","name":"Kvarnbolet","lat":58.719901,"lon":14.100645},{"id":"37292","name":"Annedalsgatan","lat":58.711434,"lon":14.131021},{"id":"37294","name":"Töreshov idrottsplats","lat":58.706553,"lon":14.149318},{"id":"37295","name":"Töreboda torget","lat":58.707015,"lon":14.125746},{"id":"37296","name":"Kyrkogatan","lat":58.709746,"lon":14.127214},{"id":"38927","name":"Töreboda resecentrum","lat":58.705309,"lon":14.127221},{"id":"39009","name":"Ankarvägen","lat":58.949546,"lon":14.041749},{"id":"39050","name":"Otterbäckens ind. omr","lat":58.961061,"lon":14.059008},{"id":"39195","name":"Skagersvik","lat":58.967967,"lon":14.105775},{"id":"39207","name":"Tubberudsväg","lat":58.893416,"lon":14.318521},{"id":"39319","name":"Stranden","lat":59.041803,"lon":14.136951},{"id":"39372","name":"USÖ, Huvudentré M-F-husen","lat":59.276225,"lon":15.224213},{"id":"39449","name":"Alkvettern, Karlskoga","lat":59.438986,"lon":14.403141},{"id":"39450","name":"Asphyttevägen, Storfors","lat":59.544849,"lon":14.277985},{"id":"39451","name":"Bjurbäcken, Storfors","lat":59.592832,"lon":14.187289},{"id":"39452","name":"Norra Kroppavägen, Storfors","lat":59.550827,"lon":14.276706},{"id":"39453","name":"Bjurtjärns kyrka, Storfors","lat":59.444682,"lon":14.330599},{"id":"39454","name":"Brattforsvägen, Storfors","lat":59.566382,"lon":14.10816},{"id":"39455","name":"Dalbäcken, Storfors","lat":59.466716,"lon":14.33957},{"id":"39456","name":"Södra Dalbäcken, Storfors","lat":59.458632,"lon":14.334409},{"id":"39457","name":"England, Storfors","lat":59.424525,"lon":14.363728},{"id":"39458","name":"Fridhem, Storfors","lat":59.482015,"lon":14.328088},{"id":"39459","name":"Gäddtjärn, Kristinehamn","lat":59.527117,"lon":14.057822},{"id":"39460","name":"Jordkullen, Storfors","lat":59.585049,"lon":14.258662},{"id":"39461","name":"Karlstorp, Storfors","lat":59.510532,"lon":14.30553},{"id":"39462","name":"Kungsskogshyttan, Kristinehamn","lat":59.488498,"lon":14.037188},{"id":"39463","name":"Kvarnfallet, Kristinehamn","lat":59.519858,"lon":14.046792},{"id":"39464","name":"Kväggeshyttan, Kristinehamn","lat":59.363908,"lon":14.26571},{"id":"39465","name":"Käxsundet, Kristinehamn","lat":59.394193,"lon":14.328403},{"id":"39466","name":"Ladufallet, Storfors","lat":59.416172,"lon":14.334852},{"id":"39467","name":"Lanforsen, Karlskoga","lat":59.421044,"lon":14.427569},{"id":"39468","name":"Lindås, Storfors","lat":59.539115,"lon":14.074243},{"id":"39469","name":"Vargbroskolan, Storfors","lat":59.543939,"lon":14.281933},{"id":"39470","name":"Lungsgrinden, Storfors","lat":59.54572,"lon":14.229884},{"id":"39471","name":"Lungsundskorset, Storfors","lat":59.555822,"lon":14.237531},{"id":"39472","name":"Lungälven, Storfors","lat":59.573535,"lon":14.138708},{"id":"39473","name":"Norra Dalbäcken, Storfors","lat":59.472329,"lon":14.329402},{"id":"39474","name":"Vårdcentralen Storfors","lat":59.53175,"lon":14.276739},{"id":"39475","name":"Norra Hedås, Kristinehamn","lat":59.512823,"lon":14.044738},{"id":"39476","name":"Norra Sjötorp, Storfors","lat":59.488975,"lon":14.255091},{"id":"39477","name":"Näsvägen, Storfors","lat":59.443236,"lon":14.236172},{"id":"39478","name":"Posthagarna, Storfors","lat":59.577676,"lon":14.158707},{"id":"39479","name":"Råglanda, Storfors","lat":59.506275,"lon":14.310938},{"id":"39480","name":"Släbråtsängen, Storfors","lat":59.503446,"lon":14.259098},{"id":"39481","name":"Röjseln, Storfors","lat":59.513993,"lon":14.267651},{"id":"39482","name":"Släbråten, Storfors","lat":59.49513,"lon":14.252451},{"id":"39483","name":"Stockviken, Storfors","lat":59.461591,"lon":14.252642},{"id":"39484","name":"Kyrksten, Karlskoga","lat":59.439696,"lon":14.404857},{"id":"39485","name":"Idrottsplatsen, Storfors","lat":59.529923,"lon":14.295689},{"id":"39486","name":"Kroppavägen, Storfors","lat":59.541591,"lon":14.278468},{"id":"39487","name":"Sörmyren, Storfors","lat":59.551576,"lon":14.0851},{"id":"39488","name":"Vilångsbron, Kristinehamn","lat":59.358988,"lon":14.247592},{"id":"39489","name":"Ålviksboden, Storfors","lat":59.451475,"lon":14.241918},{"id":"39490","name":"Ämtvägen, Storfors","lat":59.567846,"lon":14.114774},{"id":"39491","name":"Östra vägen, Storfors","lat":59.520069,"lon":14.30189},{"id":"39492","name":"Laggartorp, Storfors","lat":59.56372,"lon":14.101606},{"id":"39493","name":"Hedbergsgården, Storfors","lat":59.58057,"lon":14.169018},{"id":"39494","name":"Bjurbäckens slussar, Storfors","lat":59.585299,"lon":14.170594},{"id":"39495","name":"Ängtorp, Storfors","lat":59.589691,"lon":14.191716},{"id":"39496","name":"Sjötorp, Storfors","lat":59.479544,"lon":14.258497},{"id":"39497","name":"Rötterna, Karlskoga","lat":59.429018,"lon":14.381713},{"id":"39912","name":"Bergsjö, Kristinehamn","lat":59.415512,"lon":14.224694},{"id":"39913","name":"Anneberg, Kristinehamn","lat":59.447842,"lon":14.00522},{"id":"39914","name":"Bennebergsvägen, Kristinehamn","lat":59.375279,"lon":14.005981},{"id":"39915","name":"Norum, Kristinehamn","lat":59.42265,"lon":14.223225},{"id":"39916","name":"Kristinehamns kyrka","lat":59.310058,"lon":14.114215},{"id":"39917","name":"Bomheden, Kristinehamn","lat":59.476455,"lon":14.027044},{"id":"39918","name":"Drevsta, Kristinehamn","lat":59.298321,"lon":14.118537},{"id":"39919","name":"Golfbanan, Kristinehamn","lat":59.339482,"lon":14.125775},{"id":"39920","name":"Lagmansgatan, Kristinehamn","lat":59.325894,"lon":14.129344},{"id":"39921","name":"Hultsvägen, Kristinehamn","lat":59.175759,"lon":14.176479},{"id":"39922","name":"Skäringsbol","lat":59.293122,"lon":14.108491},{"id":"39923","name":"Kungsgårdsvägen, Kristinehamn","lat":59.304818,"lon":14.095179},{"id":"39924","name":"Trumpeten, Kristinehamn","lat":59.299516,"lon":14.093461},{"id":"39925","name":"Skäringsbolsvägen","lat":59.295356,"lon":14.109047},{"id":"39926","name":"Järsberg, Kristinehamn","lat":59.285208,"lon":14.143603},{"id":"39927","name":"Stora Coop, Kristinehamn","lat":59.312763,"lon":14.099917},{"id":"39928","name":"Andgatan, Kristinehamn","lat":59.300779,"lon":14.064817},{"id":"39929","name":"Beckasinvägen, Kristinehamn","lat":59.297393,"lon":14.064077},{"id":"39930","name":"Adlersparregatan, Kristinehamn","lat":59.319505,"lon":14.111584},{"id":"39931","name":"Adlersparretorget, Kristinehamn","lat":59.320469,"lon":14.109762},{"id":"39932","name":"Bele, Kristinehamn","lat":59.324809,"lon":14.096221},{"id":"39933","name":"Kristinehamn, Bjurtjärnsgatan","lat":59.316323,"lon":14.132117},{"id":"39934","name":"Björkvallen, Kristinehamn","lat":59.296152,"lon":14.09851},{"id":"39935","name":"Vålösundsbryggan Båtbuss, Kristinehamn","lat":59.276065,"lon":14.050431},{"id":"39936","name":"Blixten, Kristinehamn","lat":59.337289,"lon":14.08366},{"id":"39937","name":"Kristinehamn, Blomstervägen","lat":59.306229,"lon":14.102131},{"id":"39938","name":"Branten, Kristinehamn","lat":59.30451,"lon":14.101849},{"id":"39939","name":"Christinehamns SS, Kristinehamn","lat":59.284851,"lon":14.053084},{"id":"39940","name":"Dalavägen, Kristinehamn","lat":59.316944,"lon":14.111027},{"id":"39941","name":"Kristinehamn, Djurgårdsplatån","lat":59.298557,"lon":14.096985},{"id":"39942","name":"Norra Sjöändan, Kristinehamn","lat":59.394835,"lon":14.206945},{"id":"39943","name":"Fernebogatan, Kristinehamn","lat":59.321978,"lon":14.118752},{"id":"39944","name":"Filipstadsvägen, Kristinehamn","lat":59.326315,"lon":14.123667},{"id":"39945","name":"Fältvägen, Kristinehamn","lat":59.300315,"lon":14.103726},{"id":"39946","name":"Presterud, Kristinehamn","lat":59.306084,"lon":14.070071},{"id":"39947","name":"Haga koloniområde, Kristinehamn","lat":59.326472,"lon":14.132355},{"id":"39948","name":"Hembygdsgården, Kristinehamn","lat":59.315006,"lon":14.129494},{"id":"39949","name":"Häggvägen, Kristinehamn","lat":59.312842,"lon":14.139295},{"id":"39950","name":"Hägringen, Kristinehamn","lat":59.334421,"lon":14.085695},{"id":"39951","name":"Kristinehamn, Höghuset","lat":59.304315,"lon":14.11371},{"id":"39952","name":"Kristinehamn, Högliden","lat":59.306713,"lon":14.085672},{"id":"39953","name":"Högåsgatan, Kristinehamn","lat":59.320401,"lon":14.095248},{"id":"39954","name":"Irisdal, Kristinehamn","lat":59.306567,"lon":14.119181},{"id":"39955","name":"Kristinehamn, Kolarstigen","lat":59.311748,"lon":14.142194},{"id":"39956","name":"Ålkärrsvägen, Kristinehamn","lat":59.332375,"lon":14.088504},{"id":"39957","name":"Valhallavägen, Kristinehamn","lat":59.302537,"lon":14.087007},{"id":"39958","name":"Kurlanda, Kristinehamn","lat":59.299324,"lon":14.10899},{"id":"39959","name":"Vålösundsbryggan, Kristinehamn","lat":59.275925,"lon":14.051377},{"id":"39960","name":"Kyrkogården, Kristinehamn","lat":59.305439,"lon":14.083068},{"id":"39961","name":"Lisas höjd, Kristinehamn","lat":59.315888,"lon":14.138777},{"id":"39962","name":"Lyran, Kristinehamn","lat":59.30699,"lon":14.108169},{"id":"39963","name":"Stenstalidskolan, Kristinehamn","lat":59.322624,"lon":14.105597},{"id":"39964","name":"Mandelvägen, Kristinehamn","lat":59.317993,"lon":14.134898},{"id":"39965","name":"Mariebergsallén, Kristinehamn","lat":59.326313,"lon":14.09452},{"id":"39966","name":"Kristinas väg, Kristinehamn","lat":59.320045,"lon":14.09314},{"id":"39967","name":"Mariebergsvägen, Kristinehamn","lat":59.322223,"lon":14.092108},{"id":"39968","name":"Mariebergsåsen, Kristinehamn","lat":59.323745,"lon":14.093841},{"id":"39969","name":"Marielund, Kristinehamn","lat":59.326227,"lon":14.127975},{"id":"39970","name":"Mossvägen, Kristinehamn","lat":59.299297,"lon":14.10074},{"id":"39971","name":"Musseronvägen, Kristinehamn","lat":59.327773,"lon":14.111454},{"id":"39972","name":"Imtorpsvägen, Kristinehamn","lat":59.326986,"lon":14.113795},{"id":"39973","name":"Nilssonsgatan, Kristinehamn","lat":59.302203,"lon":14.103263},{"id":"39974","name":"Norra Ringvägen, Kristinehamn","lat":59.321255,"lon":14.1153},{"id":"39975","name":"Närkevägen, Kristinehamn","lat":59.310911,"lon":14.135754},{"id":"39976","name":"Ode Baltens gata, Kristinehamn","lat":59.301472,"lon":14.108461},{"id":"39977","name":"Rådmansgatan, Kristinehamn","lat":59.323441,"lon":14.12185},{"id":"39978","name":"Sandfallet, Kristinehamn","lat":59.326938,"lon":14.116292},{"id":"39979","name":"Sandfallsvägen 12, Kristinehamn","lat":59.329177,"lon":14.112421},{"id":"39980","name":"Sandfallsvägen 2, Kristinehamn","lat":59.327624,"lon":14.115204},{"id":"39981","name":"Sannaparken, Kristinehamn","lat":59.307002,"lon":14.089204},{"id":"39982","name":"Stenbacken, Kristinehamn","lat":59.302843,"lon":14.081584},{"id":"39983","name":"HK Center, Kristinehamn","lat":59.330351,"lon":14.091672},{"id":"39984","name":"Stenstaliden, Kristinehamn","lat":59.32579,"lon":14.10189},{"id":"39985","name":"Strandgården, Kristinehamn","lat":59.340427,"lon":14.083616},{"id":"39986","name":"Strand vändplan, Kristinehamn","lat":59.34187,"lon":14.084105},{"id":"39987","name":"Strandskatan, Kristinehamn","lat":59.317915,"lon":14.120516},{"id":"39988","name":"Strandskolan, Kristinehamn","lat":59.33355,"lon":14.087057},{"id":"39989","name":"Söderled, Kristinehamn","lat":59.311582,"lon":14.141903},{"id":"39990","name":"Södra Ringvägen, Kristinehamn","lat":59.309206,"lon":14.124345},{"id":"39991","name":"Bättringsvägen, Kristinehamn","lat":59.304063,"lon":14.066686},{"id":"39992","name":"Södra Staketgatan, Kristinehamn","lat":59.306557,"lon":14.10388},{"id":"39993","name":"Ica Maxi, Kristinehamn","lat":59.310663,"lon":14.127601},{"id":"39994","name":"Konstmuseet Marieberg, Kristinehamn","lat":59.327739,"lon":14.086278},{"id":"39995","name":"Yxgränd, Kristinehamn","lat":59.327185,"lon":14.12849},{"id":"39996","name":"Ämbetsgatan, Kristinehamn","lat":59.327665,"lon":14.124584},{"id":"39997","name":"Kvarndammen-Övre Kvarn, Kristinehamn","lat":59.314402,"lon":14.148948},{"id":"39998","name":"Långerud, Kristinehamn","lat":59.140633,"lon":14.175982},{"id":"39999","name":"Mosstorp, Kristinehamn","lat":59.438758,"lon":14.004398},{"id":"40000","name":"Hultbyvägen, Kristinehamn","lat":59.467868,"lon":14.014307},{"id":"40001","name":"Nybble, Kristinehamn","lat":59.101313,"lon":14.167168},{"id":"40002","name":"Persbol, Kristinehamn","lat":59.461171,"lon":14.015685},{"id":"40003","name":"Skottlandavägen, Kristinehamn","lat":59.118459,"lon":14.17694},{"id":"40004","name":"Stenbiten, Kristinehamn","lat":59.30063,"lon":14.114841},{"id":"40005","name":"Uppsjön, Kristinehamn","lat":59.211399,"lon":14.183299},{"id":"40008","name":"Ölme, Kristinehamn","lat":59.361685,"lon":14.005646},{"id":"40009","name":"Backatorp, Kristinehamn","lat":59.435716,"lon":14.002621},{"id":"40010","name":"Noret, Kristinehamn","lat":59.339021,"lon":14.19703},{"id":"40011","name":"KaMeWa, Kristinehamn","lat":59.292854,"lon":14.128311},{"id":"40012","name":"Visnumsudden, Kristinehamn","lat":59.231122,"lon":14.180627},{"id":"40013","name":"Visnums prästgård, Kristinehamn","lat":59.126913,"lon":14.175936},{"id":"40014","name":"Värmlands Säby, Kristinehamn","lat":59.088229,"lon":14.162035},{"id":"40015","name":"Sannagården, Kristinehamn","lat":59.309346,"lon":14.092669},{"id":"40016","name":"Vårdcentralen Filipstad","lat":59.713187,"lon":14.177995},{"id":"40017","name":"Västeräng, Filipstad","lat":59.694783,"lon":14.162957},{"id":"40018","name":"Södra Prästbäcken, Filipstad","lat":59.619518,"lon":14.260044},{"id":"40019","name":"Geijers väg, Filipstad","lat":59.656828,"lon":14.00561},{"id":"40021","name":"Eknäs, Lesjöfors","lat":59.935481,"lon":14.229249},{"id":"40022","name":"Filipstad, Spångbergsgymnasiet","lat":59.707822,"lon":14.168927},{"id":"40023","name":"Dalbotorp, Filipstad","lat":59.772066,"lon":14.396583},{"id":"40024","name":"Filipstad busstation","lat":59.713412,"lon":14.173159},{"id":"40025","name":"Sandviken, Filipstad","lat":59.776861,"lon":14.295627},{"id":"40026","name":"Macken, Filipstad","lat":59.71376,"lon":14.153461},{"id":"40027","name":"Samhall, Filipstad","lat":59.693356,"lon":14.163666},{"id":"40028","name":"Vårdcentralen Filipstad riksväg 26","lat":59.711545,"lon":14.177746},{"id":"40029","name":"Rosinco, Filipstad","lat":59.690902,"lon":14.164142},{"id":"40030","name":"Industrivägen, Filipstad","lat":59.68803,"lon":14.16565},{"id":"40031","name":"Finngårdarna, Filipstad","lat":59.827262,"lon":14.262185},{"id":"40033","name":"Gammalkroppavägen, Filipstad","lat":59.726037,"lon":14.213006},{"id":"40034","name":"Gruvgatan, Nordmarkshyttan","lat":59.819608,"lon":14.11252},{"id":"40035","name":"Gåstjärn, Filipstad","lat":59.741931,"lon":14.233077},{"id":"40036","name":"Horrsjöhyttan, Filipstad","lat":59.804811,"lon":14.255454},{"id":"40037","name":"Horrsjön, Filipstad","lat":59.81838,"lon":14.257676},{"id":"40038","name":"Kosundsvägen, Lesjöfors","lat":59.901413,"lon":14.255036},{"id":"40039","name":"Kruses väg","lat":59.67122,"lon":14.028259},{"id":"40040","name":"Lervik, Filipstad","lat":59.788635,"lon":14.318071},{"id":"40041","name":"Bergslagsgatan, Lesjöfors","lat":59.970557,"lon":14.191478},{"id":"40042","name":"Parkgatan, Lesjöfors","lat":59.97664,"lon":14.182736},{"id":"40043","name":"Macken, Lesjöfors","lat":59.973681,"lon":14.187833},{"id":"40044","name":"Skolgatan, Lesjöfors","lat":59.977593,"lon":14.180684},{"id":"40045","name":"Villastaden, Lesjöfors","lat":59.99146,"lon":14.167352},{"id":"40046","name":"Villavägen, Lesjöfors","lat":59.986925,"lon":14.170837},{"id":"40047","name":"Långban Stationsvägen, Filipstad","lat":59.858461,"lon":14.265389},{"id":"40048","name":"Långbansände, Filipstad","lat":59.89629,"lon":14.259143},{"id":"40049","name":"Långskogen, Filipstad","lat":59.776997,"lon":14.257235},{"id":"40050","name":"Munkebergs Camping, Filipstad","lat":59.719973,"lon":14.159197},{"id":"40051","name":"Bergslagsvägen, Nykroppa","lat":59.622461,"lon":14.294575},{"id":"40052","name":"Rävåsen, Nykroppa","lat":59.624677,"lon":14.310107},{"id":"40053","name":"Ängsvägen, Nykroppa","lat":59.625286,"lon":14.280322},{"id":"40054","name":"Påland, Filipstad","lat":59.664198,"lon":14.212667},{"id":"40055","name":"Saxån, Filipstad","lat":59.786095,"lon":14.364897},{"id":"40056","name":"Skjutbanan, Filipstad","lat":59.689098,"lon":14.194961},{"id":"40057","name":"Slätthallarna, Filipstad","lat":59.812579,"lon":14.254122},{"id":"40058","name":"Sommarsta, Nykroppa","lat":59.624674,"lon":14.271035},{"id":"40059","name":"Stora Sten, Filipstad","lat":59.841083,"lon":14.256443},{"id":"40061","name":"Södra Långban, Filipstad","lat":59.84813,"lon":14.26063},{"id":"40062","name":"Torskbäcken, Filipstad","lat":59.785664,"lon":14.338514},{"id":"40063","name":"Åsenvägen, Filipstad","lat":59.714523,"lon":14.182266},{"id":"40065","name":"Wasabröd, Filipstad","lat":59.705551,"lon":14.154647},{"id":"40066","name":"Malmdragarvägen, Nykroppa","lat":59.623546,"lon":14.304158},{"id":"40067","name":"Dunderbacken, Filipstad","lat":59.767098,"lon":14.25901},{"id":"40068","name":"Stiftelsevägen, Lesjöfors","lat":59.981586,"lon":14.176134},{"id":"40069","name":"Aborrbo, Filipstad","lat":59.795945,"lon":14.121461},{"id":"40358","name":"Sveafallen","lat":59.228036,"lon":14.439166},{"id":"40359","name":"Järnverket, Degerfors","lat":59.229645,"lon":14.43502},{"id":"40360","name":"Kyrkan, Degerfors","lat":59.232867,"lon":14.432368},{"id":"40361","name":"Sveagatan","lat":59.233004,"lon":14.429261},{"id":"40362","name":"Timsbron södra","lat":59.35748,"lon":14.511402},{"id":"40363","name":"Timsbron norra","lat":59.362366,"lon":14.509844},{"id":"40364","name":"Gelleråsen södra","lat":59.371289,"lon":14.505299},{"id":"40365","name":"Linnebäck","lat":59.322153,"lon":14.395585},{"id":"40366","name":"Odlingen","lat":59.323024,"lon":14.467938},{"id":"40367","name":"Gottebol","lat":59.324012,"lon":14.449735},{"id":"40368","name":"Vinklyckan","lat":59.32666,"lon":14.432501},{"id":"40369","name":"Björtorp","lat":59.321811,"lon":14.41132},{"id":"40370","name":"Linnebäck västra","lat":59.32366,"lon":14.38305},{"id":"40371","name":"Linnebäcks camping","lat":59.324023,"lon":14.369526},{"id":"40372","name":"Mark","lat":59.318875,"lon":14.342589},{"id":"40373","name":"Bodalen","lat":59.313052,"lon":14.323048},{"id":"40374","name":"Östra Lonnhyttan","lat":59.385647,"lon":14.476135},{"id":"40375","name":"Lonnhyttan","lat":59.39027,"lon":14.469142},{"id":"40376","name":"Rosensjö","lat":59.392486,"lon":14.461926},{"id":"40377","name":"Rosensjö, västra","lat":59.393964,"lon":14.449546},{"id":"40378","name":"Vibäck","lat":59.398104,"lon":14.439293},{"id":"40379","name":"Lunedet","lat":59.403607,"lon":14.43157},{"id":"40380","name":"Spjutberget","lat":59.41352,"lon":14.426607},{"id":"40381","name":"Klockarhagsskolan","lat":59.785172,"lon":14.520029},{"id":"40382","name":"Schillingvägen","lat":59.781561,"lon":14.530887},{"id":"40383","name":"Kyllervägen","lat":59.776876,"lon":14.524461},{"id":"40384","name":"Svartälvsvägen","lat":59.771047,"lon":14.523296},{"id":"40385","name":"Fjällbo","lat":59.763768,"lon":14.518788},{"id":"40386","name":"Hammarn, Hällefors","lat":59.74852,"lon":14.501924},{"id":"40387","name":"Jeppetorp, Hällefors","lat":59.742572,"lon":14.48967},{"id":"40388","name":"Västra Jeppetorp, Hällefors","lat":59.739537,"lon":14.480666},{"id":"40389","name":"Saxhyttan, Riksväg 63","lat":59.740713,"lon":14.467442},{"id":"40391","name":"Ekeby","lat":59.325474,"lon":14.497038},{"id":"40392","name":"Frödingsvägen","lat":59.327169,"lon":14.502208},{"id":"40436","name":"Kristinehamn, Gästhamnen (båtbuss)","lat":59.310764,"lon":14.094722},{"id":"40439","name":"Vårdcentralen Kristinehamn","lat":59.30593,"lon":14.099214},{"id":"40510","name":"Kristinehamn, Herrgårdscampingen (båtbuss)","lat":59.309088,"lon":14.064445},{"id":"40585","name":"Bjurtjärns prästgård, Storfors","lat":59.422908,"lon":14.353587},{"id":"40586","name":"Bjurtjärns skola, Storfors","lat":59.420898,"lon":14.352449},{"id":"40587","name":"Dalåsen, Kristinehamn","lat":59.384919,"lon":14.31779},{"id":"40588","name":"Falletvägen, Karlskoga","lat":59.428501,"lon":14.37873},{"id":"40589","name":"Frövetterstorpsvägen, Storfors","lat":59.408055,"lon":14.333593},{"id":"40590","name":"Kungsskogen, Kristinehamn","lat":59.499065,"lon":14.042789},{"id":"40591","name":"Kungsskogstorp, Kristinehamn","lat":59.506613,"lon":14.04628},{"id":"40592","name":"Lundsberg, Storfors","lat":59.495615,"lon":14.173973},{"id":"40593","name":"Lungsunds kyrka, Storfors","lat":59.521684,"lon":14.191443},{"id":"40594","name":"Lövstad, Storfors","lat":59.426863,"lon":14.375566},{"id":"40595","name":"Sandsjötorp, Storfors","lat":59.491551,"lon":14.327477},{"id":"40596","name":"Kyrkstensvägen, Karlskoga","lat":59.435494,"lon":14.395672},{"id":"40597","name":"Bångtorpet, Storfors","lat":59.561756,"lon":14.269258},{"id":"40598","name":"Näverviken, Storfors","lat":59.535399,"lon":14.218364},{"id":"40599","name":"Furuvik, Storfors","lat":59.501373,"lon":14.173201},{"id":"40600","name":"Kväggenvägen, Kristinehamn","lat":59.371871,"lon":14.274505},{"id":"40601","name":"Sundstorp, Kristinehamn","lat":59.380227,"lon":14.293106},{"id":"40602","name":"Värningsvikstorp, Kristinehamn","lat":59.382066,"lon":14.298013},{"id":"40603","name":"Åsviken, Kristinehamn","lat":59.383626,"lon":14.30251},{"id":"40604","name":"Björkeberg, Storfors","lat":59.438387,"lon":14.338408},{"id":"40707","name":"Agetorp, Kristinehamn","lat":59.249514,"lon":14.177368},{"id":"40708","name":"Berg, Kristinehamn","lat":59.367859,"lon":14.163158},{"id":"40709","name":"Björkebol, Kristinehamn","lat":59.327276,"lon":14.1677},{"id":"40710","name":"Björneborg centrum","lat":59.242718,"lon":14.252254},{"id":"40712","name":"Fageråsen, Kristinehamn","lat":59.39546,"lon":14.000923},{"id":"40713","name":"Grenviken, Kristinehamn","lat":59.403556,"lon":14.215664},{"id":"40714","name":"Gränsen, Gullspång","lat":59.052367,"lon":14.141928},{"id":"40715","name":"Gullspångsvägen, Björneborg","lat":59.241571,"lon":14.247162},{"id":"40716","name":"Hästås, Kristinehamn","lat":59.421799,"lon":14.00648},{"id":"40717","name":"Djurgårdsskolan, Kristinehamn","lat":59.301021,"lon":14.091139},{"id":"40718","name":"Hacklehemsskolan, Kristinehamn","lat":59.3209,"lon":14.1135},{"id":"40719","name":"Kapurja, Kristinehamn","lat":59.289119,"lon":14.053374},{"id":"40720","name":"Bäckhammar, Bytespunkt","lat":59.161526,"lon":14.178153},{"id":"40721","name":"Lotsvägen, Kristinehamn","lat":59.307689,"lon":14.084499},{"id":"40722","name":"Presterudsvägen, Kristinehamn","lat":59.30785,"lon":14.093938},{"id":"40723","name":"Stadsbondgården, Kristinehamn","lat":59.35003,"lon":14.076589},{"id":"40724","name":"Södermalmsskolan, Kristinehamn","lat":59.3045,"lon":14.114175},{"id":"40725","name":"Södertull, Kristinehamn","lat":59.305586,"lon":14.110012},{"id":"40726","name":"Övre kvarn, Kristinehamn","lat":59.314529,"lon":14.148363},{"id":"40727","name":"Labberud, Kristinehamn","lat":59.432232,"lon":14.003203},{"id":"40728","name":"Lid, Kristinehamn","lat":59.377503,"lon":14.00259},{"id":"40730","name":"Månstavägen, Kristinehamn","lat":59.41959,"lon":14.007108},{"id":"40731","name":"Norra Stenåsen, Kristinehamn","lat":59.280757,"lon":14.149075},{"id":"40732","name":"Nolås, Kristinehamn","lat":59.406241,"lon":14.001089},{"id":"40733","name":"Rävtorp, Kristinehamn","lat":59.416435,"lon":14.00584},{"id":"40734","name":"Södra Stenåsen, Kristinehamn","lat":59.277192,"lon":14.153318},{"id":"40735","name":"Sjöändan, Kristinehamn","lat":59.388568,"lon":14.191646},{"id":"40736","name":"Slättomsvägen, Kristinehamn","lat":59.390193,"lon":14.003474},{"id":"40737","name":"Spjutbäcken, Kristinehamn","lat":59.349514,"lon":14.138966},{"id":"40738","name":"Sälsåsen, Kristinehamn","lat":59.411281,"lon":14.004563},{"id":"40739","name":"Södra Nässundet, Storfors","lat":59.432789,"lon":14.228329},{"id":"40740","name":"Vallsberg, Kristinehamn","lat":59.384557,"lon":14.000737},{"id":"40741","name":"Vassgårda, Kristinehamn","lat":59.346965,"lon":14.20779},{"id":"40742","name":"Visnums kyrka, Kristinehamn","lat":59.131432,"lon":14.177599},{"id":"40743","name":"Ölme Stolpen, Kristinehamn","lat":59.369354,"lon":14.013894},{"id":"40744","name":"Norsbäcken, Kristinehamn","lat":59.425838,"lon":14.22253},{"id":"40745","name":"Hedbotten, Kristinehamn","lat":59.378121,"lon":14.173861},{"id":"40746","name":"Hedehultsvägen, Kristinehamn","lat":59.325224,"lon":14.165577},{"id":"40747","name":"Höjdängsvägen, Kristinehamn","lat":59.329834,"lon":14.171934},{"id":"40748","name":"Stakängen, Kristinehamn","lat":59.330977,"lon":14.179022},{"id":"40749","name":"Sättravägen, Kristinehamn","lat":59.346427,"lon":14.214522},{"id":"40750","name":"Södra Hedhultsvägen, Kristinehamn","lat":59.319359,"lon":14.156453},{"id":"40751","name":"Karaby gård, Kristinehamn","lat":59.28984,"lon":14.134444},{"id":"40752","name":"Västra Agen, Kristinehamn","lat":59.252322,"lon":14.18223},{"id":"40753","name":"Sommerstagård, Kristinehamn","lat":59.110885,"lon":14.174392},{"id":"40754","name":"Bäckhammar, bruket","lat":59.160199,"lon":14.185471},{"id":"40755","name":"Bolhyttan, Filipstad","lat":59.685299,"lon":14.071656},{"id":"40756","name":"Kruses väg, Filipstad","lat":59.667763,"lon":14.022274},{"id":"40757","name":"Hammarvägen, Filipstad","lat":59.664674,"lon":14.019005},{"id":"40758","name":"Bergsskolan, Filipstad","lat":59.711193,"lon":14.158492},{"id":"40759","name":"Ferlinskolan, Filipstad","lat":59.714178,"lon":14.161775},{"id":"40761","name":"Franstorp, Lesjöfors","lat":59.940365,"lon":14.222174},{"id":"40762","name":"Grundsjön, Nordmarkshyttan","lat":59.849319,"lon":14.138856},{"id":"40763","name":"Gåsbornsvägen, Filipstad","lat":59.864692,"lon":14.26777},{"id":"40764","name":"Hökhöjden, Lesjöfors","lat":59.92788,"lon":14.235512},{"id":"40765","name":"Kalhyttan, Filipstad","lat":59.710768,"lon":14.138362},{"id":"40766","name":"Martinvägen, Lesjöfors","lat":59.967628,"lon":14.193832},{"id":"40768","name":"Långban, Filipstad","lat":59.853675,"lon":14.263076},{"id":"40769","name":"Berga, Nordmarkshyttan","lat":59.834499,"lon":14.116464},{"id":"40770","name":"Folkets hus, Nordmarkshyttan","lat":59.830326,"lon":14.101632},{"id":"40771","name":"Hyttbacken, Nordmarkshyttan","lat":59.833629,"lon":14.099448},{"id":"40772","name":"Prästgården, Nordmarkshyttan","lat":59.835485,"lon":14.104517},{"id":"40773","name":"Nordmarks skola, Nordmarkshyttan","lat":59.834956,"lon":14.110483},{"id":"40774","name":"Övre Ringen, Nordmarkshyttan","lat":59.836025,"lon":14.120614},{"id":"40775","name":"Persberg, Filipstad","lat":59.753025,"lon":14.246006},{"id":"40776","name":"Piludden, Filipstad","lat":59.698829,"lon":14.186135},{"id":"40777","name":"Stensta, Filipstad","lat":59.695275,"lon":14.190969},{"id":"40778","name":"Lertorp, Filipstad","lat":59.773475,"lon":14.147331},{"id":"40779","name":"Kruthuset, Nordmarkshyttan","lat":59.838814,"lon":14.130578},{"id":"40780","name":"Lassbo, Filipstad","lat":59.804068,"lon":14.116391},{"id":"40948","name":"Torpa","lat":59.144964,"lon":14.179831},{"id":"40952","name":"Agen, Kristinehamn","lat":59.25228,"lon":14.199771},{"id":"40953","name":"Picassoskulpturen, Kristinehamn","lat":59.27391,"lon":14.052366},{"id":"40954","name":"Stålvallaskolan, Lesjöfors","lat":59.984591,"lon":14.173048},{"id":"40955","name":"Stöpsjövägen, Filipstad","lat":59.800035,"lon":14.115179},{"id":"40956","name":"Tången, Nordmarkshyttan","lat":59.827564,"lon":14.105028},{"id":"40987","name":"Fallvägen, Storfors","lat":59.525922,"lon":14.27976},{"id":"40992","name":"Guldfisken, Kristinehamn","lat":59.303215,"lon":14.111991},{"id":"40993","name":"Nässundet station","lat":59.438695,"lon":14.23402},{"id":"41273","name":"Tapiren, Kristinehamn","lat":59.312485,"lon":14.104751},{"id":"41274","name":"Södra torget, Kristinehamn","lat":59.308698,"lon":14.106257},{"id":"41294","name":"Sannabadet, Kristinehamn","lat":59.310177,"lon":14.091011},{"id":"41295","name":"Kristinehamn, ICA MAXI","lat":59.311824,"lon":14.127157},{"id":"41296","name":"Sörkastet, Kristinehamn","lat":59.295215,"lon":14.054306},{"id":"41297","name":"Rönneberg, Kristinehamn","lat":59.281147,"lon":14.051766},{"id":"41302","name":"Ridskolan, Kristinehamn","lat":59.345918,"lon":14.056072},{"id":"41303","name":"Fiskartorpsvägen, Kristinehamn","lat":59.307629,"lon":14.078251},{"id":"41304","name":"Magister Löfs väg, Kristinehamn","lat":59.323058,"lon":14.101728},{"id":"41305","name":"Gustavsvik, Kristinehamn","lat":59.333815,"lon":14.063091},{"id":"41306","name":"Bonderudsvägen, Kristinehamn","lat":59.338279,"lon":14.057186},{"id":"41307","name":"Yngshyttevägen, Filipstad","lat":59.751592,"lon":14.248234},{"id":"41308","name":"Vikudden, Lesjöfors","lat":59.946862,"lon":14.213005},{"id":"41321","name":"Jäders Bruk","lat":59.412368,"lon":15.778324},{"id":"41420","name":"Stockshammar","lat":58.864179,"lon":14.901836},{"id":"41421","name":"Rude","lat":58.855976,"lon":14.906105},{"id":"41422","name":"Stjärnsund","lat":58.848651,"lon":14.915286},{"id":"41423","name":"Öna","lat":58.831481,"lon":14.929042},{"id":"41424","name":"Affären Hammar","lat":58.812402,"lon":14.962456},{"id":"41426","name":"Skyrstavägen","lat":58.809959,"lon":14.963709},{"id":"41427","name":"Lunna","lat":58.80073,"lon":14.965127},{"id":"41429","name":"Sänna","lat":58.795599,"lon":14.975422},{"id":"41430","name":"Högsvallen","lat":58.786908,"lon":15.000807},{"id":"41431","name":"Södra Kärra","lat":58.746044,"lon":14.984256},{"id":"41433","name":"Bäckadalen","lat":58.7394,"lon":14.982651},{"id":"41434","name":"Forsaviken södra","lat":58.73294,"lon":14.984789},{"id":"41435","name":"Grönlund","lat":58.728581,"lon":14.983994},{"id":"41436","name":"Dalmark","lat":58.722958,"lon":14.979311},{"id":"41438","name":"Råå","lat":58.711351,"lon":14.965696},{"id":"42433","name":"Storå Resecentrum","lat":59.713888,"lon":15.143282},{"id":"42637","name":"Ställberg, Bönhusbacken","lat":59.978788,"lon":14.924842},{"id":"42647","name":"Silverhöjden","lat":60.031246,"lon":14.966462},{"id":"42648","name":"Silverhöjdens såg","lat":60.037926,"lon":14.968069},{"id":"42651","name":"Malmtorget, Kopparberg","lat":59.875624,"lon":14.996191},{"id":"42737","name":"Tallstigen Grängesberg","lat":60.07404,"lon":15.004802},{"id":"42738","name":"Dynamiten Grängesberg","lat":60.071078,"lon":14.997456},{"id":"42739","name":"Bergsmansplan","lat":60.07105,"lon":14.991476},{"id":"42740","name":"Lomberget","lat":60.063706,"lon":14.986808},{"id":"42741","name":"Röforsvägen","lat":59.414907,"lon":15.738688},{"id":"42742","name":"Dalsgata","lat":59.413398,"lon":15.754716},{"id":"42743","name":"Skandiagatan","lat":59.40139,"lon":15.832192},{"id":"42745","name":"Kumla jvstn","lat":59.126535,"lon":15.140171},{"id":"42916","name":"Trädgårdsgatan","lat":59.270449,"lon":15.217262},{"id":"42928","name":"Hamnplan","lat":59.271737,"lon":15.220309},{"id":"42952","name":"USÖ Akuten","lat":59.275723,"lon":15.232395},{"id":"42955","name":"Gesällgatan norra","lat":59.329465,"lon":14.507408},{"id":"42965","name":"Lasarettet Karlskoga","lat":59.314823,"lon":14.503769},{"id":"42980","name":"Lötgårdarna","lat":59.33884,"lon":14.513025},{"id":"42981","name":"Spelgatan","lat":59.336562,"lon":14.509615},{"id":"42982","name":"Hallänningsgatan","lat":59.333884,"lon":14.504832},{"id":"42986","name":"Alfred Nobels torg","lat":59.327062,"lon":14.523996},{"id":"43043","name":"Godby","lat":59.408313,"lon":15.796137},{"id":"43044","name":"Mariagatan","lat":60.076741,"lon":15.930527},{"id":"43045","name":"Täppvägen","lat":60.082132,"lon":15.934302},{"id":"43046","name":"Trundhemsvägen","lat":60.088215,"lon":15.936105},{"id":"43047","name":"Storkiosken","lat":60.09168,"lon":15.936082},{"id":"43048","name":"Stora Heden","lat":60.093675,"lon":15.933844},{"id":"43049","name":"Bolagshagen","lat":60.096262,"lon":15.931733},{"id":"43050","name":"Lilla Heden","lat":60.099244,"lon":15.929713},{"id":"43051","name":"Harbovägen","lat":60.090564,"lon":15.938863},{"id":"43052","name":"Bobergsskolan","lat":60.086252,"lon":15.943356},{"id":"43053","name":"Förskolan","lat":60.083925,"lon":15.944963},{"id":"43054","name":"Landerstedts","lat":60.082417,"lon":15.945262},{"id":"43055","name":"Spettalet Norr","lat":60.079229,"lon":15.946668},{"id":"43056","name":"Spettalet Söder","lat":60.075016,"lon":15.950368},{"id":"43260","name":"Solmyravägen","lat":59.623843,"lon":15.819215},{"id":"43261","name":"Magasinet","lat":59.627631,"lon":15.813209},{"id":"43262","name":"Gisslarbo","lat":59.6301,"lon":15.805251},{"id":"43263","name":"Jäxbo","lat":59.644389,"lon":15.789683},{"id":"43264","name":"Bubbarsbo","lat":59.662893,"lon":15.769786},{"id":"43265","name":"Bernshammar","lat":59.669159,"lon":15.771075},{"id":"43266","name":"Hed","lat":59.679246,"lon":15.764},{"id":"43267","name":"Karmansbo","lat":59.693281,"lon":15.75276},{"id":"43268","name":"Bygget","lat":59.701531,"lon":15.737649},{"id":"43269","name":"Västanhed","lat":59.711264,"lon":15.712259},{"id":"43270","name":"Lillängen","lat":59.717612,"lon":15.703516},{"id":"43271","name":"Tomasbo","lat":59.728733,"lon":15.691928},{"id":"43272","name":"Snarhem","lat":59.739471,"lon":15.684868},{"id":"43273","name":"Östanfors","lat":59.741718,"lon":15.679276},{"id":"43274","name":"Uttersberg","lat":59.749927,"lon":15.666153},{"id":"43275","name":"Sillbo","lat":59.764915,"lon":15.681892},{"id":"43276","name":"Laggarbo/Piltorp","lat":59.78214,"lon":15.691727},{"id":"43277","name":"Vätterskoga","lat":59.798677,"lon":15.695768},{"id":"43278","name":"Folkhögskolan","lat":59.816337,"lon":15.701751},{"id":"43279","name":"Hyttvägen","lat":59.819353,"lon":15.701546},{"id":"43280","name":"Borntorpet","lat":59.823435,"lon":15.699073},{"id":"43281","name":"Ö Ringvägen","lat":59.824957,"lon":15.694807},{"id":"43282","name":"Sotvretsvägen","lat":59.826669,"lon":15.691789},{"id":"43283","name":"Klockarberget","lat":59.829228,"lon":15.692564},{"id":"43284","name":"Långvikstorp","lat":59.843134,"lon":15.706358},{"id":"43285","name":"Rönningen","lat":59.849004,"lon":15.706073},{"id":"43286","name":"Långviken","lat":59.854048,"lon":15.706254},{"id":"43287","name":"Brofallet","lat":59.861765,"lon":15.703375},{"id":"43288","name":"Höglunda","lat":59.868251,"lon":15.688736},{"id":"43289","name":"Alderkärret","lat":59.871397,"lon":15.683387},{"id":"43290","name":"Nedre sundet","lat":59.878497,"lon":15.673898},{"id":"43291","name":"Sundet","lat":59.883115,"lon":15.66979},{"id":"43292","name":"Darsbo V","lat":59.891333,"lon":15.683742},{"id":"43293","name":"Darsbo Ö","lat":59.896563,"lon":15.690298},{"id":"43294","name":"Björkviken","lat":59.899975,"lon":15.715514},{"id":"43295","name":"Orrudden","lat":59.903292,"lon":15.722117},{"id":"43296","name":"Dagarn","lat":59.909402,"lon":15.718205},{"id":"43297","name":"Bergslagsvägen Norra","lat":59.518672,"lon":15.972154},{"id":"43298","name":"Nya Hamnvägen","lat":59.504289,"lon":15.993838},{"id":"43299","name":"Arboga Teknikpark","lat":59.394989,"lon":15.895673},{"id":"43300","name":"Fillinge","lat":59.485042,"lon":15.706482},{"id":"43301","name":"Långhäll","lat":59.368003,"lon":15.701498},{"id":"43302","name":"Tjurlången","lat":59.378767,"lon":15.770672},{"id":"43303","name":"Smedstorp","lat":59.479573,"lon":15.71548},{"id":"43304","name":"Granlund","lat":59.472114,"lon":15.730671},{"id":"43305","name":"Tallbo","lat":59.416642,"lon":15.782996},{"id":"43306","name":"Byringevägen","lat":59.452808,"lon":15.753017},{"id":"43604","name":"Alfaskolan","lat":60.009455,"lon":15.794053},{"id":"43605","name":"Bragevägen","lat":60.005955,"lon":15.800346},{"id":"43606","name":"Lancashiregatan","lat":60.00565,"lon":15.804164},{"id":"43607","name":"Per Olsskolan","lat":60.00477,"lon":15.819095},{"id":"43608","name":"Hedkärra","lat":59.96624,"lon":15.763456},{"id":"43609","name":"Björkmans väg","lat":59.971257,"lon":15.762625},{"id":"43610","name":"Björnbacksvägen","lat":59.974315,"lon":15.754778},{"id":"43611","name":"Hedkärra Gård","lat":59.975514,"lon":15.744784},{"id":"43612","name":"Hedkärra Södra","lat":59.97358,"lon":15.737714},{"id":"43613","name":"Jönsbacken","lat":59.972357,"lon":15.733473},{"id":"43614","name":"Länsgränsen","lat":59.9733,"lon":15.718931},{"id":"43615","name":"Risbroplan","lat":59.999771,"lon":15.807587},{"id":"43617","name":"Mariaskolan","lat":59.991503,"lon":15.828657},{"id":"43618","name":"Bergvägen","lat":59.989572,"lon":15.832059},{"id":"43619","name":"Hagavägen","lat":59.988953,"lon":15.831826},{"id":"43620","name":"Sundbo","lat":59.983793,"lon":15.859694},{"id":"43621","name":"Ombenning Norra","lat":59.981064,"lon":15.954473},{"id":"43622","name":"Ombenning Södra","lat":59.980449,"lon":15.958196},{"id":"43623","name":"Ennora","lat":59.968027,"lon":15.972731},{"id":"43635","name":"Sturevägen","lat":60.007113,"lon":15.792853},{"id":"43636","name":"Bastmora","lat":59.921985,"lon":15.833634},{"id":"43637","name":"Barktorp","lat":59.926555,"lon":15.829346},{"id":"43638","name":"Hjortbo","lat":59.93695,"lon":15.818353},{"id":"43639","name":"Flyten","lat":59.94072,"lon":15.806637},{"id":"43640","name":"Dalavägen","lat":60.009302,"lon":15.790002},{"id":"43641","name":"Kolmilegränd","lat":60.01116,"lon":15.790969},{"id":"43642","name":"Hantverksvägen","lat":60.013942,"lon":15.788512},{"id":"43643","name":"Stövargränd","lat":60.013772,"lon":15.79052},{"id":"43644","name":"Forsbackavägen","lat":60.012264,"lon":15.791865},{"id":"43645","name":"Polishuset","lat":60.003873,"lon":15.798644},{"id":"43646","name":"Ringvägen","lat":60.001001,"lon":15.811297},{"id":"43647","name":"Martingatan","lat":60.005587,"lon":15.809326},{"id":"43648","name":"Smidesvägen","lat":60.004304,"lon":15.809434},{"id":"43649","name":"Risbrokyrkan","lat":60.002159,"lon":15.809147},{"id":"43650","name":"Norrbyvägen","lat":59.998308,"lon":15.8142},{"id":"43651","name":"Hästhovsvägen","lat":59.997186,"lon":15.813196},{"id":"43652","name":"Kolargränd","lat":60.010461,"lon":15.796186},{"id":"43653","name":"Knutsvägen","lat":59.990641,"lon":15.827348},{"id":"43654","name":"Solliden","lat":59.987815,"lon":15.812692},{"id":"43655","name":"Västanfors Kyrka","lat":59.987528,"lon":15.808787},{"id":"43656","name":"Lindgården","lat":59.990499,"lon":15.806243},{"id":"43657","name":"Kyrkvägen","lat":59.992707,"lon":15.805957},{"id":"43658","name":"Aspatorp","lat":59.974611,"lon":15.823954},{"id":"43659","name":"Mossbo","lat":59.96822,"lon":15.8278},{"id":"43660","name":"Övre Gatgården","lat":59.964737,"lon":15.832756},{"id":"43661","name":"Blinkbovägen","lat":59.96224,"lon":15.836889},{"id":"43662","name":"Åvestbo","lat":59.957653,"lon":15.838997},{"id":"43663","name":"Vilhelminaparken","lat":60.004609,"lon":15.794521},{"id":"43664","name":"Middagsberget","lat":59.955833,"lon":15.829581},{"id":"43665","name":"Sågverket","lat":59.953618,"lon":15.811755},{"id":"43666","name":"Oppgårdsvägen","lat":59.956406,"lon":15.838405},{"id":"43667","name":"Smittsbo","lat":59.950845,"lon":15.805814},{"id":"43668","name":"Tägtbyvägen","lat":59.932066,"lon":15.826274},{"id":"43669","name":"Myrbovägen","lat":60.006969,"lon":15.795901},{"id":"43670","name":"Södra Porten","lat":59.995849,"lon":15.807695},{"id":"43685","name":"Björskogskolan","lat":59.443228,"lon":15.946985},{"id":"43687","name":"Ö Eknö","lat":59.446276,"lon":15.993199},{"id":"43688","name":"V Eknö","lat":59.445196,"lon":15.975831},{"id":"43689","name":"Segelsberga","lat":59.447291,"lon":15.965335},{"id":"43690","name":"Björskogs k:a","lat":59.448079,"lon":15.959522},{"id":"43691","name":"Nåberga","lat":59.44521,"lon":15.985491},{"id":"43692","name":"Råby","lat":59.447634,"lon":15.971295},{"id":"43702","name":"Hackspettsbacke","lat":60.074642,"lon":15.947151},{"id":"43703","name":"Blåmesvägen","lat":60.060576,"lon":15.940143},{"id":"43707","name":"Norbergs järnvägsstation","lat":60.061555,"lon":15.92968},{"id":"43708","name":"Järnvägsgatan","lat":60.059353,"lon":15.933532},{"id":"43709","name":"Stutbo vsk","lat":60.054731,"lon":15.941448},{"id":"43710","name":"Rosendal","lat":60.048304,"lon":15.950503},{"id":"43711","name":"Trättsbo","lat":60.040741,"lon":15.96364},{"id":"43712","name":"Livsdal","lat":60.037729,"lon":15.96777},{"id":"43713","name":"Mauritzbacke","lat":60.035809,"lon":15.974525},{"id":"43714","name":"Hönsgärdet Norra","lat":60.033713,"lon":15.985116},{"id":"43715","name":"Hönsgärdet Södra","lat":60.031676,"lon":15.991043},{"id":"43729","name":"Vårdcentralen","lat":60.061332,"lon":15.928279},{"id":"43739","name":"Fågelvägen","lat":60.057531,"lon":15.942447},{"id":"43743","name":"Morbyn","lat":59.925254,"lon":15.719522},{"id":"43744","name":"Mortorp","lat":59.940665,"lon":15.734723},{"id":"43746","name":"Oti","lat":59.964913,"lon":15.766143},{"id":"43747","name":"Kopängsvägen","lat":59.967301,"lon":15.769864},{"id":"43748","name":"Fårbo industriområde","lat":59.981604,"lon":15.798613},{"id":"43749","name":"Hembygdsgården","lat":59.983462,"lon":15.80644},{"id":"43750","name":"Fagersta Lasarett","lat":59.996378,"lon":15.809899},{"id":"43751","name":"Brinellskolan","lat":59.998703,"lon":15.803251},{"id":"43752","name":"Gallerian","lat":60.002966,"lon":15.794809},{"id":"43753","name":"Järntorget","lat":60.004016,"lon":15.791439},{"id":"43754","name":"Fagerstavägen","lat":60.064335,"lon":15.912363},{"id":"43755","name":"Fagerstav. Nedre","lat":60.064897,"lon":15.916297},{"id":"43756","name":"Solbacksallén","lat":60.069301,"lon":15.93005},{"id":"43757","name":"Rosenstigen","lat":60.070573,"lon":15.93282},{"id":"43758","name":"Stigaregatan","lat":60.073011,"lon":15.936386},{"id":"43759","name":"Spännarhyttan Ö","lat":60.074518,"lon":15.954407},{"id":"43760","name":"Läbacken","lat":60.074991,"lon":15.964306},{"id":"43769","name":"Övre sundet","lat":59.881768,"lon":15.669009},{"id":"43770","name":"Oxbron","lat":59.723153,"lon":15.695875},{"id":"43771","name":"Kyrkan","lat":59.829115,"lon":15.686663},{"id":"43772","name":"Kommunhuset","lat":59.83044,"lon":15.682451},{"id":"43773","name":"Åvreten","lat":59.831152,"lon":15.676903},{"id":"43774","name":"Björnbo","lat":59.844868,"lon":15.677527},{"id":"43775","name":"Godkärra Södra","lat":59.862472,"lon":15.654758},{"id":"43776","name":"Godkärra Norra","lat":59.867385,"lon":15.650023},{"id":"43777","name":"Kärrbo vsk","lat":59.8718,"lon":15.649003},{"id":"43778","name":"Hultebo","lat":59.870227,"lon":15.625982},{"id":"43779","name":"Östra Byarna","lat":59.839685,"lon":15.565883},{"id":"43780","name":"Bäckegruvans vsk","lat":59.832846,"lon":15.551828},{"id":"43781","name":"Källfallet","lat":59.821964,"lon":15.532445},{"id":"43782","name":"Sågen","lat":59.815413,"lon":15.528864},{"id":"43784","name":"Lienshyttan","lat":59.809735,"lon":15.534862},{"id":"43785","name":"Bussgaraget","lat":59.80808,"lon":15.541914},{"id":"43786","name":"Skolvägen","lat":59.807991,"lon":15.546779},{"id":"43787","name":"Centralvägen","lat":59.808906,"lon":15.551422},{"id":"43788","name":"Riddarhyttan IP","lat":59.810805,"lon":15.558856},{"id":"43799","name":"Kungsörsvägen (Teknikparken)","lat":59.394913,"lon":15.888052},{"id":"43800","name":"Herrgårdsgatan","lat":59.391988,"lon":15.848165},{"id":"43801","name":"Belitzgatan","lat":59.393619,"lon":15.854855},{"id":"43802","name":"Heijkensköldsgatan","lat":59.393913,"lon":15.861508},{"id":"43803","name":"Ekbacken","lat":59.396426,"lon":15.88105},{"id":"43807","name":"Hökartorget","lat":59.513126,"lon":15.99719},{"id":"43808","name":"Torggatan","lat":59.511539,"lon":15.989428},{"id":"43809","name":"Jäderstullen","lat":59.39289,"lon":15.832661},{"id":"43810","name":"Stationsgatan","lat":59.397605,"lon":15.853629},{"id":"43811","name":"Varvsgatan","lat":59.399003,"lon":15.860672},{"id":"43812","name":"Strängen","lat":59.400615,"lon":15.868807},{"id":"43813","name":"Wettergrensgatan","lat":59.394091,"lon":15.864114},{"id":"43814","name":"Husta","lat":59.492581,"lon":15.989748},{"id":"43815","name":"Korslöt","lat":59.536433,"lon":15.951916},{"id":"43816","name":"Holmsmalma","lat":59.542879,"lon":15.9337},{"id":"43817","name":"Lyftingevägen","lat":59.549915,"lon":15.915126},{"id":"43818","name":"Åsby","lat":59.553013,"lon":15.902935},{"id":"43819","name":"Lugnet","lat":59.558045,"lon":15.894372},{"id":"43821","name":"Vallsta","lat":59.572147,"lon":15.879175},{"id":"43822","name":"Guttsta","lat":59.579537,"lon":15.874926},{"id":"43824","name":"Trastvägen","lat":59.586517,"lon":15.864532},{"id":"43825","name":"Rabovägen","lat":59.587946,"lon":15.859844},{"id":"43827","name":"Parkvägen","lat":59.593182,"lon":15.852735},{"id":"43829","name":"Strömvägen","lat":59.602791,"lon":15.8375},{"id":"43830","name":"Kolsva Norra","lat":59.605431,"lon":15.833111},{"id":"43831","name":"Kolsva vägförvaltning","lat":59.609345,"lon":15.828633},{"id":"43832","name":"Högsta","lat":59.480961,"lon":15.980016},{"id":"43833","name":"Näsby","lat":59.412122,"lon":15.900807},{"id":"43834","name":"Vinbäcken","lat":59.387541,"lon":15.824228},{"id":"43835","name":"Tjurlånga","lat":59.376043,"lon":15.757728},{"id":"43836","name":"Racksätter","lat":59.37352,"lon":15.736695},{"id":"43837","name":"Nyby","lat":59.370209,"lon":15.723651},{"id":"43838","name":"Änglund","lat":59.361594,"lon":15.691038},{"id":"43839","name":"Jädersby","lat":59.41359,"lon":15.782276},{"id":"43840","name":"Hagbylund","lat":59.425439,"lon":15.783237},{"id":"43841","name":"Vretberga","lat":59.439861,"lon":15.771489},{"id":"43842","name":"Hagby/Norskoga","lat":59.444141,"lon":15.765122},{"id":"43843","name":"Medåkers kyrka","lat":59.452038,"lon":15.757972},{"id":"43844","name":"Ålbrovägen","lat":59.453434,"lon":15.747762},{"id":"43845","name":"Medåkers skola","lat":59.454227,"lon":15.753808},{"id":"43846","name":"Garlinge","lat":59.465746,"lon":15.74088},{"id":"43848","name":"Smedby","lat":59.488054,"lon":15.701161},{"id":"43859","name":"Åsta Smedja","lat":59.462029,"lon":15.999494},{"id":"43860","name":"Åsta kurva","lat":59.465502,"lon":15.994505},{"id":"43861","name":"Åsta Gata","lat":59.471422,"lon":15.991257},{"id":"43862","name":"Grönö","lat":59.475741,"lon":15.990328},{"id":"43871","name":"Östtuna","lat":59.4753,"lon":15.970936},{"id":"43872","name":"Borsingby","lat":59.468325,"lon":15.963952},{"id":"43873","name":"Viadukten","lat":59.456052,"lon":15.957671},{"id":"43874","name":"Björskogs vsk","lat":59.448642,"lon":15.953795},{"id":"43875","name":"Vavle","lat":59.438562,"lon":15.944992},{"id":"43876","name":"Täby","lat":59.428965,"lon":15.928938},{"id":"43877","name":"Täby/Sörby","lat":59.425317,"lon":15.922724},{"id":"44622","name":"Trollstigen","lat":60.062809,"lon":15.600909},{"id":"44623","name":"Söräng","lat":60.069527,"lon":15.592354},{"id":"44629","name":"Saxenäsvägen","lat":60.085294,"lon":15.585227},{"id":"44630","name":"Övre Nor","lat":60.081336,"lon":15.585487},{"id":"44631","name":"Sörbo norra","lat":60.052387,"lon":15.612066},{"id":"44632","name":"Mårtsboäng","lat":60.088968,"lon":15.533756},{"id":"44633","name":"Industriområdet Söderbärke","lat":60.076656,"lon":15.543665},{"id":"44634","name":"Malingsbo Bro","lat":59.928814,"lon":15.437216},{"id":"44635","name":"Skogsbyn","lat":60.025572,"lon":15.715762},{"id":"44636","name":"Paviljongen Malingsbo","lat":59.930411,"lon":15.436984},{"id":"44637","name":"Storbäcken","lat":59.939154,"lon":15.433917},{"id":"44638","name":"Skräddartorp","lat":59.987446,"lon":15.373092},{"id":"44639","name":"Matsesviken","lat":60.038002,"lon":15.627132},{"id":"44640","name":"Vad","lat":60.027514,"lon":15.65933},{"id":"44641","name":"Gamla affären Vad","lat":60.02526,"lon":15.666281},{"id":"44642","name":"Sågverket Vad","lat":60.022733,"lon":15.670828},{"id":"44643","name":"Källan","lat":59.972774,"lon":15.411228},{"id":"44644","name":"Söräng norra","lat":60.070964,"lon":15.587711},{"id":"44645","name":"Söräng södra","lat":60.065963,"lon":15.597818},{"id":"44646","name":"Ängarna","lat":60.054431,"lon":15.610223},{"id":"44647","name":"Kalvnäset","lat":60.045942,"lon":15.617721},{"id":"44648","name":"Sörbo","lat":60.042392,"lon":15.62081},{"id":"44649","name":"Hägnan","lat":60.032977,"lon":15.634514},{"id":"44650","name":"Bystugan Vad","lat":60.028435,"lon":15.648672},{"id":"44651","name":"Grådkärret","lat":60.020723,"lon":15.690544},{"id":"44652","name":"Skeppargårdarna","lat":60.019505,"lon":15.704697},{"id":"44653","name":"Kolpebo","lat":60.020415,"lon":15.70828},{"id":"44654","name":"Mårtsbo","lat":60.081255,"lon":15.541347},{"id":"44663","name":"Blomsteräng","lat":60.094779,"lon":15.589495},{"id":"44664","name":"Ösängsbacken","lat":60.08716,"lon":15.584693},{"id":"44665","name":"Nor Söderbärke","lat":60.074999,"lon":15.579512},{"id":"44666","name":"Brovägen Söderbärke","lat":60.07405,"lon":15.575873},{"id":"44667","name":"Bergsmansvägen Söderbärke","lat":60.070979,"lon":15.55102},{"id":"44668","name":"Söderbärke busstn","lat":60.070385,"lon":15.554778},{"id":"44669","name":"Bomanstjärn","lat":60.038717,"lon":15.321698},{"id":"44674","name":"Hagens","lat":60.036279,"lon":15.325161},{"id":"44675","name":"Jansbo","lat":60.04814,"lon":15.279132},{"id":"44676","name":"Nyåkern","lat":60.06586,"lon":15.257606},{"id":"44678","name":"Gamla vägen","lat":60.078253,"lon":15.217251},{"id":"44705","name":"Laggbyvägen","lat":60.04076,"lon":15.303994},{"id":"44706","name":"Getbovallen","lat":60.057624,"lon":15.264996},{"id":"44707","name":"Snöån gamla affären","lat":60.070494,"lon":15.25392},{"id":"44708","name":"Lilla Snöån","lat":60.074933,"lon":15.248582},{"id":"44709","name":"Snöån gamla skolan","lat":60.076362,"lon":15.230236},{"id":"44710","name":"Stora Snöån","lat":60.079954,"lon":15.216251},{"id":"44711","name":"Pjantbo","lat":60.0997,"lon":15.230404},{"id":"45856","name":"Björkås Föreningsbacken","lat":60.095475,"lon":15.015407},{"id":"45858","name":"Gruvfogdevägen Grängesberg","lat":60.075555,"lon":14.985491},{"id":"45859","name":"Stallbacken Grängesberg","lat":60.077294,"lon":14.983687},{"id":"45876","name":"Mässbacken","lat":60.080486,"lon":14.984542},{"id":"45877","name":"Grotfallet","lat":60.07916,"lon":14.976383},{"id":"45878","name":"Majens","lat":60.078237,"lon":14.973747},{"id":"45879","name":"Örntorp","lat":60.076237,"lon":14.976941},{"id":"45880","name":"Stallbackens skola","lat":60.077656,"lon":14.981343},{"id":"45882","name":"Lönnfallet Grängesberg","lat":60.071331,"lon":14.988972},{"id":"45883","name":"Skråssbäcksvägen Björkås","lat":60.097984,"lon":15.008624},{"id":"45884","name":"Ängsstigen","lat":60.099573,"lon":15.011713},{"id":"45885","name":"Höjdstigen Björkås","lat":60.098883,"lon":15.014948},{"id":"45886","name":"Björkåsbacken","lat":60.096858,"lon":15.015464},{"id":"45887","name":"Gamla kiosken Björkås","lat":60.093908,"lon":15.016055},{"id":"45888","name":"Vårdcentralen Grängesberg","lat":60.086675,"lon":15.020883},{"id":"45889","name":"Granliden stora vägen","lat":60.086192,"lon":15.013563},{"id":"45891","name":"Industrivägen Grängesberg","lat":60.079714,"lon":15.011006},{"id":"45892","name":"Kyrkbacken rv 50","lat":60.079117,"lon":15.023883},{"id":"45893","name":"Badhuset Grängesberg","lat":60.078594,"lon":15.011302},{"id":"45989","name":"Bystugan Vad tågbusshpl","lat":60.028344,"lon":15.64756},{"id":"45990","name":"Årnebo","lat":60.031138,"lon":15.73137},{"id":"46283","name":"Läsarbo","lat":60.009864,"lon":15.648419},{"id":"46284","name":"Huggnora södra","lat":60.029225,"lon":15.608453},{"id":"46285","name":"Laggarbo","lat":60.035571,"lon":15.591426},{"id":"46286","name":"Tunkarlsbo","lat":60.023863,"lon":15.624805},{"id":"46287","name":"Huggnora norra","lat":60.031285,"lon":15.600225},{"id":"46288","name":"Myggnäset","lat":60.003189,"lon":15.658542},{"id":"46289","name":"Hökbacken","lat":60.060495,"lon":15.555015},{"id":"46290","name":"Värdshusvägen Tolvsbo","lat":60.047397,"lon":15.522666},{"id":"46291","name":"Stora Tolvsbo","lat":60.048844,"lon":15.528128},{"id":"46292","name":"Holmenvägen Tolvsbo","lat":60.048605,"lon":15.533855},{"id":"46293","name":"Lilla Tolvsbo","lat":60.046987,"lon":15.541675},{"id":"46294","name":"Årängen","lat":60.050106,"lon":15.553209},{"id":"46295","name":"Björsbo trädgård","lat":59.974365,"lon":15.71395},{"id":"46296","name":"Björsbo södra","lat":59.974371,"lon":15.709938},{"id":"46297","name":"Björsbo norra","lat":59.97943,"lon":15.69402},{"id":"46298","name":"Västerbyhytta södra","lat":60.043749,"lon":15.576155},{"id":"46299","name":"Västerbyhytta","lat":60.050001,"lon":15.563925},{"id":"46300","name":"Brustorpet Söderbärke","lat":60.064912,"lon":15.551103},{"id":"46392","name":"Malmenskolan","lat":60.07815,"lon":14.987133},{"id":"46402","name":"Stora Hagen skb","lat":60.075449,"lon":15.007821},{"id":"46416","name":"Björkåsskolan skolbusshållplats","lat":60.086118,"lon":15.020716},{"id":"46496","name":"Täppstigen","lat":60.096383,"lon":15.012599},{"id":"46511","name":"Grängesberg (Tåg)","lat":60.076323,"lon":15.005429},{"id":"46520","name":"Vad (Tåg)","lat":60.032323,"lon":15.642931},{"id":"46521","name":"Söderbärke (Tåg)","lat":60.071321,"lon":15.537763},{"id":"46543","name":"Bärkegränd","lat":60.069734,"lon":15.557064},{"id":"46742","name":"Källsjön","lat":59.974316,"lon":15.401952},{"id":"46905","name":"Persbo","lat":59.895072,"lon":15.5901},{"id":"46906","name":"Forsbyn","lat":59.896189,"lon":15.576534},{"id":"46907","name":"Klockarbo","lat":59.902537,"lon":15.553404},{"id":"46908","name":"Nedre Borgfors","lat":59.909067,"lon":15.520219},{"id":"46938","name":"Hedbyn","lat":59.985331,"lon":15.426502},{"id":"47027","name":"Sjölidsvägen","lat":60.046162,"lon":15.512179},{"id":"47056","name":"Stallbacken skolbusshållplats","lat":60.075908,"lon":14.983147},{"id":"47098","name":"Parkskolan Grängesberg","lat":60.076761,"lon":15.021531},{"id":"47124","name":"Larssveden vsk","lat":60.086407,"lon":15.53658},{"id":"47164","name":"Kuskbacken Grängesberg","lat":60.080034,"lon":14.982631},{"id":"47178","name":"Vad station","lat":60.032323,"lon":15.642931},{"id":"47179","name":"Söderbärke station","lat":60.071321,"lon":15.537763},{"id":"47245","name":"Parkbacken Björkås","lat":60.096257,"lon":15.015514},{"id":"47337","name":"Bäckängsvägen","lat":60.043497,"lon":15.504612},{"id":"47338","name":"Ormnäset","lat":60.044339,"lon":15.507637},{"id":"47720","name":"Björsjö bystugan","lat":60.034733,"lon":15.337167},{"id":"47723","name":"Söderbärkeparken","lat":60.071709,"lon":15.557049},{"id":"47769","name":"Vad skola","lat":60.030107,"lon":15.643408},{"id":"47770","name":"Perhindersbo rv 66","lat":60.09344,"lon":15.526135},{"id":"47771","name":"Kyrkskolan Söderbärke","lat":60.072828,"lon":15.565141},{"id":"47784","name":"Nyforsvägen Björsjö","lat":60.032904,"lon":15.330035},{"id":"47790","name":"Kolarvägen Vinarn","lat":60.099407,"lon":15.256492},{"id":"47808","name":"Laritstorp","lat":60.089028,"lon":15.014986},{"id":"47829","name":"Bergslagsbyn","lat":60.09799,"lon":15.003789},{"id":"47830","name":"Apoteket Grängesberg","lat":60.075534,"lon":15.008573},{"id":"47844","name":"Fallbyn","lat":60.015795,"lon":15.639247},{"id":"47845","name":"Viksberg södra","lat":59.988261,"lon":15.673889},{"id":"47846","name":"Viksberg norra","lat":59.99972,"lon":15.663019},{"id":"47852","name":"Bergslagsbyn övre","lat":60.095089,"lon":15.00057},{"id":"47853","name":"Gamla Gruvkontoret","lat":60.081222,"lon":14.990362},{"id":"47858","name":"Bergsmansvägen","lat":60.088772,"lon":14.996465},{"id":"47900","name":"Malingsbo Nyhammar","lat":59.906594,"lon":15.465341},{"id":"47901","name":"Viksberg","lat":59.994466,"lon":15.668346},{"id":"47902","name":"Södra Larssveden","lat":60.088187,"lon":15.538039},{"id":"47903","name":"Norra Larssveden","lat":60.092141,"lon":15.536102},{"id":"47921","name":"Gladmans väg","lat":60.075247,"lon":15.250787},{"id":"47951","name":"Sandudden","lat":60.061988,"lon":15.0068},{"id":"47954","name":"Jankviken","lat":60.050466,"lon":15.039243},{"id":"47955","name":"Södra Hörksvägen","lat":60.049594,"lon":15.031151},{"id":"47957","name":"Hagsandsvägen","lat":60.056069,"lon":15.021179},{"id":"47958","name":"Talludden","lat":60.058817,"lon":15.01535},{"id":"47973","name":"Hörks hage","lat":60.053277,"lon":15.028695},{"id":"47977","name":"Öraberget","lat":60.072034,"lon":15.01762},{"id":"47978","name":"Gullregnsvägen","lat":60.074993,"lon":15.014083},{"id":"47979","name":"Flexområde Östra Grängesberg","lat":60.050466,"lon":15.039243},{"id":"47982","name":"Flexområde Västra Grängesberg","lat":60.084075,"lon":14.900507},{"id":"48077","name":"Finnbacken","lat":60.08091,"lon":15.270202},{"id":"48079","name":"Norsvägen","lat":60.078047,"lon":15.583156},{"id":"48080","name":"Norsäng","lat":60.080796,"lon":15.613013},{"id":"48081","name":"Ösängsvägen","lat":60.077486,"lon":15.580537},{"id":"48445","name":"Kolarbyn","lat":60.015844,"lon":15.781267},{"id":"48449","name":"Prostgårdsvägen","lat":60.078468,"lon":15.543256},{"id":"58585","name":"Vingåker järnvägsstation","lat":59.041832,"lon":15.873781},{"id":"58594","name":"Götslinge","lat":59.06974,"lon":15.891252},{"id":"58812","name":"Kristinehamn, Vålön (båtbuss)","lat":59.268163,"lon":14.044383},{"id":"58881","name":"Ringvägen Övre","lat":60.001997,"lon":15.813054},{"id":"58882","name":"Ringvägen Nedre","lat":60.000633,"lon":15.812982},{"id":"59156","name":"Bredsjö","lat":59.832034,"lon":14.726918},{"id":"59165","name":"Fagersta Norra","lat":60.008642,"lon":15.775345},{"id":"59167","name":"Grythyttan","lat":59.703842,"lon":14.530485},{"id":"59189","name":"Nykroppa","lat":59.62248,"lon":14.308436},{"id":"59200","name":"Sikfors","lat":59.80701,"lon":14.58374},{"id":"59562","name":"Lastarevägen","lat":60.079571,"lon":14.98178},{"id":"59869","name":"Oxhagsvägen","lat":58.701951,"lon":15.773108},{"id":"59870","name":"Fäskogsvägen","lat":58.703314,"lon":15.768363},{"id":"59871","name":"Enbärsstigen","lat":58.701661,"lon":15.765053},{"id":"59872","name":"Fridhemsvägen","lat":58.701151,"lon":15.745941},{"id":"60055","name":"Kristinehamn, Kalvön (båtbuss)","lat":59.252308,"lon":14.018151},{"id":"62991","name":"Bärkevallen Söderbärke (Bärkevallen Söderbärke) (S","lat":60.064511,"lon":15.566961},{"id":"67445","name":"Dalen, Lesjöfors","lat":59.906856,"lon":14.250349},{"id":"67640","name":"Björkebacken, Storfors","lat":59.43181,"lon":14.341945},{"id":"67641","name":"Bäckhammar centrum, Kristinehamn","lat":59.160285,"lon":14.18802},{"id":"67737","name":"Vreten Söderbärke","lat":60.079538,"lon":15.600463},{"id":"67738","name":"Skogsbyn Östra","lat":60.026309,"lon":15.716872},{"id":"67745","name":"Rättarevägen","lat":60.080085,"lon":14.97927},{"id":"67983","name":"Pirvägen","lat":58.933015,"lon":14.032583},{"id":"68023","name":"Kammarstugan","lat":59.064363,"lon":15.810777},{"id":"68601","name":"Nedre Tunkarlsbo","lat":60.02135,"lon":15.63201},{"id":"68605","name":"Hagvägen, Sonstorp","lat":58.724426,"lon":15.632824},{"id":"68606","name":"Hammarn","lat":58.78688,"lon":15.497583},{"id":"68770","name":"Gravudden","lat":59.403452,"lon":15.931152},{"id":"68771","name":"Hjälmare docka","lat":59.3809,"lon":15.943173},{"id":"68772","name":"Notholmen","lat":59.3809,"lon":15.943173},{"id":"68991","name":"Storå","lat":59.713368,"lon":15.143318},{"id":"69268","name":"V Nåberga","lat":59.444662,"lon":15.978984},{"id":"69786","name":"Stadsparken, Kristinehamn","lat":59.311558,"lon":14.101847},{"id":"69787","name":"Brogymnasiet, Kristinehamn","lat":59.312217,"lon":14.111754},{"id":"69788","name":"Karlaplan, Kristinehamn","lat":59.313161,"lon":14.120839},{"id":"69789","name":"Södra Sörkastet, Kristinehamn","lat":59.293972,"lon":14.063392},{"id":"69790","name":"Djurgårdsplatån, Kristinehamn","lat":59.298304,"lon":14.095541},{"id":"69835","name":"Gimgöl Gluggen","lat":59.167055,"lon":15.983124},{"id":"69839","name":"Hörken, affären","lat":60.022788,"lon":14.938161},{"id":"69855","name":"Gårdsjögatan","lat":58.884114,"lon":14.906926},{"id":"69856","name":"Rådmansgatan","lat":58.885602,"lon":14.910538},{"id":"69857","name":"Närlundavägen","lat":58.888579,"lon":14.919791},{"id":"69858","name":"Högalund","lat":58.899581,"lon":14.942931},{"id":"69859","name":"Ingelsby","lat":58.9158,"lon":14.978195},{"id":"69860","name":"Kilsborg","lat":58.930163,"lon":15.000009},{"id":"69861","name":"Skyllbergsvallen","lat":58.941425,"lon":15.010012},{"id":"69862","name":"Lerbäcksvägen","lat":58.952711,"lon":15.044659},{"id":"69863","name":"Lerbäcks prästgård","lat":58.96258,"lon":15.045084},{"id":"69864","name":"Klockarhyttevägen","lat":58.970132,"lon":15.049195},{"id":"69865","name":"Toskekärr","lat":58.975147,"lon":15.049424},{"id":"69866","name":"Björkallén","lat":58.981846,"lon":15.049824},{"id":"69867","name":"Åsbrohammar","lat":58.989643,"lon":15.05288},{"id":"69868","name":"Kassmyravägen","lat":59.016242,"lon":15.037389},{"id":"69869","name":"Åsbro missionshus","lat":58.997274,"lon":15.050634},{"id":"69870","name":"Barrvägen","lat":59.001008,"lon":15.045837},{"id":"69871","name":"Åmmebergsvägen","lat":58.889396,"lon":14.931044},{"id":"69872","name":"Fågelvik","lat":58.88601,"lon":14.933471},{"id":"69873","name":"Djupviken","lat":58.883965,"lon":14.941656},{"id":"69874","name":"Edövägen","lat":58.882303,"lon":14.952405},{"id":"69875","name":"Gransjötorp","lat":58.887163,"lon":14.972732},{"id":"69876","name":"Stora Gruvfallet","lat":58.88582,"lon":14.988026},{"id":"69877","name":"Åmme","lat":58.885411,"lon":15.001588},{"id":"69878","name":"Mofallavägen","lat":58.879757,"lon":15.005525},{"id":"69879","name":"Oxkärrsvägen","lat":58.87729,"lon":15.005027},{"id":"69881","name":"Åmmebergs skola","lat":58.869687,"lon":15.002421},{"id":"69882","name":"Kiosken Åmmeberg","lat":58.865444,"lon":14.999348},{"id":"69883","name":"Kärravägen","lat":58.86358,"lon":15.003377},{"id":"69884","name":"Ekvägen","lat":58.862062,"lon":15.009772},{"id":"69885","name":"Blommedal","lat":58.856779,"lon":15.028997},{"id":"69886","name":"Västerbystugan","lat":58.854381,"lon":15.040227},{"id":"69887","name":"Västerby","lat":58.848892,"lon":15.047165},{"id":"69889","name":"Dalbytorp","lat":58.831741,"lon":15.057236},{"id":"69890","name":"Dalby","lat":58.829464,"lon":15.063215},{"id":"69891","name":"Gärdshyttevägen","lat":58.829583,"lon":15.073099},{"id":"69892","name":"Finnafallet","lat":58.828374,"lon":15.076743},{"id":"69894","name":"Hultafallsvägen","lat":58.81865,"lon":15.091079},{"id":"69895","name":"Godegårdsvägen","lat":58.816203,"lon":15.103063},{"id":"69896","name":"Kiosken Zinkgruvan","lat":58.815437,"lon":15.105856},{"id":"69897","name":"Kapellvägen Zinkgruv","lat":58.814769,"lon":15.109435},{"id":"69898","name":"Fältvägen","lat":58.816424,"lon":15.111617},{"id":"69899","name":"Strömslund","lat":58.821493,"lon":15.120266},{"id":"69900","name":"Södra Isåsen","lat":58.826047,"lon":15.123266},{"id":"69901","name":"Isåsen","lat":58.830109,"lon":15.123939},{"id":"69902","name":"Norra Isåsen","lat":58.83589,"lon":15.12999},{"id":"69903","name":"Lindåsen","lat":58.839954,"lon":15.133669},{"id":"69904","name":"Trehörningen","lat":58.845127,"lon":15.14708},{"id":"69905","name":"Mariedamm","lat":58.853004,"lon":15.163017},{"id":"69906","name":"Björnfallsvägen","lat":58.854006,"lon":15.167624},{"id":"69915","name":"Hammars skola","lat":58.809219,"lon":14.957602},{"id":"69919","name":"Fridhemsvägen, Sänna","lat":58.796019,"lon":14.973786},{"id":"69926","name":"Sörängen","lat":58.742956,"lon":14.982826},{"id":"69932","name":"Limhagen","lat":58.719861,"lon":14.976537},{"id":"69937","name":"Rudfallet","lat":58.845875,"lon":14.896909},{"id":"69938","name":"Grönlid","lat":58.840846,"lon":14.892901},{"id":"69939","name":"Fallamodal","lat":58.834662,"lon":14.894432},{"id":"69940","name":"Axsjö","lat":58.829034,"lon":14.88826},{"id":"69941","name":"Åviken","lat":58.820794,"lon":14.884687},{"id":"69942","name":"Stensäng","lat":58.812594,"lon":14.863099},{"id":"69944","name":"Uvaberget","lat":58.803803,"lon":14.850604},{"id":"69945","name":"Karstorp","lat":58.799377,"lon":14.844654},{"id":"69946","name":"Torsäng","lat":58.791783,"lon":14.83881},{"id":"69947","name":"Nynäs","lat":58.786225,"lon":14.824473},{"id":"69948","name":"Stubbetorp","lat":58.786397,"lon":14.817586},{"id":"69949","name":"Kullen","lat":58.779076,"lon":14.799606},{"id":"69950","name":"Aspa bruk","lat":58.776943,"lon":14.797852},{"id":"69952","name":"Heidenstamsvägen","lat":58.75848,"lon":14.797264},{"id":"69953","name":"Bocksmovägen Olsham","lat":58.756391,"lon":14.797584},{"id":"69955","name":"Ängatorp Olshammar","lat":58.748981,"lon":14.79037},{"id":"69956","name":"Brandsjöhult","lat":58.758986,"lon":14.79305},{"id":"69958","name":"Vackra vägen","lat":58.985047,"lon":14.621625},{"id":"69959","name":"Postgatan","lat":58.986182,"lon":14.619081},{"id":"69960","name":"Saltängsskolan","lat":58.982209,"lon":14.613722},{"id":"69961","name":"Laxå E20","lat":58.983198,"lon":14.62908},{"id":"69962","name":"von Boijgatan","lat":58.980351,"lon":14.624534},{"id":"69963","name":"Laxå Sjukhem","lat":58.979286,"lon":14.633769},{"id":"69964","name":"Jungfrustigen","lat":58.976164,"lon":14.638031},{"id":"69965","name":"Rättarstigen","lat":58.976355,"lon":14.642215},{"id":"69966","name":"Aulins väg","lat":58.971367,"lon":14.644661},{"id":"69967","name":"Skogskyrkogården","lat":58.968145,"lon":14.643727},{"id":"69968","name":"Nyhammaren","lat":58.967325,"lon":14.638435},{"id":"69969","name":"Fördärvet","lat":58.960366,"lon":14.62845},{"id":"69970","name":"Röfors Bruket","lat":58.946138,"lon":14.61978},{"id":"69971","name":"Blästervägen","lat":58.943114,"lon":14.61997},{"id":"69972","name":"Röfors","lat":58.940677,"lon":14.620488},{"id":"69973","name":"Nyttorp","lat":58.938165,"lon":14.628616},{"id":"69974","name":"Lars Lindahls väg","lat":58.978953,"lon":14.606253},{"id":"69975","name":"Klockartorp","lat":58.977772,"lon":14.592252},{"id":"69976","name":"Bodane","lat":58.97339,"lon":14.546069},{"id":"69977","name":"Backgården","lat":58.965718,"lon":14.535971},{"id":"69978","name":"Hallebäck","lat":58.958327,"lon":14.51895},{"id":"69979","name":"Gatan","lat":58.949544,"lon":14.481382},{"id":"69980","name":"Vargstigen","lat":58.934525,"lon":14.43245},{"id":"69981","name":"Parken","lat":58.930173,"lon":14.439439},{"id":"69982","name":"Skagersholmsvägen","lat":58.926528,"lon":14.439436},{"id":"69983","name":"Mobäcksv Finnerödja","lat":58.923268,"lon":14.440276},{"id":"69984","name":"Ljunggatan","lat":58.921276,"lon":14.437785},{"id":"69985","name":"Dalgatan södra","lat":58.923502,"lon":14.435597},{"id":"69986","name":"Dalgatan norra","lat":58.925922,"lon":14.436968},{"id":"69987","name":"Mårthagen","lat":59.039971,"lon":14.696368},{"id":"69989","name":"Bodavägen","lat":59.057521,"lon":14.694077},{"id":"69990","name":"Brostugan","lat":59.079564,"lon":14.681975},{"id":"69992","name":"Backaskogen","lat":59.081764,"lon":14.657363},{"id":"69993","name":"Bäcklundavägen","lat":59.081551,"lon":14.654596},{"id":"69994","name":"Fridhemsgatan","lat":59.084261,"lon":14.653494},{"id":"69995","name":"Torget Hasselfors","lat":59.085244,"lon":14.651961},{"id":"69996","name":"Hasselfors skola","lat":59.087331,"lon":14.652466},{"id":"69997","name":"Ede","lat":59.091649,"lon":14.654415},{"id":"69998","name":"Kvarnen Hasselfors","lat":59.097859,"lon":14.648082},{"id":"70000","name":"Oxhult","lat":59.000491,"lon":14.607156},{"id":"70002","name":"Forsnäs","lat":59.015232,"lon":14.594597},{"id":"70003","name":"Porlavägen","lat":59.022817,"lon":14.591118},{"id":"70004","name":"Bäckedalen","lat":59.026942,"lon":14.578608},