[{"id":"8","name":"Skövde Centralstation","lat":58.390912,"lon":13.852688},{"id":"9","name":"Linköping Centralstation","lat":58.417119,"lon":15.624071},{"id":"10","name":"Storebro","lat":57.584018,"lon":15.852202},{"id":"15","name":"Boxholms station","lat":58.194477,"lon":15.055168},{"id":"35","name":"Axvall centrum","lat":58.388534,"lon":13.574716},{"id":"36","name":"Floby station","lat":58.139094,"lon":13.335047},{"id":"40","name":"Herrljunga station","lat":58.078747,"lon":13.020134},{"id":"60","name":"Falköping resecentrum","lat":58.175968,"lon":13.553595},{"id":"84","name":"Eksjö Resecentrum","lat":57.664107,"lon":14.976456},{"id":"89","name":"Hestra station","lat":57.443141,"lon":13.595897},{"id":"94","name":"Ulricehamn busstation","lat":57.793763,"lon":13.411668},{"id":"100","name":"Limmared station","lat":57.535958,"lon":13.353539},{"id":"109","name":"Fristad station","lat":57.827087,"lon":13.008897},{"id":"112","name":"Gnosjö station","lat":57.35807,"lon":13.735733},{"id":"117","name":"Lenhovda, Skola","lat":57.000171,"lon":15.284163},{"id":"124","name":"Industrigatan, Norrhult","lat":57.124243,"lon":15.168762},{"id":"131","name":"Gullebovägen, Rottne","lat":57.021331,"lon":14.893026},{"id":"143","name":"Borgstena station","lat":57.883204,"lon":13.015123},{"id":"148","name":"Lidköpings resecentrum","lat":58.504478,"lon":13.1642},{"id":"172","name":"Motala Central","lat":58.537411,"lon":15.047813},{"id":"177","name":"Mölltorp centrum","lat":58.493495,"lon":14.415147},{"id":"178","name":"Stöpenskolan","lat":58.475322,"lon":13.865148},{"id":"180","name":"Mjölby resecentrum","lat":58.322435,"lon":15.132219},{"id":"215","name":"Mullsjö Resecentrum","lat":57.914905,"lon":13.882207},{"id":"227","name":"Skeppshult station","lat":57.126463,"lon":13.360255},{"id":"231","name":"Habo station","lat":57.906613,"lon":14.076783},{"id":"245","name":"Ljung station","lat":57.986749,"lon":13.053379},{"id":"252","name":"Hok station","lat":57.513999,"lon":14.27554},{"id":"256","name":"Karlsborg busstation","lat":58.530706,"lon":14.509632},{"id":"311","name":"Malmbäck station","lat":57.577883,"lon":14.459888},{"id":"344","name":"Kisa resecentrum","lat":57.985606,"lon":15.633502},{"id":"348","name":"Hultsfred Resecentrum","lat":57.486551,"lon":15.845828},{"id":"351","name":"Vimmerby Resecentrum","lat":57.663999,"lon":15.856676},{"id":"362","name":"Åseda terminal","lat":57.168184,"lon":15.348412},{"id":"365","name":"Rimforsa station","lat":58.135932,"lon":15.681358},{"id":"373","name":"Tibro busstation","lat":58.425286,"lon":14.160836},{"id":"405","name":"Mariannelund station","lat":57.61611,"lon":15.584677},{"id":"430","name":"Bjärka-Säby","lat":58.270633,"lon":15.752824},{"id":"478","name":"Källby station","lat":58.510806,"lon":13.302215},{"id":"487","name":"Målilla","lat":57.389705,"lon":15.824829},{"id":"502","name":"Svenljunga bussterminal","lat":57.495249,"lon":13.108704},{"id":"509","name":"Södra Vi","lat":57.740248,"lon":15.792901},{"id":"512","name":"Götene busstation","lat":58.527416,"lon":13.49141},{"id":"516","name":"Borensbergs bussterminal","lat":58.562699,"lon":15.276472},{"id":"518","name":"Anderstorp station","lat":57.280394,"lon":13.627274},{"id":"523","name":"Tranemo bussterminal","lat":57.485126,"lon":13.351557},{"id":"524","name":"Korsberga centrum","lat":57.301197,"lon":15.125193},{"id":"531","name":"Blidsberg","lat":57.93081,"lon":13.494382},{"id":"543","name":"Gullringen station","lat":57.802753,"lon":15.704056},{"id":"545","name":"Skänninge station","lat":58.392974,"lon":15.092024},{"id":"546","name":"Mollaryd","lat":57.908869,"lon":13.019481},{"id":"552","name":"Torpåkra station","lat":57.940884,"lon":13.029526},{"id":"578","name":"Norra Unnaryd väg 26","lat":57.601486,"lon":13.74704},{"id":"586","name":"Bestorp","lat":58.23577,"lon":15.731784},{"id":"587","name":"Brokinds station","lat":58.220078,"lon":15.683053},{"id":"600","name":"Tidaholm busstation","lat":58.179524,"lon":13.955818},{"id":"606","name":"Ödeshög Torget","lat":58.228325,"lon":14.652837},{"id":"607","name":"Gränna hamn","lat":58.028997,"lon":14.456631},{"id":"608","name":"Hjo busstation","lat":58.305226,"lon":14.293486},{"id":"609","name":"Vrigstad busstation","lat":57.356523,"lon":14.465944},{"id":"611","name":"Skara busstation","lat":58.383243,"lon":13.439059},{"id":"616","name":"Mantorps station","lat":58.34821,"lon":15.28809},{"id":"624","name":"Gislaved busstation","lat":57.304963,"lon":13.543007},{"id":"628","name":"Vadstena station","lat":58.443947,"lon":14.881836},{"id":"697","name":"Gällstad","lat":57.667488,"lon":13.432868},{"id":"819","name":"Sommarland","lat":58.401419,"lon":13.550239},{"id":"829","name":"Tidan","lat":58.573144,"lon":14.004735},{"id":"832","name":"Kinnarp","lat":58.074432,"lon":13.520775},{"id":"845","name":"Horns torg","lat":57.900253,"lon":15.838355},{"id":"849","name":"Linghems station","lat":58.436414,"lon":15.786557},{"id":"850","name":"Ljungsbro busstation","lat":58.508604,"lon":15.501831},{"id":"862","name":"Sommen station","lat":58.139088,"lon":14.967236},{"id":"864","name":"Sturefors","lat":58.332542,"lon":15.731734},{"id":"868","name":"Vikingstad station","lat":58.383639,"lon":15.432992},{"id":"869","name":"Vreta klosters kyrka","lat":58.481743,"lon":15.521605},{"id":"871","name":"Österbymo busstation","lat":57.823429,"lon":15.277416},{"id":"924","name":"Stenstorp station","lat":58.273992,"lon":13.715212},{"id":"930","name":"Lyckeby","lat":57.067939,"lon":15.150514},{"id":"933","name":"Virserum Nya torget","lat":57.315029,"lon":15.585064},{"id":"964","name":"Bruzaholm station","lat":57.641892,"lon":15.275152},{"id":"966","name":"Hillerstorp station","lat":57.313928,"lon":13.882992},{"id":"967","name":"Hjältevad station","lat":57.629067,"lon":15.342795},{"id":"977","name":"Bankeryd station","lat":57.860275,"lon":14.127699},{"id":"985","name":"Dalsjöfors folkets park","lat":57.717482,"lon":13.118716},{"id":"996","name":"Länghem","lat":57.602409,"lon":13.244313},{"id":"1005","name":"Visingsö hamn","lat":58.032144,"lon":14.351459},{"id":"1009","name":"Alvastra vägkors","lat":58.301222,"lon":14.67066},{"id":"1013","name":"Astrid Lindgrens värld","lat":57.674031,"lon":15.840568},{"id":"1018","name":"Bergs slussar","lat":58.484767,"lon":15.52506},{"id":"1019","name":"Björkhult","lat":57.848536,"lon":15.664325},{"id":"1022","name":"Blomberg station","lat":58.54018,"lon":13.32057},{"id":"1025","name":"Borghamn Värdshuset","lat":58.384655,"lon":14.696564},{"id":"1027","name":"Bottnaryds skola","lat":57.773023,"lon":13.825482},{"id":"1028","name":"Brandstorp","lat":58.096768,"lon":14.205233},{"id":"1030","name":"Bratteborg station","lat":57.57791,"lon":14.12531},{"id":"1033","name":"Byarum station","lat":57.53628,"lon":14.14397},{"id":"1043","name":"Ekeryd station","lat":57.60885,"lon":14.10635},{"id":"1047","name":"Fegen","lat":57.105666,"lon":13.037678},{"id":"1048","name":"Filsbäck station","lat":58.493179,"lon":13.247252},{"id":"1050","name":"Fornåsa","lat":58.478283,"lon":15.229099},{"id":"1054","name":"Framnäs city","lat":58.508274,"lon":13.147076},{"id":"1056","name":"Fredriksdal","lat":57.615875,"lon":14.594447},{"id":"1074","name":"Gärdala","lat":58.176414,"lon":15.714821},{"id":"1086","name":"Hörle","lat":57.259104,"lon":14.054289},{"id":"1093","name":"Järnforsen station","lat":57.407824,"lon":15.620125},{"id":"1133","name":"Jung Preem","lat":58.329684,"lon":13.132488},{"id":"1139","name":"Kaxholmen centrum","lat":57.851887,"lon":14.305443},{"id":"1141","name":"Korpklev","lat":57.931444,"lon":15.62001},{"id":"1145","name":"Kvillsfors station","lat":57.403954,"lon":15.496793},{"id":"1146","name":"Kvänum busstation","lat":58.299781,"lon":13.18705},{"id":"1183","name":"Värsås","lat":58.353882,"lon":14.049325},{"id":"1222","name":"Landsbro busstation","lat":57.369477,"lon":14.900365},{"id":"1225","name":"Lekeryds centrum","lat":57.773913,"lon":14.418835},{"id":"1233","name":"Lovene station","lat":58.440878,"lon":13.047668},{"id":"1244","name":"Milletorp","lat":57.238651,"lon":15.18468},{"id":"1250","name":"Myresjö busstation","lat":57.382403,"lon":14.960268},{"id":"1252","name":"Målsryd centrum","lat":57.682568,"lon":13.052793},{"id":"1263","name":"Opphem","lat":58.146823,"lon":15.726663},{"id":"1269","name":"Ramkvilla","lat":57.204085,"lon":14.952917},{"id":"1286","name":"Rörvik Västra Torggatan","lat":57.238192,"lon":14.573764},{"id":"1336","name":"Tannefors station","lat":58.400421,"lon":15.660226},{"id":"1343","name":"Tjunnaryd station","lat":57.50464,"lon":14.97491},{"id":"1352","name":"Trolmen station","lat":58.594883,"lon":13.348027},{"id":"1358","name":"Tånnö kyrka","lat":57.091403,"lon":14.044571},{"id":"1372","name":"Verveln","lat":57.894182,"lon":15.609433},{"id":"1440","name":"Ardala","lat":58.36036,"lon":13.338162},{"id":"1447","name":"Tingvallen","lat":57.900995,"lon":13.469694},{"id":"1449","name":"Ekedalen","lat":58.196644,"lon":13.842199},{"id":"1452","name":"Fagersanna","lat":58.468398,"lon":14.298307},{"id":"1462","name":"Grebo affär","lat":58.30107,"lon":15.864639},{"id":"1472","name":"Hästholmen","lat":58.27869,"lon":14.641211},{"id":"1474","name":"Igelstorp väg 49","lat":58.401166,"lon":13.976273},{"id":"1504","name":"Timmele","lat":57.860698,"lon":13.430244},{"id":"1505","name":"Timmersdala","lat":58.528678,"lon":13.759578},{"id":"1506","name":"Trädet","lat":57.985636,"lon":13.53511},{"id":"1517","name":"Väderstad kyrka","lat":58.313274,"lon":14.924949},{"id":"1538","name":"Rimforsa brygga","lat":58.140892,"lon":15.6932},{"id":"1577","name":"Kristinebergsbadet","lat":57.51225,"lon":15.8825},{"id":"15200","name":"Ramfall","lat":57.946757,"lon":15.135598},{"id":"15201","name":"Hestra","lat":57.95734,"lon":15.068645},{"id":"15202","name":"Sandbäckstorp","lat":57.847782,"lon":15.254746},{"id":"15203","name":"Hjälmseryd","lat":57.871321,"lon":15.233743},{"id":"15204","name":"Solvarp","lat":57.887841,"lon":15.215914},{"id":"15205","name":"Solåkra","lat":57.897562,"lon":15.205586},{"id":"15206","name":"Salvarp","lat":57.916863,"lon":15.191766},{"id":"15207","name":"Betania","lat":57.950921,"lon":15.131957},{"id":"15208","name":"Bubbetorp","lat":57.954114,"lon":15.129448},{"id":"15209","name":"Gullfallet","lat":57.955689,"lon":15.120246},{"id":"15210","name":"Harstigen","lat":57.956753,"lon":15.074367},{"id":"15211","name":"Österby gästgivaregård","lat":57.824407,"lon":15.262222},{"id":"15212","name":"Forsnäs","lat":57.813502,"lon":15.218997},{"id":"15213","name":"Ingeltorpsvägen","lat":57.801709,"lon":15.177075},{"id":"15214","name":"Rydbogatan","lat":57.799663,"lon":15.152355},{"id":"15215","name":"Viskarpsvägen","lat":57.799845,"lon":15.139116},{"id":"15216","name":"Bubbarp","lat":57.787019,"lon":15.108402},{"id":"15217","name":"Arvebo","lat":57.764181,"lon":15.119108},{"id":"15218","name":"Ukreda","lat":57.835139,"lon":15.269248},{"id":"15219","name":"Rydsnässkolan","lat":57.800941,"lon":15.146008},{"id":"15227","name":"Redinge","lat":58.314802,"lon":15.872339},{"id":"15228","name":"Grebo kyrka","lat":58.297306,"lon":15.867669},{"id":"15260","name":"Bleckenstad","lat":58.275599,"lon":15.096467},{"id":"15261","name":"Augumentet","lat":58.241809,"lon":15.082874},{"id":"15262","name":"Rävtomta","lat":58.21252,"lon":15.069894},{"id":"15263","name":"Söderleden","lat":58.192862,"lon":15.059929},{"id":"15264","name":"Bjursdalsvägen","lat":58.191959,"lon":15.057635},{"id":"15265","name":"Stenbocksskolan","lat":58.201779,"lon":15.051051},{"id":"15266","name":"Älvkullevägen","lat":58.195892,"lon":15.05002},{"id":"15267","name":"Grebo industriområde","lat":58.191004,"lon":15.034413},{"id":"15268","name":"Långliden","lat":58.167301,"lon":15.005379},{"id":"15269","name":"Tjädervägen","lat":58.203207,"lon":15.061787},{"id":"15270","name":"Dalgårdsgatan","lat":58.203275,"lon":15.054982},{"id":"15271","name":"Måletorpet","lat":57.755098,"lon":15.090591},{"id":"15354","name":"Rastaborg","lat":58.092294,"lon":14.533111},{"id":"15355","name":"Getingaryd","lat":58.097943,"lon":14.536844},{"id":"15356","name":"Uppgränna Södra","lat":58.052685,"lon":14.497562},{"id":"15357","name":"Ängsholm","lat":58.045706,"lon":14.493007},{"id":"15360","name":"Braheparken","lat":58.021939,"lon":14.466446},{"id":"15361","name":"Industrivägen","lat":57.981355,"lon":15.630006},{"id":"15362","name":"Vadstugan","lat":57.90309,"lon":15.705357},{"id":"15363","name":"Hägerstads kyrka","lat":58.079838,"lon":15.767874},{"id":"15364","name":"Västra Enebys vägkors","lat":58.002477,"lon":15.710388},{"id":"15365","name":"Bergdalagatan 13","lat":57.985242,"lon":15.643409},{"id":"15366","name":"Höjdvägen Horn","lat":57.903805,"lon":15.849557},{"id":"15367","name":"Affären Horn","lat":57.903379,"lon":15.834394},{"id":"15368","name":"Kullerstadsvägen","lat":57.901049,"lon":15.848542},{"id":"15369","name":"Ringvägen Horn","lat":57.8994,"lon":15.839872},{"id":"15370","name":"Malmavägen","lat":58.017553,"lon":15.648558},{"id":"15371","name":"Kisa torg","lat":57.987446,"lon":15.632749},{"id":"15372","name":"Gamla Vimmerbyvägen","lat":57.976146,"lon":15.643011},{"id":"15373","name":"Södra Rothult","lat":57.919445,"lon":15.680305},{"id":"15374","name":"Bränna","lat":57.85536,"lon":15.748289},{"id":"15375","name":"Linnäs","lat":58.141109,"lon":15.697044},{"id":"15376","name":"Efsinge","lat":58.113961,"lon":15.670831},{"id":"15377","name":"Krågedal","lat":58.110137,"lon":15.671253},{"id":"15378","name":"Svartmålen","lat":58.073728,"lon":15.653597},{"id":"15379","name":"Slätmon","lat":58.068945,"lon":15.656058},{"id":"15380","name":"Tjustad","lat":58.055047,"lon":15.664432},{"id":"15381","name":"Knäck","lat":58.040868,"lon":15.662507},{"id":"15382","name":"Nygärde","lat":58.006549,"lon":15.644276},{"id":"15383","name":"Värgårdsskolan","lat":57.988972,"lon":15.639267},{"id":"15384","name":"Schedevid","lat":58.124813,"lon":15.706597},{"id":"15385","name":"Smedjan","lat":58.072172,"lon":15.77266},{"id":"15386","name":"Fullmestad","lat":58.068285,"lon":15.777628},{"id":"15387","name":"Skälhamra","lat":58.061473,"lon":15.791813},{"id":"15388","name":"Ävjeboda vägkors","lat":58.021541,"lon":15.898737},{"id":"15396","name":"Millingetorp","lat":57.991099,"lon":15.668692},{"id":"15397","name":"Stjärneboskolan","lat":57.99328,"lon":15.638368},{"id":"15398","name":"Kap Jocke","lat":57.985131,"lon":15.655597},{"id":"15399","name":"Gölkullen","lat":57.949354,"lon":15.665002},{"id":"15400","name":"Saxtorp","lat":57.912393,"lon":15.862051},{"id":"15401","name":"Hovby","lat":58.004844,"lon":15.718246},{"id":"15402","name":"Kindagård","lat":57.989217,"lon":15.62848},{"id":"15403","name":"Linnégatan 33","lat":57.988298,"lon":15.626202},{"id":"15404","name":"Basunda","lat":58.02443,"lon":15.887558},{"id":"15405","name":"Banérgatan","lat":58.414634,"lon":15.613151},{"id":"15406","name":"Berga Söderleden","lat":58.393248,"lon":15.645533},{"id":"15407","name":"Hässlegatan","lat":58.375002,"lon":15.643104},{"id":"15408","name":"Trädgårdstorget","lat":58.409803,"lon":15.624844},{"id":"15409","name":"Barhäll","lat":58.419605,"lon":15.589167},{"id":"15410","name":"Nobymalmsvägen","lat":58.3987,"lon":15.506832},{"id":"15411","name":"Staby bro","lat":58.433125,"lon":15.683097},{"id":"15412","name":"Roxtuna","lat":58.483362,"lon":15.648139},{"id":"15413","name":"Lötgatan","lat":58.417719,"lon":15.496969},{"id":"15414","name":"Tokarps skola","lat":58.424549,"lon":15.507537},{"id":"15415","name":"Kärna kors","lat":58.414198,"lon":15.519652},{"id":"15416","name":"Kvinnebyvägen 12","lat":58.382978,"lon":15.686827},{"id":"15417","name":"Jägarvallsvägen","lat":58.395868,"lon":15.537157},{"id":"15418","name":"Sandgårdsgatan","lat":58.404219,"lon":15.645209},{"id":"15419","name":"Övre Johannelund","lat":58.392293,"lon":15.665303},{"id":"15420","name":"Herrbeta by","lat":58.461338,"lon":15.874481},{"id":"15421","name":"Bankekind skola","lat":58.37444,"lon":15.825762},{"id":"15422","name":"Skeda","lat":58.34432,"lon":15.561216},{"id":"15423","name":"Älgbosätter","lat":58.234632,"lon":15.629995},{"id":"15424","name":"Härnegatans vändplats","lat":58.500517,"lon":15.498951},{"id":"15425","name":"Södra Hult","lat":58.543614,"lon":15.674862},{"id":"15428","name":"Övre Norra Fjälla","lat":58.204942,"lon":15.624121},{"id":"15429","name":"Cloetta","lat":58.512583,"lon":15.49888},{"id":"15430","name":"Vikingstads vägkors","lat":58.376342,"lon":15.436778},{"id":"15431","name":"Ledbergs vägkors","lat":58.438552,"lon":15.453624},{"id":"15432","name":"Spärringe vägkors","lat":58.405986,"lon":15.297556},{"id":"15433","name":"Gälstad-Lundby","lat":58.341854,"lon":15.394402},{"id":"15434","name":"Gammalkils kyrka","lat":58.312044,"lon":15.396539},{"id":"15435","name":"Duseborgsvägen","lat":58.267692,"lon":15.382484},{"id":"15436","name":"Ulrika busstation","lat":58.123362,"lon":15.429796},{"id":"15437","name":"Normstorp","lat":58.332933,"lon":15.513192},{"id":"15438","name":"Haraldsbo","lat":58.227,"lon":15.47242},{"id":"15439","name":"Sturefors centrum","lat":58.336428,"lon":15.720871},{"id":"15440","name":"Rappestad skola","lat":58.400807,"lon":15.415623},{"id":"15441","name":"Fröstorpsgatan","lat":58.433486,"lon":15.601082},{"id":"15442","name":"Flistad brunn","lat":58.481215,"lon":15.428256},{"id":"15443","name":"Skeda udde riksväg 34","lat":58.287073,"lon":15.569044},{"id":"15444","name":"Arenaskolan","lat":58.416624,"lon":15.650371},{"id":"15445","name":"Östra Hargs kyrka","lat":58.487349,"lon":15.743222},{"id":"15446","name":"Infanterivägen","lat":58.396209,"lon":15.611986},{"id":"15447","name":"Rotegatan","lat":58.391488,"lon":15.625194},{"id":"15448","name":"Änggårdsskolan","lat":58.380027,"lon":15.571771},{"id":"15449","name":"Tannefors center","lat":58.409023,"lon":15.646436},{"id":"15450","name":"Ljunghagsvägen","lat":58.386666,"lon":15.705791},{"id":"15451","name":"Anders Ljungstedts gy.","lat":58.41519,"lon":15.638743},{"id":"15452","name":"Köpmansgränd","lat":58.408934,"lon":15.626525},{"id":"15453","name":"Grimstorp","lat":58.273058,"lon":15.436729},{"id":"15454","name":"Saab Norra porten","lat":58.4073,"lon":15.654005},{"id":"15455","name":"Ullstämma Brokindsleden","lat":58.36675,"lon":15.69182},{"id":"15456","name":"Runstensgatan","lat":58.420682,"lon":15.636322},{"id":"15457","name":"Åleryds sjukhem","lat":58.382352,"lon":15.662813},{"id":"15458","name":"Prästgårdsvägen Ö Skrukeby","lat":58.498523,"lon":15.816123},{"id":"15459","name":"Lillkyrka","lat":58.493221,"lon":15.897572},{"id":"15460","name":"Ekhult Ljung","lat":58.528606,"lon":15.45926},{"id":"15461","name":"Aspnäsvägen","lat":58.372841,"lon":15.686161},{"id":"15462","name":"Vreta kloster skola","lat":58.482702,"lon":15.521134},{"id":"15463","name":"Folkungavallen","lat":58.402953,"lon":15.631532},{"id":"15464","name":"Bergdalsgatan","lat":58.402346,"lon":15.633947},{"id":"15465","name":"Åleryd","lat":58.384936,"lon":15.661589},{"id":"15466","name":"Majelden","lat":58.397253,"lon":15.63888},{"id":"15467","name":"Majorsgatan","lat":58.395265,"lon":15.642737},{"id":"15468","name":"Strågatan","lat":58.373426,"lon":15.653604},{"id":"15469","name":"Blomgatan","lat":58.416902,"lon":15.594231},{"id":"15470","name":"Rusthållaregården","lat":58.421306,"lon":15.586573},{"id":"15471","name":"Ullevi","lat":58.429976,"lon":15.584773},{"id":"15472","name":"Skrivaregatan","lat":58.432608,"lon":15.570702},{"id":"15473","name":"Sörgårdsgatan","lat":58.422525,"lon":15.574843},{"id":"15474","name":"Kungsgatan","lat":58.413222,"lon":15.623663},{"id":"15475","name":"Lilla Åby östergård","lat":58.361777,"lon":15.54958},{"id":"15476","name":"Barnhemsgatan","lat":58.408878,"lon":15.612549},{"id":"15477","name":"Ödegårdsgatan 24","lat":58.396583,"lon":15.656035},{"id":"15478","name":"Plöjaregatan","lat":58.389674,"lon":15.56986},{"id":"15479","name":"Slestadsskolan","lat":58.385998,"lon":15.572483},{"id":"15480","name":"Boställsgatan","lat":58.382927,"lon":15.571854},{"id":"15481","name":"Lillgårdsgatan","lat":58.390044,"lon":15.645872},{"id":"15482","name":"Galoppgatan","lat":58.383801,"lon":15.650636},{"id":"15483","name":"Poleraregatan","lat":58.382297,"lon":15.640045},{"id":"15484","name":"Lundbyringen","lat":58.339515,"lon":15.395829},{"id":"15485","name":"Skedagatan","lat":58.412917,"lon":15.59482},{"id":"15486","name":"Solhaga","lat":58.406006,"lon":15.575224},{"id":"15487","name":"Loftgatan","lat":58.408358,"lon":15.638913},{"id":"15488","name":"Tegelbruksgatan","lat":58.406154,"lon":15.642105},{"id":"15489","name":"Kastvindsvägen","lat":58.433065,"lon":15.696484},{"id":"15490","name":"Ekholmsskolan","lat":58.377833,"lon":15.67741},{"id":"15491","name":"Vårbrisvägen","lat":58.433105,"lon":15.701054},{"id":"15492","name":"Kryddvägen","lat":58.385505,"lon":15.664903},{"id":"15493","name":"Kattfotstigen","lat":58.386228,"lon":15.668866},{"id":"15494","name":"Jakobsdal","lat":58.388778,"lon":15.677746},{"id":"15495","name":"Poppelvägen","lat":58.388547,"lon":15.655573},{"id":"15496","name":"Skogsgatan 43","lat":58.389718,"lon":15.658714},{"id":"15497","name":"Alsättersgatan","lat":58.413242,"lon":15.56072},{"id":"15498","name":"Björnkärrsskolan","lat":58.414516,"lon":15.565091},{"id":"15499","name":"Drättinge","lat":58.329408,"lon":15.402329},{"id":"15500","name":"Spångerum","lat":58.395729,"lon":15.671599},{"id":"15501","name":"Solhagen","lat":58.325322,"lon":15.404765},{"id":"15502","name":"Ekdalsvägen","lat":58.373413,"lon":15.70306},{"id":"15503","name":"Hjulsbro skola","lat":58.377373,"lon":15.716072},{"id":"15504","name":"Landeryds kyrka","lat":58.369343,"lon":15.724961},{"id":"15505","name":"Lindaliden","lat":58.379651,"lon":15.702222},{"id":"15506","name":"Brånstad","lat":58.316332,"lon":15.401097},{"id":"15507","name":"Uvebergsvägen","lat":58.387094,"lon":15.681924},{"id":"15508","name":"Danmarksgatan 6","lat":58.418052,"lon":15.605757},{"id":"15509","name":"Danmarksgatan 19","lat":58.418719,"lon":15.601527},{"id":"15510","name":"Mellangården","lat":58.423792,"lon":15.591195},{"id":"15511","name":"Nämndemansgården","lat":58.425879,"lon":15.588307},{"id":"15512","name":"Kannan","lat":58.411325,"lon":15.634724},{"id":"15513","name":"Landerydsvägen","lat":58.400047,"lon":15.689232},{"id":"15514","name":"Toborg","lat":58.314327,"lon":15.37546},{"id":"15515","name":"Pukegård","lat":58.308135,"lon":15.381625},{"id":"15516","name":"Fettjestads vägkors","lat":58.313127,"lon":15.400963},{"id":"15517","name":"Fårbacksvägen","lat":58.42338,"lon":15.518362},{"id":"15518","name":"Ljungsbroskolan","lat":58.506866,"lon":15.503561},{"id":"15519","name":"Fårullsvägen","lat":58.425556,"lon":15.515897},{"id":"15520","name":"Fårhagsvägen","lat":58.423076,"lon":15.503545},{"id":"15521","name":"Kristinebergsgatan","lat":58.401345,"lon":15.637441},{"id":"15522","name":"Kärnabrunnsgatan","lat":58.419412,"lon":15.510797},{"id":"15523","name":"Värö","lat":58.424479,"lon":15.532199},{"id":"15524","name":"Tallboda centrum","lat":58.426548,"lon":15.678276},{"id":"15525","name":"Malmsäter","lat":58.428033,"lon":15.701668},{"id":"15526","name":"Malmskogen","lat":58.428593,"lon":15.706579},{"id":"15527","name":"Karlstorp","lat":58.431111,"lon":15.72511},{"id":"15528","name":"Stora Bjursholmen","lat":58.437505,"lon":15.745126},{"id":"15529","name":"Lilla Bjursholmen","lat":58.437592,"lon":15.758205},{"id":"15530","name":"Bommedal","lat":58.436796,"lon":15.767691},{"id":"15531","name":"Östra Hargsvägen","lat":58.436179,"lon":15.776115},{"id":"15532","name":"Tulpanvägen","lat":58.434413,"lon":15.790016},{"id":"15533","name":"Vallhaga","lat":58.440537,"lon":15.805937},{"id":"15534","name":"Holmedal","lat":58.444603,"lon":15.816211},{"id":"15535","name":"Stora Bjärby","lat":58.449001,"lon":15.82582},{"id":"15536","name":"Skackelstadvägen","lat":58.454741,"lon":15.848621},{"id":"15538","name":"Linghems skola","lat":58.433398,"lon":15.786114},{"id":"15539","name":"Himnavägen","lat":58.431691,"lon":15.781459},{"id":"15540","name":"Himnaskolan","lat":58.429096,"lon":15.781632},{"id":"15541","name":"Carl Cederströms gata","lat":58.410397,"lon":15.51816},{"id":"15542","name":"Lagerlundavägen","lat":58.407614,"lon":15.514317},{"id":"15543","name":"Ullstämma by","lat":58.372709,"lon":15.678967},{"id":"15544","name":"Heidenstams gata","lat":58.419286,"lon":15.56138},{"id":"15545","name":"Leopolds gata","lat":58.415904,"lon":15.553635},{"id":"15546","name":"Orkanvägen","lat":58.427181,"lon":15.68269},{"id":"15547","name":"Fågelögatan","lat":58.418039,"lon":15.67172},{"id":"15548","name":"Masugnen","lat":58.417362,"lon":15.659847},{"id":"15549","name":"Ålerydsvägen västra","lat":58.383117,"lon":15.635066},{"id":"15550","name":"Hassel","lat":58.438789,"lon":15.714682},{"id":"15551","name":"Rystads prästgård","lat":58.4538,"lon":15.702859},{"id":"15552","name":"Kåvetorpsvägen","lat":58.458873,"lon":15.703975},{"id":"15553","name":"Östernäs","lat":58.476849,"lon":15.631046},{"id":"15554","name":"Gulltorpsvägen","lat":58.463214,"lon":15.640091},{"id":"15555","name":"Malma","lat":58.445707,"lon":15.698208},{"id":"15556","name":"Lilla Ullevi","lat":58.429754,"lon":15.586588},{"id":"15557","name":"Bökestad","lat":58.400488,"lon":15.700689},{"id":"15558","name":"Metsjövägen","lat":58.400364,"lon":15.715227},{"id":"15559","name":"Lambohov säteri","lat":58.378334,"lon":15.554878},{"id":"15560","name":"Slaka skola","lat":58.368355,"lon":15.557512},{"id":"15561","name":"Kagavägen","lat":58.451936,"lon":15.555981},{"id":"15562","name":"Brunnby gård","lat":58.486851,"lon":15.513694},{"id":"15563","name":"Vretagymnasiet","lat":58.490953,"lon":15.483105},{"id":"15564","name":"Högåsa","lat":58.507087,"lon":15.44954},{"id":"15565","name":"Ljungs östra bro","lat":58.514865,"lon":15.437931},{"id":"15566","name":"Ljungs-Säby","lat":58.528023,"lon":15.409712},{"id":"15567","name":"Sjöbacka bro","lat":58.532757,"lon":15.390844},{"id":"15568","name":"Björkåkra","lat":58.399784,"lon":15.734861},{"id":"15569","name":"Vårdsbergs kyrka","lat":58.400987,"lon":15.752098},{"id":"15570","name":"Tuttorpsvägen","lat":58.385151,"lon":15.78568},{"id":"15571","name":"Långåker","lat":58.382135,"lon":15.792434},{"id":"15572","name":"Slaka kyrka","lat":58.370868,"lon":15.556777},{"id":"15573","name":"Källtorpsvägen","lat":58.361748,"lon":15.562325},{"id":"15574","name":"Åkerstad","lat":58.33617,"lon":15.562638},{"id":"15575","name":"Byttsätter","lat":58.328129,"lon":15.568872},{"id":"15576","name":"Mutebo norrgård","lat":58.305165,"lon":15.56483},{"id":"15577","name":"Mutebo södergård","lat":58.301603,"lon":15.561614},{"id":"15578","name":"Orrbacksvägen","lat":58.288464,"lon":15.564091},{"id":"15579","name":"Rosenborg","lat":58.265872,"lon":15.587348},{"id":"15580","name":"Lökebo","lat":58.2563,"lon":15.597201},{"id":"15581","name":"Törneviks vägkors","lat":58.242163,"lon":15.610888},{"id":"15582","name":"Karlemåla","lat":58.229875,"lon":15.644826},{"id":"15583","name":"Kungsbro","lat":58.500755,"lon":15.536801},{"id":"15584","name":"Hellgrens väg","lat":58.501469,"lon":15.518272},{"id":"15585","name":"Kanalvägen","lat":58.50506,"lon":15.510352},{"id":"15586","name":"Strömsbron","lat":58.515293,"lon":15.50227},{"id":"15587","name":"Norra Malforsvägen","lat":58.516535,"lon":15.499737},{"id":"15588","name":"Vargstigen","lat":58.518767,"lon":15.49433},{"id":"15589","name":"Sundalen","lat":58.509906,"lon":15.542787},{"id":"15590","name":"Häggetorpsvägen","lat":58.545989,"lon":15.662557},{"id":"15591","name":"Bonnorp","lat":58.545511,"lon":15.669068},{"id":"15592","name":"Linneberga","lat":58.40229,"lon":15.794136},{"id":"15593","name":"Bankekindsvägen","lat":58.406299,"lon":15.843278},{"id":"15599","name":"Ingebo","lat":58.281706,"lon":15.556058},{"id":"15600","name":"Smacka","lat":58.272313,"lon":15.554795},{"id":"15601","name":"Gatekullavägen","lat":58.269552,"lon":15.552667},{"id":"15602","name":"Tobovägen","lat":58.248859,"lon":15.557703},{"id":"15603","name":"Övre Tobo","lat":58.244047,"lon":15.562708},{"id":"15604","name":"Ölsbo","lat":58.241005,"lon":15.563785},{"id":"15605","name":"Frössle","lat":58.392944,"lon":15.498673},{"id":"15606","name":"Stensvassa","lat":58.222143,"lon":15.623641},{"id":"15607","name":"Hugnebo","lat":58.213194,"lon":15.618737},{"id":"15608","name":"Nedre Norra Fjälla","lat":58.201938,"lon":15.626551},{"id":"15609","name":"Övre Södra Fjälla","lat":58.193592,"lon":15.61073},{"id":"15610","name":"Skräddarängen","lat":58.195179,"lon":15.603664},{"id":"15611","name":"Hulta","lat":58.198447,"lon":15.577288},{"id":"15612","name":"Korpbergsgatan","lat":58.515324,"lon":15.507829},{"id":"15613","name":"Tallkullegatan","lat":58.516344,"lon":15.513929},{"id":"15614","name":"Sjögestad Löten","lat":58.365399,"lon":15.376683},{"id":"15615","name":"Alorp norrgård","lat":58.372565,"lon":15.399119},{"id":"15616","name":"Tift Bäckgård","lat":58.431778,"lon":15.541112},{"id":"15617","name":"Bränninge","lat":58.448546,"lon":15.515108},{"id":"15618","name":"Svartåfors","lat":58.448274,"lon":15.494577},{"id":"15619","name":"Haverland","lat":58.4474,"lon":15.486022},{"id":"15620","name":"Kränge","lat":58.444185,"lon":15.468311},{"id":"15621","name":"Kungskvarn","lat":58.443149,"lon":15.460222},{"id":"15622","name":"Kullersbro","lat":58.45351,"lon":15.402158},{"id":"15623","name":"Hackerydsvägen","lat":58.43627,"lon":15.355516},{"id":"15624","name":"Dömestad","lat":58.412727,"lon":15.306475},{"id":"15625","name":"Västerleden","lat":58.379642,"lon":15.438538},{"id":"15626","name":"Skölstad","lat":58.367475,"lon":15.431796},{"id":"15627","name":"Lundstorp","lat":58.366382,"lon":15.426579},{"id":"15628","name":"Gustad","lat":58.364964,"lon":15.420751},{"id":"15629","name":"Gustad södergård","lat":58.363383,"lon":15.414533},{"id":"15630","name":"Gustad mellangård","lat":58.361517,"lon":15.409087},{"id":"15631","name":"Frackstad bro","lat":58.352545,"lon":15.399452},{"id":"15632","name":"Krångestad mellangård","lat":58.300722,"lon":15.382464},{"id":"15633","name":"Krångestad norrgård","lat":58.296448,"lon":15.382464},{"id":"15634","name":"Nykvarnsvägen","lat":58.281942,"lon":15.380387},{"id":"15635","name":"Våräng","lat":58.249524,"lon":15.386549},{"id":"15636","name":"Åbacka","lat":58.245496,"lon":15.38738},{"id":"15637","name":"Fläktebovägen","lat":58.228086,"lon":15.395193},{"id":"15638","name":"Tällstugan","lat":58.224982,"lon":15.395961},{"id":"15639","name":"Smedholm","lat":58.196466,"lon":15.404298},{"id":"15640","name":"Häggebo kvarn","lat":58.18676,"lon":15.401178},{"id":"15641","name":"Norrstugsvägen","lat":58.164534,"lon":15.396895},{"id":"15642","name":"Haneberg","lat":58.137021,"lon":15.415901},{"id":"15643","name":"Furulidsvägen","lat":58.12604,"lon":15.433654},{"id":"15644","name":"Lilla Aska griftegård","lat":58.366541,"lon":15.571177},{"id":"15645","name":"Lilla Åby","lat":58.363701,"lon":15.550831},{"id":"15646","name":"Hag","lat":58.35335,"lon":15.538027},{"id":"15647","name":"Syrorpsvägen","lat":58.348307,"lon":15.534906},{"id":"15648","name":"Röby allé","lat":58.347039,"lon":15.529913},{"id":"15649","name":"Röby","lat":58.342912,"lon":15.518744},{"id":"15650","name":"Länningsätter","lat":58.319872,"lon":15.498557},{"id":"15651","name":"Tunakorset","lat":58.3044,"lon":15.482778},{"id":"15652","name":"Eriksborg","lat":58.301156,"lon":15.474673},{"id":"15653","name":"Kullsäter","lat":58.293744,"lon":15.462738},{"id":"15654","name":"Hällevad","lat":58.267647,"lon":15.446941},{"id":"15655","name":"Bjärsvik","lat":58.248919,"lon":15.466731},{"id":"15656","name":"Björknäs","lat":58.247091,"lon":15.468315},{"id":"15657","name":"Wallsnäs","lat":58.233273,"lon":15.478268},{"id":"15658","name":"Harvestad","lat":58.362525,"lon":15.695695},{"id":"15659","name":"Klampenborg","lat":58.341476,"lon":15.712117},{"id":"15660","name":"Olvonvägen","lat":58.334588,"lon":15.722361},{"id":"15661","name":"Kråkbärsvägen","lat":58.329774,"lon":15.71901},{"id":"15662","name":"Bestorps by","lat":58.240149,"lon":15.738145},{"id":"15663","name":"Garnvik","lat":58.228228,"lon":15.72571},{"id":"15664","name":"Enebacken","lat":58.229642,"lon":15.696193},{"id":"15665","name":"Vårdnäs vägkors","lat":58.230804,"lon":15.690233},{"id":"15666","name":"Vinkelvägen","lat":58.216104,"lon":15.677929},{"id":"15667","name":"Folåsa","lat":58.394227,"lon":15.434026},{"id":"15668","name":"Nedre Fågelberg","lat":58.398056,"lon":15.408795},{"id":"15669","name":"Johan Bergströms väg","lat":58.401829,"lon":15.418057},{"id":"15670","name":"Hagaborg","lat":58.402948,"lon":15.422954},{"id":"15671","name":"Gunnarslund","lat":58.489036,"lon":15.450924},{"id":"15672","name":"Norra Hornstäve","lat":58.485236,"lon":15.446693},{"id":"15673","name":"Hornstäve gård","lat":58.483348,"lon":15.442495},{"id":"15674","name":"Flistad","lat":58.478437,"lon":15.412122},{"id":"15675","name":"Lerbäck","lat":58.479487,"lon":15.403283},{"id":"15676","name":"Kullagatans vägkors","lat":58.482974,"lon":15.387626},{"id":"15677","name":"Bjursby","lat":58.470275,"lon":15.704113},{"id":"15679","name":"Knylinge","lat":58.469438,"lon":15.764742},{"id":"15680","name":"Ubbetorp","lat":58.465642,"lon":15.770606},{"id":"15681","name":"Klinttorp","lat":58.44409,"lon":15.783009},{"id":"15682","name":"Skavestad","lat":58.451514,"lon":15.782507},{"id":"15683","name":"Övre Kopparhult","lat":58.210237,"lon":15.549824},{"id":"15684","name":"Mantorps gård","lat":58.400706,"lon":15.42686},{"id":"15685","name":"Ledbergs kyrka","lat":58.441086,"lon":15.447777},{"id":"15686","name":"Landeryds vårdbostäder","lat":58.376766,"lon":15.721816},{"id":"15687","name":"Lindåbro","lat":58.446487,"lon":15.436968},{"id":"15688","name":"Fogdegården","lat":58.450056,"lon":15.414563},{"id":"15689","name":"Åserum","lat":58.246649,"lon":15.511077},{"id":"15690","name":"Grimstad","lat":58.497629,"lon":15.869287},{"id":"15691","name":"Norrundavägen","lat":58.49372,"lon":15.857259},{"id":"15692","name":"Värla","lat":58.49957,"lon":15.838351},{"id":"15693","name":"Förråd säteri","lat":58.491342,"lon":15.809091},{"id":"15694","name":"Täljestad","lat":58.478018,"lon":15.817146},{"id":"15695","name":"Hallstra","lat":58.467531,"lon":15.824168},{"id":"15696","name":"Lingvallen","lat":58.416047,"lon":15.603886},{"id":"15697","name":"Bölnorp","lat":58.544284,"lon":15.64048},{"id":"15698","name":"Björkö","lat":58.517322,"lon":15.517696},{"id":"15699","name":"Engelbrektsgatan","lat":58.417606,"lon":15.619671},{"id":"15700","name":"Morgongatan","lat":58.373568,"lon":15.668181},{"id":"15701","name":"Skogsgatan 91","lat":58.391678,"lon":15.669084},{"id":"15702","name":"Skogsgatan 86","lat":58.388837,"lon":15.665915},{"id":"15703","name":"Abisko centrum","lat":58.415709,"lon":15.605924},{"id":"15704","name":"Ektunavägen","lat":58.379729,"lon":15.687761},{"id":"15705","name":"Järdalavägen 102","lat":58.37759,"lon":15.685547},{"id":"15706","name":"Järdalavägen 112","lat":58.37611,"lon":15.687073},{"id":"15707","name":"Tenndosan","lat":58.392855,"lon":15.661984},{"id":"15708","name":"Tyttorpsgatan","lat":58.425215,"lon":15.605169},{"id":"15709","name":"Arla","lat":58.423845,"lon":15.601394},{"id":"15710","name":"Tvättlappen","lat":58.424787,"lon":15.595741},{"id":"15711","name":"Roxtorpsgatan 3","lat":58.427449,"lon":15.592884},{"id":"15712","name":"Bygärdesgatan","lat":58.390305,"lon":15.561444},{"id":"15713","name":"FMV","lat":58.395212,"lon":15.50876},{"id":"15714","name":"Lunnevads folkhögskola","lat":58.355132,"lon":15.362016},{"id":"15715","name":"Danmarksgatan","lat":58.417159,"lon":15.608808},{"id":"15716","name":"Gerstorpsvägen","lat":58.427075,"lon":15.490297},{"id":"15718","name":"Fanjunkaregatan","lat":58.401835,"lon":15.604224},{"id":"15719","name":"Sidvindsvägen","lat":58.434262,"lon":15.68953},{"id":"15720","name":"Ullstämmavägen","lat":58.371764,"lon":15.686746},{"id":"15721","name":"Fornvägen","lat":58.369413,"lon":15.688103},{"id":"15722","name":"Kläppekvarn","lat":58.225352,"lon":15.709106},{"id":"15723","name":"Westmansgatan 66","lat":58.402982,"lon":15.602713},{"id":"15724","name":"Karlsberg","lat":58.279325,"lon":15.573971},{"id":"15725","name":"Sandängen","lat":58.233438,"lon":15.574032},{"id":"15726","name":"Flygvapenmuseum","lat":58.410586,"lon":15.522333},{"id":"15727","name":"Sjögestad by","lat":58.365882,"lon":15.371005},{"id":"15728","name":"Nykils skola","lat":58.287189,"lon":15.449215},{"id":"15729","name":"Skackelstad by","lat":58.455401,"lon":15.831236},{"id":"15730","name":"Priso","lat":58.418842,"lon":15.617782},{"id":"15731","name":"Fångögatan","lat":58.420579,"lon":15.679718},{"id":"15732","name":"Solkeryd","lat":58.450474,"lon":15.404574},{"id":"15733","name":"Björkö friskola","lat":58.509946,"lon":15.527484},{"id":"15734","name":"Campushallen","lat":58.393809,"lon":15.577356},{"id":"15735","name":"Tostebo","lat":58.27599,"lon":15.507169},{"id":"15736","name":"Gatekulla vägkors","lat":58.280329,"lon":15.51603},{"id":"15737","name":"MAXI","lat":58.43272,"lon":15.593879},{"id":"15738","name":"Sjöslott","lat":58.536684,"lon":15.605561},{"id":"15739","name":"Ånestadlund Västra","lat":58.386405,"lon":15.468847},{"id":"15740","name":"Mjärdevi Center","lat":58.39428,"lon":15.560493},{"id":"15741","name":"Lasarettsgatan 1","lat":58.404495,"lon":15.61767},{"id":"15742","name":"Västerlösa lillgård","lat":58.416177,"lon":15.363335},{"id":"15743","name":"Brunnstorp","lat":58.413999,"lon":15.369573},{"id":"15744","name":"Ekströmmen","lat":58.399908,"lon":15.387038},{"id":"15745","name":"Kornettvägen","lat":58.420735,"lon":15.339748},{"id":"15746","name":"Holmen, Östra Harg","lat":58.481866,"lon":15.731781},{"id":"15747","name":"Svänggatan Norra","lat":58.318349,"lon":15.1102},{"id":"15748","name":"Kungshögaskolan","lat":58.328165,"lon":15.109188},{"id":"15749","name":"Spångsholms bruk","lat":58.348937,"lon":15.227367},{"id":"15750","name":"Gottlösa","lat":58.378357,"lon":15.249276},{"id":"15751","name":"Västra Harg","lat":58.264108,"lon":15.250848},{"id":"15752","name":"Härsnäs","lat":58.28789,"lon":15.230222},{"id":"15753","name":"Önnebo","lat":58.230772,"lon":15.278484},{"id":"15754","name":"Rustorp","lat":58.166841,"lon":15.312885},{"id":"15755","name":"Axstad","lat":58.3478,"lon":15.058098},{"id":"15756","name":"Skeppsås","lat":58.453345,"lon":15.231802},{"id":"15757","name":"Hogstad","lat":58.33114,"lon":15.027213},{"id":"15758","name":"Lundbyskolan","lat":58.317493,"lon":15.114721},{"id":"15759","name":"Hallevadsgatan","lat":58.3157,"lon":15.111907},{"id":"15760","name":"Svänggatan Södra","lat":58.317229,"lon":15.10901},{"id":"15761","name":"Lundbybadet","lat":58.321727,"lon":15.120731},{"id":"15762","name":"Kyrkan","lat":58.325878,"lon":15.131266},{"id":"15763","name":"Ryttarhagsvägen","lat":58.330919,"lon":15.113589},{"id":"15764","name":"Bilgodsterminalen","lat":58.33595,"lon":15.157142},{"id":"15765","name":"Lundby industriområde","lat":58.319803,"lon":15.11024},{"id":"15766","name":"Edlundsgatan","lat":58.327889,"lon":15.145121},{"id":"15767","name":"Vifolkagatan","lat":58.3249,"lon":15.143572},{"id":"15768","name":"Finnstugatan","lat":58.324821,"lon":15.138744},{"id":"15769","name":"Boken","lat":58.325146,"lon":15.137304},{"id":"15770","name":"Sörbygatan","lat":58.321518,"lon":15.118414},{"id":"15771","name":"Folkungaplan","lat":58.322624,"lon":15.115457},{"id":"15772","name":"Kungshögahemmet","lat":58.326963,"lon":15.120868},{"id":"15773","name":"Lycketorp","lat":58.349488,"lon":15.127468},{"id":"15774","name":"Geologivägen","lat":58.346718,"lon":15.128205},{"id":"15775","name":"Glaciärvägen","lat":58.343534,"lon":15.128829},{"id":"15776","name":"Slomarps gård","lat":58.340757,"lon":15.133441},{"id":"15777","name":"Ljungkullevägen","lat":58.319532,"lon":15.138468},{"id":"15778","name":"Grusgatan","lat":58.321436,"lon":15.138569},{"id":"15779","name":"Mantorp köpcenter","lat":58.365927,"lon":15.293434},{"id":"15780","name":"Runvägen","lat":58.364131,"lon":15.295493},{"id":"15781","name":"Möllersbrunn","lat":58.359666,"lon":15.288161},{"id":"15782","name":"Vifolkagården","lat":58.356884,"lon":15.28827},{"id":"15783","name":"Trumpetarevägen","lat":58.348208,"lon":15.276528},{"id":"15784","name":"Tranbärsstigen","lat":58.348893,"lon":15.258023},{"id":"15785","name":"Veta skola","lat":58.354525,"lon":15.248268},{"id":"15786","name":"Björnlund","lat":58.353543,"lon":15.237403},{"id":"15787","name":"Svås","lat":58.347642,"lon":15.232785},{"id":"15788","name":"Gula huset","lat":58.341127,"lon":15.231439},{"id":"15789","name":"Öjebro","lat":58.378098,"lon":15.196347},{"id":"15790","name":"S:t Martins väg","lat":58.396392,"lon":15.078821},{"id":"15791","name":"Marstadvägen","lat":58.400435,"lon":15.06509},{"id":"15792","name":"Fågelstavägen","lat":58.422257,"lon":15.036959},{"id":"15793","name":"Helgslätt","lat":58.269507,"lon":15.251684},{"id":"15794","name":"Mo","lat":58.281046,"lon":15.235635},{"id":"15795","name":"Stallsberg","lat":58.297271,"lon":15.230002},{"id":"15796","name":"Lunnarp","lat":58.311454,"lon":15.225574},{"id":"15797","name":"Kulladal","lat":58.254286,"lon":15.267659},{"id":"15798","name":"Stora Haddebo","lat":58.199912,"lon":15.284689},{"id":"15799","name":"Hulu","lat":58.178467,"lon":15.303495},{"id":"15800","name":"Lilla Harstad","lat":58.322581,"lon":14.919206},{"id":"15801","name":"Vammelby","lat":58.33285,"lon":15.062511},{"id":"15802","name":"Långvägen","lat":58.329165,"lon":15.022835},{"id":"15803","name":"Rinnavägen","lat":58.326275,"lon":15.011311},{"id":"15804","name":"Blackstad","lat":58.321855,"lon":14.983935},{"id":"15805","name":"Vallsberg","lat":58.313855,"lon":14.929729},{"id":"15806","name":"Östad","lat":58.311586,"lon":14.905628},{"id":"15807","name":"Vallaslätten","lat":58.358255,"lon":14.989854},{"id":"15808","name":"Ladusätters vägkors","lat":58.283851,"lon":15.331118},{"id":"15809","name":"Prästgårdsgärdet","lat":58.33063,"lon":15.131858},{"id":"15810","name":"Prästgårdsliden","lat":58.331504,"lon":15.134129},{"id":"15811","name":"Folkungagatan","lat":58.325309,"lon":15.118835},{"id":"15812","name":"Mårtensgatan","lat":58.325774,"lon":15.116983},{"id":"15813","name":"Ekgatan 19","lat":58.324061,"lon":15.113876},{"id":"15814","name":"Stadshuset","lat":58.324408,"lon":15.125014},{"id":"15815","name":"Knuten","lat":58.323337,"lon":15.12971},{"id":"15816","name":"Hargsvägen","lat":58.320449,"lon":15.14212},{"id":"15817","name":"Mathems lillgård","lat":58.292456,"lon":15.310712},{"id":"15818","name":"Gatkulla","lat":58.307081,"lon":15.306022},{"id":"15819","name":"Östra Tollstads kyrka","lat":58.332937,"lon":15.312877},{"id":"15820","name":"Fiestad","lat":58.337101,"lon":15.346092},{"id":"15821","name":"Gagnarp","lat":58.338566,"lon":15.333986},{"id":"15822","name":"Hagsbacken","lat":58.344717,"lon":15.317579},{"id":"15823","name":"Mejerivägen","lat":58.422435,"lon":15.226042},{"id":"15824","name":"Enanders väg","lat":58.413439,"lon":15.228038},{"id":"15825","name":"Torpa östergård","lat":58.404057,"lon":15.230039},{"id":"15826","name":"Lyckan","lat":58.394424,"lon":15.248527},{"id":"15827","name":"Lottstad vk","lat":58.439797,"lon":15.229831},{"id":"15828","name":"Bjälbo Vägskäl","lat":58.371177,"lon":15.011566},{"id":"15829","name":"Fållinge","lat":58.386731,"lon":15.063086},{"id":"15830","name":"Fallsberg","lat":58.38248,"lon":15.046936},{"id":"15831","name":"Stora Åby","lat":58.240536,"lon":14.709872},{"id":"15832","name":"Hålan Västra","lat":58.113269,"lon":14.840856},{"id":"15833","name":"Hålans vägkors","lat":58.112583,"lon":14.847576},{"id":"15834","name":"Fridtjuv Bergsskolan","lat":58.230688,"lon":14.649986},{"id":"15835","name":"Alvastra gård","lat":58.293508,"lon":14.660386},{"id":"15836","name":"Forsby","lat":58.263803,"lon":14.64814},{"id":"15837","name":"Stora Lundsvägen","lat":58.258768,"lon":14.64931},{"id":"15838","name":"Sjöstorp","lat":58.254776,"lon":14.650734},{"id":"15839","name":"Backasand","lat":58.235487,"lon":14.674549},{"id":"15840","name":"Kyleberg","lat":58.305244,"lon":14.843461},{"id":"15841","name":"Kvarntorp","lat":58.304112,"lon":14.835117},{"id":"15842","name":"Ödemark","lat":58.276603,"lon":14.756906},{"id":"15843","name":"Frösäng","lat":58.269089,"lon":14.750517},{"id":"15844","name":"Syllerstorpsvägen","lat":58.25971,"lon":14.741222},{"id":"15845","name":"Parkudden","lat":58.237779,"lon":14.692165},{"id":"15846","name":"Tjugbyvägen","lat":58.291799,"lon":14.732449},{"id":"15847","name":"Isberga","lat":58.290022,"lon":14.69165},{"id":"15848","name":"Stora Broby","lat":58.297323,"lon":14.67851},{"id":"15849","name":"Solgården","lat":58.227137,"lon":14.649471},{"id":"15850","name":"Markaryd","lat":58.214629,"lon":14.652447},{"id":"15851","name":"Åryd","lat":58.193054,"lon":14.638744},{"id":"15852","name":"Sunneby","lat":58.179092,"lon":14.641718},{"id":"15853","name":"Västantorp","lat":58.12696,"lon":14.755506},{"id":"15854","name":"Flugebo vägkors","lat":58.12003,"lon":14.774375},{"id":"15855","name":"Hakebo vägskäl","lat":58.116082,"lon":14.815516},{"id":"15856","name":"Fällan","lat":58.129102,"lon":14.847336},{"id":"15857","name":"Trehörna affär","lat":58.153076,"lon":14.843753},{"id":"15858","name":"Rödje","lat":58.101917,"lon":14.870572},{"id":"15859","name":"Björkvik","lat":58.095194,"lon":14.886942},{"id":"15860","name":"Lilla Tvärgatan","lat":58.226177,"lon":14.635784},{"id":"15861","name":"Orrnäsvägen","lat":58.223167,"lon":14.63071},{"id":"15862","name":"Svemb","lat":58.21491,"lon":14.623292},{"id":"15863","name":"Kråkeryd","lat":58.196067,"lon":14.607406},{"id":"15864","name":"Skrädeberg","lat":58.180171,"lon":14.588104},{"id":"15865","name":"Grönäng","lat":58.170228,"lon":14.577416},{"id":"15866","name":"Vida Vättern","lat":58.150881,"lon":14.568469},{"id":"15867","name":"Stava Södra","lat":58.135648,"lon":14.564278},{"id":"15869","name":"Per Brahevägen","lat":58.230117,"lon":14.657392},{"id":"15870","name":"Blixhult","lat":58.129546,"lon":14.736079},{"id":"15871","name":"Lysingsskolan","lat":58.227768,"lon":14.650829},{"id":"15884","name":"Skeppstad","lat":58.485362,"lon":14.988724},{"id":"15885","name":"Granby","lat":58.438575,"lon":14.939198},{"id":"15886","name":"Huvudstad","lat":58.44113,"lon":14.922971},{"id":"15887","name":"Quissbergs allé","lat":58.443367,"lon":14.91276},{"id":"15888","name":"Vätterviksbadet","lat":58.464166,"lon":14.933154},{"id":"15889","name":"Vätterngatan","lat":58.450724,"lon":14.908155},{"id":"15890","name":"Kastad Norra","lat":58.428463,"lon":14.84568},{"id":"15891","name":"Örbergavägen","lat":58.416691,"lon":14.824218},{"id":"15892","name":"Husbergavägen","lat":58.395455,"lon":14.796198},{"id":"15893","name":"Valla skattegård","lat":58.392707,"lon":14.782631},{"id":"15894","name":"Bårstadvägen","lat":58.381713,"lon":14.725273},{"id":"15895","name":"Skedet","lat":58.364379,"lon":14.717226},{"id":"15896","name":"Mjölna","lat":58.431306,"lon":14.862173},{"id":"15897","name":"Birgittas väg","lat":58.447395,"lon":14.905945},{"id":"15898","name":"Östra Starby","lat":58.455279,"lon":14.915096},{"id":"15899","name":"Nådendalsvägen","lat":58.449648,"lon":14.900732},{"id":"15900","name":"Folktandvården","lat":58.446516,"lon":14.888328},{"id":"15901","name":"Rödtornet","lat":58.448718,"lon":14.893597},{"id":"15902","name":"Magnus Erikssons väg","lat":58.4465,"lon":14.907595},{"id":"15903","name":"Simhallen","lat":58.445066,"lon":14.900319},{"id":"15904","name":"Posten","lat":58.441497,"lon":14.882037},{"id":"15905","name":"Qvissberg","lat":58.449728,"lon":14.914689},{"id":"15906","name":"Wasagården","lat":58.444092,"lon":14.884606},{"id":"15907","name":"Katarinaskolan","lat":58.442764,"lon":14.894676},{"id":"15908","name":"Vätterngården","lat":58.45476,"lon":14.89738},{"id":"15909","name":"Aspa","lat":58.016791,"lon":15.019624},{"id":"15910","name":"Blankhestervägen","lat":58.073391,"lon":14.914413},{"id":"15911","name":"Bänarpsvägen","lat":58.071366,"lon":14.920107},{"id":"15912","name":"Västeräng","lat":58.06809,"lon":14.925542},{"id":"15917","name":"Spränggatan","lat":58.047488,"lon":14.968656},{"id":"15918","name":"Storgatan 35","lat":58.034865,"lon":14.975705},{"id":"15919","name":"Ängarydsskolan","lat":58.033394,"lon":14.967699},{"id":"15999","name":"Ljusfors bruk","lat":58.585402,"lon":15.88717},{"id":"16000","name":"Vånga","lat":58.579762,"lon":15.812433},{"id":"16095","name":"Gamla vägen","lat":58.589559,"lon":15.86983},{"id":"16097","name":"Vångadal","lat":58.581297,"lon":15.814943},{"id":"16215","name":"Lasarettet Entrén","lat":58.544569,"lon":15.028579},{"id":"16216","name":"Smedsby skola","lat":58.564947,"lon":15.006442},{"id":"16218","name":"Motala bussterminal","lat":58.535934,"lon":15.034951},{"id":"16219","name":"Fågelsta skola","lat":58.458252,"lon":15.044824},{"id":"16220","name":"Härseby","lat":58.582659,"lon":15.143418},{"id":"16221","name":"Försjö","lat":58.458793,"lon":15.273068},{"id":"16223","name":"Kårstads vägkors","lat":58.520314,"lon":15.210715},{"id":"16225","name":"Korskrog","lat":58.51248,"lon":15.266317},{"id":"16226","name":"Österstad affär","lat":58.519526,"lon":15.179102},{"id":"16228","name":"Lill-Alma","lat":58.517111,"lon":15.1161},{"id":"16229","name":"Verkstadstorget","lat":58.548379,"lon":15.060973},{"id":"16230","name":"Esplanaden","lat":58.546574,"lon":15.057851},{"id":"16231","name":"Kanalparken","lat":58.535461,"lon":15.042842},{"id":"16232","name":"Skolgårda skola","lat":58.556698,"lon":15.071275},{"id":"16233","name":"Syréngatan","lat":58.558681,"lon":15.080562},{"id":"16234","name":"Väster centrum","lat":58.534633,"lon":15.002772},{"id":"16235","name":"Väster Briggen","lat":58.537644,"lon":14.996281},{"id":"16236","name":"Gullvivegatan","lat":58.539114,"lon":14.992951},{"id":"16237","name":"Violgatan","lat":58.539796,"lon":14.988659},{"id":"16238","name":"Zederslundsskolan","lat":58.53942,"lon":15.032419},{"id":"16239","name":"Lasarettet Lasarettsgatan","lat":58.544836,"lon":15.029672},{"id":"16240","name":"Sandkullsvägen","lat":58.549244,"lon":15.046201},{"id":"16241","name":"Bergborraregatan","lat":58.551225,"lon":15.05028},{"id":"16242","name":"Bergtallsgatan","lat":58.552742,"lon":15.056414},{"id":"16243","name":"Agneshögs gård","lat":58.53628,"lon":15.010752},{"id":"16244","name":"Vänsterkroken","lat":58.539343,"lon":15.005205},{"id":"16245","name":"Bussgaraget","lat":58.542385,"lon":15.0107},{"id":"16246","name":"Jätten","lat":58.5436,"lon":15.013987},{"id":"16247","name":"Sandåsvägen","lat":58.550197,"lon":15.018063},{"id":"16248","name":"Norrgatan","lat":58.533137,"lon":15.05376},{"id":"16249","name":"Strömsborg","lat":58.539983,"lon":15.065461},{"id":"16250","name":"Smedgrundsvägen","lat":58.54476,"lon":15.071783},{"id":"16251","name":"Landsborgsgatan","lat":58.529585,"lon":15.046746},{"id":"16252","name":"Charlottenborgsskolan","lat":58.540107,"lon":15.079332},{"id":"16253","name":"Blåklockan","lat":58.537978,"lon":15.080595},{"id":"16254","name":"Krokvägen","lat":58.532134,"lon":15.072836},{"id":"16255","name":"Vårgården","lat":58.562565,"lon":15.007442},{"id":"16256","name":"Fallet","lat":58.57515,"lon":14.984295},{"id":"16257","name":"Östergården","lat":58.578652,"lon":14.967641},{"id":"16258","name":"Lindenäs","lat":58.580754,"lon":14.930183},{"id":"16259","name":"Norra Freberga","lat":58.589224,"lon":14.924142},{"id":"16260","name":"Norrsten","lat":58.504938,"lon":15.022371},{"id":"16261","name":"Nyckelby","lat":58.485351,"lon":15.036266},{"id":"16262","name":"Fågelsta herrgård","lat":58.466432,"lon":15.042008},{"id":"16263","name":"Sundsgatan","lat":58.459975,"lon":15.04477},{"id":"16264","name":"Rävsjö","lat":58.450319,"lon":15.024511},{"id":"16265","name":"Fivelstadsvägen","lat":58.500727,"lon":15.01214},{"id":"16266","name":"Hässelbyvägen","lat":58.497683,"lon":15.007784},{"id":"16267","name":"Ruda","lat":58.535853,"lon":15.366256},{"id":"16268","name":"Kårgården","lat":58.54929,"lon":15.315851},{"id":"16269","name":"Kanalbron","lat":58.559541,"lon":15.283495},{"id":"16270","name":"Skrukarp","lat":58.582616,"lon":15.16312},{"id":"16271","name":"Eveborg","lat":58.582544,"lon":15.11471},{"id":"16272","name":"Ervasteby","lat":58.577646,"lon":15.09564},{"id":"16273","name":"Dammtorpsvägen","lat":58.571456,"lon":15.075727},{"id":"16274","name":"Sofielundsvägen","lat":58.574463,"lon":15.093161},{"id":"16275","name":"Åkersholmsvägen","lat":58.529653,"lon":15.070674},{"id":"16276","name":"Björketorp","lat":58.593809,"lon":15.078614},{"id":"16283","name":"Ulvåsagatan","lat":58.522246,"lon":15.055211},{"id":"16284","name":"Sandstorp","lat":58.520713,"lon":15.219324},{"id":"16285","name":"Ebborp","lat":58.52221,"lon":15.224705},{"id":"16286","name":"Lönnhult","lat":58.525955,"lon":15.243179},{"id":"16299","name":"Britthem","lat":58.509003,"lon":15.26565},{"id":"16300","name":"Klockrike kyrka","lat":58.50919,"lon":15.336053},{"id":"16301","name":"Lickstabacken","lat":58.466984,"lon":15.28696},{"id":"16302","name":"Lilla Berga","lat":58.475297,"lon":15.337946},{"id":"16303","name":"Hanorp","lat":58.488919,"lon":15.338759},{"id":"16304","name":"Karlsäng","lat":58.492218,"lon":15.311108},{"id":"16305","name":"Hyttringe","lat":58.499358,"lon":15.204502},{"id":"16306","name":"Tillmarstorp","lat":58.520128,"lon":15.148716},{"id":"16307","name":"Alma","lat":58.518851,"lon":15.124235},{"id":"16308","name":"Vinnerstads kyrka","lat":58.51572,"lon":15.08833},{"id":"16309","name":"Örbacka vägkors","lat":58.520444,"lon":15.077388},{"id":"16310","name":"Säter","lat":58.595861,"lon":14.988315},{"id":"16319","name":"Trehörna","lat":58.580991,"lon":15.272998},{"id":"16325","name":"Stubbhagen","lat":58.517036,"lon":15.059338},{"id":"16326","name":"Stjärnorpsgatan","lat":58.532118,"lon":15.045387},{"id":"16327","name":"Borensbergs centrum","lat":58.56246,"lon":15.281527},{"id":"16329","name":"Torpavägens vändplats","lat":58.550001,"lon":15.077719},{"id":"16332","name":"Illersjö","lat":58.57569,"lon":14.987256},{"id":"16335","name":"Örbäck","lat":58.522095,"lon":15.332311},{"id":"16337","name":"Kulbanegatan","lat":58.553536,"lon":15.035818},{"id":"16338","name":"Bråstorp centrum","lat":58.557645,"lon":15.032275},{"id":"16340","name":"Vårdcentralen Marieberg","lat":58.539259,"lon":15.000382},{"id":"16342","name":"Mårdtorp","lat":58.497563,"lon":15.256737},{"id":"16345","name":"Frälseutjord","lat":58.577758,"lon":14.973748},{"id":"16346","name":"Valstad","lat":58.530563,"lon":15.33024},{"id":"16347","name":"Lillgården Djurkälla","lat":58.576942,"lon":14.950682},{"id":"16358","name":"Grottan","lat":57.984948,"lon":15.644915},{"id":"16359","name":"G:a Eksjövägen 12","lat":57.983443,"lon":15.621511},{"id":"16360","name":"Malmen Vakten","lat":58.397158,"lon":15.507546},{"id":"16361","name":"Brokinds vägkors","lat":58.212584,"lon":15.669044},{"id":"16363","name":"Aspnäset","lat":58.372607,"lon":15.685068},{"id":"16364","name":"Sigbjörnsgatan","lat":58.424813,"lon":15.637808},{"id":"16365","name":"Gullberg","lat":58.491287,"lon":15.470002},{"id":"16379","name":"Katrineberg","lat":58.321369,"lon":15.865048},{"id":"16380","name":"Grebovallen","lat":58.31155,"lon":15.877076},{"id":"16381","name":"Rödsten","lat":58.292739,"lon":15.894123},{"id":"16382","name":"Emmaus","lat":58.310205,"lon":15.872911},{"id":"16383","name":"Mårsängsvägen","lat":58.306184,"lon":15.870174},{"id":"16408","name":"Resedan","lat":58.384555,"lon":15.65865},{"id":"16409","name":"Stiglötsgatan","lat":58.42623,"lon":15.568691},{"id":"16410","name":"VTI","lat":58.39469,"lon":15.573212},{"id":"16411","name":"Änggårdsvägen","lat":58.375616,"lon":15.708147},{"id":"16412","name":"Snövägen","lat":58.426574,"lon":15.686235},{"id":"16413","name":"Tallboda skola","lat":58.428561,"lon":15.680374},{"id":"16414","name":"Gärstad","lat":58.443633,"lon":15.646416},{"id":"16415","name":"Stenåldersgatan","lat":58.371831,"lon":15.672613},{"id":"16416","name":"Kaserngatan","lat":58.402927,"lon":15.61342},{"id":"16417","name":"Lambohov centrum","lat":58.389812,"lon":15.566474},{"id":"16418","name":"Ryd centrum","lat":58.407934,"lon":15.564196},{"id":"16419","name":"Gamla Linköping","lat":58.406966,"lon":15.590083},{"id":"16420","name":"Landbogatan","lat":58.375256,"lon":15.569615},{"id":"16421","name":"Lövsbergsvägen","lat":58.373469,"lon":15.695609},{"id":"16422","name":"US Maskincentralen","lat":58.402616,"lon":15.62199},{"id":"16423","name":"Blåsvädret","lat":58.490291,"lon":15.498851},{"id":"16424","name":"Bankekinds vägkors","lat":58.37243,"lon":15.813696},{"id":"16425","name":"Berg Hagvägen","lat":58.490876,"lon":15.527086},{"id":"16426","name":"Gunnarsdal","lat":58.520455,"lon":15.4909},{"id":"16427","name":"Stjärnorp","lat":58.530806,"lon":15.580447},{"id":"16428","name":"Askeby affär","lat":58.4082,"lon":15.849814},{"id":"16430","name":"Kungshult","lat":58.257527,"lon":15.54657},{"id":"16431","name":"Vittsätter","lat":58.245043,"lon":15.519383},{"id":"16432","name":"Sandebo","lat":58.203405,"lon":15.573514},{"id":"16433","name":"Pukeberg","lat":58.200861,"lon":15.557341},{"id":"16434","name":"Sjögestads vägkors","lat":58.370545,"lon":15.369307},{"id":"16435","name":"Kaga kyrka","lat":58.450371,"lon":15.528144},{"id":"16436","name":"Björkebergs by","lat":58.44845,"lon":15.389235},{"id":"16437","name":"Ycke","lat":58.157038,"lon":15.39163},{"id":"16438","name":"Nykils kyrka","lat":58.28831,"lon":15.448675},{"id":"16439","name":"Visätter","lat":58.273327,"lon":15.482976},{"id":"16440","name":"Segersberg","lat":58.458605,"lon":15.77565},{"id":"16441","name":"IKEA","lat":58.432371,"lon":15.588849},{"id":"16443","name":"Vårdsbergsvägen","lat":58.374118,"lon":15.709347},{"id":"16444","name":"Ryds herrgård","lat":58.409074,"lon":15.563948},{"id":"16446","name":"Fagottgatan","lat":58.366203,"lon":15.682032},{"id":"16447","name":"Klarinettgatan","lat":58.36351,"lon":15.6831},{"id":"16448","name":"Vallfarten","lat":58.397402,"lon":15.573194},{"id":"16449","name":"Abisko","lat":58.415118,"lon":15.60692},{"id":"16450","name":"Klostergatan","lat":58.414447,"lon":15.620782},{"id":"16451","name":"Middagsgatan","lat":58.374079,"lon":15.659394},{"id":"16452","name":"Ridhusgatan","lat":58.387719,"lon":15.654021},{"id":"16453","name":"Grindgatan","lat":58.378839,"lon":15.660793},{"id":"16454","name":"Åbylund","lat":58.415429,"lon":15.599561},{"id":"16455","name":"Skattegården","lat":58.432924,"lon":15.576572},{"id":"16456","name":"Skäggetorpsgatan","lat":58.421317,"lon":15.58238},{"id":"16457","name":"Elsa Brändströms gata","lat":58.407153,"lon":15.617485},{"id":"16458","name":"Eskadern","lat":58.400695,"lon":15.609806},{"id":"16459","name":"Risbrinksgatan","lat":58.399399,"lon":15.646309},{"id":"16460","name":"Vallaplan","lat":58.40748,"lon":15.597247},{"id":"16461","name":"Ödegårdsgatan 11","lat":58.397216,"lon":15.652304},{"id":"16462","name":"Universitetet","lat":58.4004,"lon":15.572969},{"id":"16463","name":"Tennsoldaten","lat":58.393329,"lon":15.66087},{"id":"16464","name":"Borggården","lat":58.409575,"lon":15.61636},{"id":"16465","name":"Berzeliusskolan","lat":58.415763,"lon":15.611707},{"id":"16466","name":"Rättaregatan","lat":58.388534,"lon":15.574484},{"id":"16467","name":"Lantmannagatan","lat":58.377629,"lon":15.571154},{"id":"16468","name":"Yrkesvägen","lat":58.387501,"lon":15.644448},{"id":"16469","name":"Vickergatan","lat":58.403201,"lon":15.593903},{"id":"16470","name":"Tornhagen","lat":58.412001,"lon":15.589214},{"id":"16471","name":"Ostbrickan","lat":58.405467,"lon":15.569994},{"id":"16472","name":"Drottningtorget","lat":58.4105,"lon":15.635806},{"id":"16473","name":"Stationsgatan","lat":58.402019,"lon":15.651975},{"id":"16474","name":"Rökglaset","lat":58.377829,"lon":15.672967},{"id":"16475","name":"Hjortvägen","lat":58.391968,"lon":15.655952},{"id":"16476","name":"Granitgatan","lat":58.393752,"lon":15.653738},{"id":"16477","name":"Rydsvägen 168","lat":58.408035,"lon":15.555847},{"id":"16478","name":"Skiestad","lat":58.323527,"lon":15.39912},{"id":"16479","name":"Bergsrondellen","lat":58.418964,"lon":15.598172},{"id":"16480","name":"Braskens bro","lat":58.397605,"lon":15.655107},{"id":"16481","name":"Stillinge norrgård","lat":58.318989,"lon":15.400725},{"id":"16482","name":"Strandängsvägen","lat":58.378037,"lon":15.704585},{"id":"16483","name":"Aspeliden","lat":58.380062,"lon":15.699383},{"id":"16484","name":"Kvinnebyvägen 87","lat":58.381203,"lon":15.689397},{"id":"16485","name":"Saab södra","lat":58.400634,"lon":15.657916},{"id":"16486","name":"Saab Civila","lat":58.40006,"lon":15.675174},{"id":"16487","name":"Humlegatan","lat":58.412314,"lon":15.636208},{"id":"16488","name":"Berga centrum","lat":58.39294,"lon":15.643038},{"id":"16489","name":"Pionjärgatan","lat":58.391374,"lon":15.633282},{"id":"16490","name":"Vårgård","lat":58.38931,"lon":15.700347},{"id":"16491","name":"Glyttinge","lat":58.425654,"lon":15.558118},{"id":"16492","name":"Vinkännaren","lat":58.424549,"lon":15.511302},{"id":"16493","name":"Hackefors södra","lat":58.392599,"lon":15.703551},{"id":"16494","name":"Mariedalsgatan","lat":58.419396,"lon":15.500051},{"id":"16495","name":"Kärna skola","lat":58.418131,"lon":15.515873},{"id":"16496","name":"Rydsätter","lat":58.42739,"lon":15.694892},{"id":"16497","name":"Hästhovsvägen","lat":58.436792,"lon":15.793234},{"id":"16498","name":"Törnevalla kyrka","lat":58.451343,"lon":15.833134},{"id":"16499","name":"Ullälva","lat":58.457315,"lon":15.857052},{"id":"16500","name":"Överby","lat":58.460021,"lon":15.869425},{"id":"16502","name":"Lägergatan","lat":58.408457,"lon":15.517458},{"id":"16503","name":"Gullringsvägen","lat":58.428827,"lon":15.676539},{"id":"16504","name":"Harstenagatan","lat":58.417404,"lon":15.66546},{"id":"16505","name":"Skälv","lat":58.463073,"lon":15.702249},{"id":"16506","name":"Udden","lat":58.481221,"lon":15.631161},{"id":"16507","name":"Näsby allé","lat":58.451682,"lon":15.643588},{"id":"16508","name":"Vretaliden","lat":58.507548,"lon":15.507141},{"id":"16509","name":"Gyllenborgsvägen","lat":58.454432,"lon":15.551441},{"id":"16510","name":"Härna","lat":58.466381,"lon":15.533672},{"id":"16511","name":"Hagegården","lat":58.476346,"lon":15.525299},{"id":"16512","name":"Gråhallen","lat":58.500936,"lon":15.45588},{"id":"16513","name":"Ljungs västra bro","lat":58.520327,"lon":15.423888},{"id":"16514","name":"Vårdsbergs kors","lat":58.39845,"lon":15.762637},{"id":"16516","name":"Erikstad","lat":58.374962,"lon":15.808911},{"id":"16517","name":"Vadstorp","lat":58.368875,"lon":15.818821},{"id":"16518","name":"Sandtorpet","lat":58.35678,"lon":15.830876},{"id":"16519","name":"Fillinge tingshus","lat":58.349344,"lon":15.838522},{"id":"16520","name":"Övre Fillinge","lat":58.341514,"lon":15.845276},{"id":"16521","name":"Högsätersvägen","lat":58.365092,"lon":15.559944},{"id":"16522","name":"Skeda prästgård","lat":58.350534,"lon":15.562232},{"id":"16523","name":"Salemsvägen","lat":58.297677,"lon":15.560174},{"id":"16524","name":"Målbäck","lat":58.272439,"lon":15.579332},{"id":"16525","name":"Snederhult","lat":58.232505,"lon":15.637256},{"id":"16526","name":"Brokinds gård","lat":58.2106,"lon":15.668439},{"id":"16527","name":"Eda","lat":58.180474,"lon":15.673587},{"id":"16528","name":"Hamra","lat":58.174264,"lon":15.675972},{"id":"16529","name":"Bergsbadsvägen","lat":58.48897,"lon":15.525884},{"id":"16530","name":"Kohagsvägen","lat":58.500019,"lon":15.520582},{"id":"16531","name":"Flemma","lat":58.51295,"lon":15.547311},{"id":"16532","name":"Stjärnhem","lat":58.52982,"lon":15.561537},{"id":"16533","name":"Ektorpet","lat":58.535243,"lon":15.591629},{"id":"16534","name":"Kolfall","lat":58.537679,"lon":15.61038},{"id":"16535","name":"Övre Korsvik","lat":58.542276,"lon":15.636386},{"id":"16536","name":"Roxenbaden","lat":58.544121,"lon":15.646337},{"id":"16537","name":"Askeby kyrka","lat":58.408144,"lon":15.855066},{"id":"16540","name":"Backhem","lat":58.245534,"lon":15.560944},{"id":"16541","name":"Erstorp","lat":58.235662,"lon":15.568026},{"id":"16542","name":"Kojtet","lat":58.230421,"lon":15.574086},{"id":"16543","name":"Dänskebo vägskäl","lat":58.218328,"lon":15.584102},{"id":"16544","name":"Sandebo gård","lat":58.21486,"lon":15.58266},{"id":"16545","name":"Nyängen","lat":58.212544,"lon":15.582811},{"id":"16546","name":"Nedre Södra Fjälla","lat":58.19255,"lon":15.622484},{"id":"16547","name":"Rösäter","lat":58.226396,"lon":15.540075},{"id":"16548","name":"Fältgatan","lat":58.363405,"lon":15.371069},{"id":"16549","name":"Västerlösavägen","lat":58.376312,"lon":15.426592},{"id":"16550","name":"Alorp södergård","lat":58.373883,"lon":15.407102},{"id":"16551","name":"Sjögestad smedja","lat":58.370581,"lon":15.377201},{"id":"16552","name":"Tift","lat":58.440914,"lon":15.539331},{"id":"16553","name":"Kaga bygdegård","lat":58.450389,"lon":15.53657},{"id":"16554","name":"Mellanbränninge","lat":58.447371,"lon":15.503678},{"id":"16555","name":"Björkebergs kyrka","lat":58.453411,"lon":15.396233},{"id":"16556","name":"Kvinnslunda","lat":58.451693,"lon":15.389916},{"id":"16557","name":"Stämninge","lat":58.441592,"lon":15.368084},{"id":"16558","name":"Tomta","lat":58.433261,"lon":15.462373},{"id":"16559","name":"Snarbygget","lat":58.424419,"lon":15.47283},{"id":"16560","name":"Västerlösa kyrka","lat":58.420979,"lon":15.344999},{"id":"16561","name":"Västerlösa bygdegård","lat":58.419372,"lon":15.335232},{"id":"16562","name":"Betel","lat":58.41849,"lon":15.329768},{"id":"16563","name":"Dömestad mellangård","lat":58.415051,"lon":15.313047},{"id":"16564","name":"Våghusgatan","lat":58.379912,"lon":15.442176},{"id":"16565","name":"Sixtorpsvägen","lat":58.358399,"lon":15.405227},{"id":"16566","name":"Frackstad","lat":58.355679,"lon":15.402559},{"id":"16567","name":"Ekäng","lat":58.289171,"lon":15.380744},{"id":"16568","name":"Brokullen","lat":58.286412,"lon":15.380027},{"id":"16569","name":"Ulvsberg","lat":58.263253,"lon":15.384291},{"id":"16570","name":"Släntom","lat":58.252605,"lon":15.384282},{"id":"16571","name":"Kuggarp","lat":58.233188,"lon":15.39333},{"id":"16572","name":"Ånnebo","lat":58.231381,"lon":15.395359},{"id":"16573","name":"Västra Hargsvägen","lat":58.213011,"lon":15.400845},{"id":"16574","name":"Lövingsborgs vägkors","lat":58.210612,"lon":15.402948},{"id":"16575","name":"Mosshult","lat":58.15191,"lon":15.391129},{"id":"16576","name":"Södra Lund","lat":58.1441,"lon":15.397061},{"id":"16577","name":"Ulrika kyrka","lat":58.124275,"lon":15.434911},{"id":"16578","name":"Carmelid","lat":58.359034,"lon":15.547123},{"id":"16579","name":"Tollstorp","lat":58.351709,"lon":15.534932},{"id":"16580","name":"Göklund","lat":58.336928,"lon":15.512783},{"id":"16581","name":"Smedhemmet","lat":58.297539,"lon":15.468124},{"id":"16582","name":"Vägstorp","lat":58.292679,"lon":15.457122},{"id":"16583","name":"Boarp","lat":58.290966,"lon":15.45124},{"id":"16584","name":"Ullstorpsvägen","lat":58.286873,"lon":15.445212},{"id":"16585","name":"Kellberga","lat":58.284011,"lon":15.436479},{"id":"16586","name":"Oxkullen","lat":58.261029,"lon":15.456309},{"id":"16587","name":"Rom","lat":58.244659,"lon":15.47188},{"id":"16588","name":"Skinnarhagen","lat":58.24068,"lon":15.474795},{"id":"16589","name":"Strandrågsvägen","lat":58.331978,"lon":15.72561},{"id":"16590","name":"Vistgården","lat":58.322276,"lon":15.718021},{"id":"16591","name":"Östanskog","lat":58.312261,"lon":15.723949},{"id":"16592","name":"Hovetorp","lat":58.302101,"lon":15.728305},{"id":"16593","name":"Dånehall","lat":58.295871,"lon":15.729307},{"id":"16594","name":"Cedersberg","lat":58.284272,"lon":15.731651},{"id":"16595","name":"Skaggebo","lat":58.251397,"lon":15.735705},{"id":"16596","name":"Lagerlunda allé","lat":58.391414,"lon":15.489761},{"id":"16597","name":"Ånestadlund","lat":58.38864,"lon":15.475613},{"id":"16598","name":"Finntorpsgatan","lat":58.38311,"lon":15.436434},{"id":"16599","name":"Berggården","lat":58.389622,"lon":15.43428},{"id":"16600","name":"Assedun","lat":58.397175,"lon":15.405505},{"id":"16601","name":"Mårbacka","lat":58.49028,"lon":15.45921},{"id":"16602","name":"Maspelösa gård","lat":58.47934,"lon":15.419791},{"id":"16603","name":"Östra Hargs vägkors","lat":58.482624,"lon":15.737728},{"id":"16604","name":"Mylinge","lat":58.479733,"lon":15.757119},{"id":"16605","name":"Sibbenhorva","lat":58.207002,"lon":15.548317},{"id":"16606","name":"Törnevalla gamla skola","lat":58.45234,"lon":15.832998},{"id":"16607","name":"Åbylunds allé","lat":58.447809,"lon":15.431748},{"id":"16608","name":"Gäckilsbovägen","lat":58.267132,"lon":15.482965},{"id":"16609","name":"Brona","lat":58.21415,"lon":15.549133},{"id":"16610","name":"Nedre Kopparhult","lat":58.208602,"lon":15.54919},{"id":"16611","name":"Spöktallen","lat":58.204777,"lon":15.549353},{"id":"16612","name":"Hörna","lat":58.273884,"lon":15.497729},{"id":"16613","name":"Järdalavägen 50","lat":58.383421,"lon":15.680604},{"id":"16614","name":"Drabantgatan","lat":58.403011,"lon":15.609708},{"id":"16615","name":"Lyckebo","lat":58.496883,"lon":15.846734},{"id":"16616","name":"Tärnestad","lat":58.460151,"lon":15.828344},{"id":"16617","name":"Tingsvägen","lat":58.397921,"lon":15.5447},{"id":"16618","name":"Djursjukhuset","lat":58.400483,"lon":15.550633},{"id":"16619","name":"Skogsgatan 51","lat":58.388733,"lon":15.660821},{"id":"16620","name":"Fårsaxvägen","lat":58.420532,"lon":15.51356},{"id":"16621","name":"Forskningsbyn","lat":58.394481,"lon":15.566648},{"id":"16622","name":"Länsstyrelsen","lat":58.410248,"lon":15.610437},{"id":"16623","name":"Danmarksgatan 2","lat":58.417716,"lon":15.609284},{"id":"16624","name":"Lektorshagen","lat":58.412203,"lon":15.59763},{"id":"16625","name":"Höga","lat":58.454948,"lon":15.691311},{"id":"16626","name":"Karstorps vägkors","lat":58.443288,"lon":15.683233},{"id":"16627","name":"Frö gård","lat":58.498014,"lon":15.885614},{"id":"16628","name":"Gullbergs vägkors","lat":58.487876,"lon":15.806862},{"id":"16629","name":"Bygdegatan","lat":58.382131,"lon":15.568919},{"id":"16630","name":"Storskiftesgatan","lat":58.387688,"lon":15.554726},{"id":"16631","name":"Högmark","lat":58.492975,"lon":15.810909},{"id":"16632","name":"Roxtorp","lat":58.544273,"lon":15.653926},{"id":"16633","name":"Mjärdevi","lat":58.397155,"lon":15.556814},{"id":"16634","name":"Sandlyckan","lat":58.33365,"lon":15.403459},{"id":"16635","name":"Tinnerbäcksgränd","lat":58.396385,"lon":15.621373},{"id":"16636","name":"Kompanigatan","lat":58.395709,"lon":15.613716},{"id":"16637","name":"Scoutstugevägen","lat":58.419039,"lon":15.352314},{"id":"16638","name":"Sporthallen","lat":58.542519,"lon":15.052185},{"id":"16639","name":"Stora Torget","lat":58.536376,"lon":15.036761},{"id":"16640","name":"Karlslunds skola","lat":58.566032,"lon":15.085084},{"id":"16641","name":"Folkets Park","lat":58.54231,"lon":14.998595},{"id":"16642","name":"Djurkälla","lat":58.578148,"lon":14.956549},{"id":"16643","name":"Brunneby","lat":58.540636,"lon":15.323166},{"id":"16646","name":"Älvestads kyrka","lat":58.445259,"lon":15.296116},{"id":"16647","name":"Karlshov","lat":58.469333,"lon":15.313349},{"id":"16648","name":"Klockrike","lat":58.497431,"lon":15.336554},{"id":"16649","name":"Älvan","lat":58.484279,"lon":15.27683},{"id":"16650","name":"Österstad Allévägen","lat":58.518403,"lon":15.177165},{"id":"16651","name":"Asks kyrka","lat":58.520061,"lon":15.135709},{"id":"16655","name":"Samuelsbergshemmet","lat":58.54156,"lon":15.032956},{"id":"16656","name":"Borenshult","lat":58.555847,"lon":15.076412},{"id":"16657","name":"1:a Sjögränd","lat":58.561579,"lon":15.083509},{"id":"16658","name":"Norra Lundsgatan","lat":58.563344,"lon":15.084315},{"id":"16659","name":"Skolgatan","lat":58.536953,"lon":15.032611},{"id":"16660","name":"Kaptensgatan","lat":58.535911,"lon":15.023723},{"id":"16661","name":"Vätterliden","lat":58.533591,"lon":15.020187},{"id":"16662","name":"Hyddmarken","lat":58.533893,"lon":15.013828},{"id":"16664","name":"Medevivägen 84","lat":58.54645,"lon":15.02354},{"id":"16665","name":"Väster Klyvaregatan","lat":58.534727,"lon":14.99786},{"id":"16666","name":"Bollhusgatan","lat":58.540247,"lon":15.049108},{"id":"16667","name":"Odalgatan","lat":58.54353,"lon":15.024687},{"id":"16668","name":"Guldkullen","lat":58.5487,"lon":15.031871},{"id":"16669","name":"Lasarettet Norrängsgatan","lat":58.546091,"lon":15.027876},{"id":"16670","name":"Styvingevägen","lat":58.55043,"lon":15.034409},{"id":"16671","name":"Torvmossen","lat":58.549618,"lon":15.039717},{"id":"16672","name":"Mariebergs gård","lat":58.54274,"lon":14.989982},{"id":"16673","name":"Brunnsvik","lat":58.547761,"lon":15.020522},{"id":"16674","name":"Vänortsvägen","lat":58.55423,"lon":15.015567},{"id":"16675","name":"Bråstorp västra","lat":58.556549,"lon":15.024843},{"id":"16676","name":"Södra skolan","lat":58.532635,"lon":15.04929},{"id":"16677","name":"Södra allén","lat":58.531854,"lon":15.044809},{"id":"16678","name":"Nygatan","lat":58.535355,"lon":15.058536},{"id":"16679","name":"Lilla Nygatan","lat":58.536836,"lon":15.061492},{"id":"16680","name":"Charlottenborg Övre","lat":58.540593,"lon":15.074669},{"id":"16681","name":"Askgatan","lat":58.529419,"lon":15.06752},{"id":"16682","name":"Högalidsgatan","lat":58.52841,"lon":15.054565},{"id":"16683","name":"Eköns centrum","lat":58.545503,"lon":15.033109},{"id":"16684","name":"Kråkrisvägen","lat":58.547514,"lon":15.034576},{"id":"16685","name":"Djurgårdsvägen","lat":58.536292,"lon":15.07299},{"id":"16686","name":"Smedsbyvägen","lat":58.560435,"lon":15.008452},{"id":"16687","name":"Luxorgatan södra","lat":58.54545,"lon":15.018479},{"id":"16688","name":"Blå kiosken","lat":58.549033,"lon":15.034869},{"id":"16689","name":"Ödebyvägen","lat":58.579177,"lon":14.962815},{"id":"16690","name":"Basteberg","lat":58.586865,"lon":14.928311},{"id":"16691","name":"Fridensborg","lat":58.570962,"lon":15.000548},{"id":"16692","name":"Sveavägen","lat":58.529593,"lon":15.045064},{"id":"16693","name":"Ringtrastvägen","lat":58.524873,"lon":15.027487},{"id":"16694","name":"Forsområdet","lat":58.523451,"lon":15.020928},{"id":"16695","name":"Nyckelby mellangård","lat":58.491931,"lon":15.031715},{"id":"16696","name":"Västra Stenby vägkors","lat":58.481872,"lon":15.040028},{"id":"16697","name":"Lårstad","lat":58.477543,"lon":15.045778},{"id":"16698","name":"Freberga","lat":58.508681,"lon":15.025187},{"id":"16699","name":"Evertsbyvägen","lat":58.566016,"lon":15.064894},{"id":"16700","name":"Myntgatan","lat":58.555395,"lon":15.063229},{"id":"16701","name":"Paradis","lat":58.570076,"lon":15.250273},{"id":"16702","name":"Brånshult","lat":58.571925,"lon":15.22584},{"id":"16703","name":"Kristbergs kyrka","lat":58.576849,"lon":15.207023},{"id":"16704","name":"Vasebo","lat":58.580691,"lon":15.19176},{"id":"16705","name":"Hållingstorp","lat":58.581395,"lon":15.181365},{"id":"16706","name":"Bäckhultsvägen","lat":58.581915,"lon":15.173929},{"id":"16707","name":"Stensborg","lat":58.580094,"lon":15.105063},{"id":"16708","name":"Borensdal","lat":58.569134,"lon":15.08899},{"id":"16709","name":"Karshult","lat":58.571601,"lon":15.091896},{"id":"16710","name":"Fågelsjövägen","lat":58.566644,"lon":15.272907},{"id":"16713","name":"Örstorp","lat":58.531649,"lon":15.266538},{"id":"16719","name":"Fornåsa kyrka","lat":58.479591,"lon":15.232505},{"id":"16720","name":"Skogslätt","lat":58.491726,"lon":15.252164},{"id":"16721","name":"Älvanhemmet","lat":58.482869,"lon":15.28112},{"id":"16722","name":"Studsbergs vägkors","lat":58.454996,"lon":15.306595},{"id":"16723","name":"Stora Berga","lat":58.481836,"lon":15.33887},{"id":"16724","name":"Tjärorp","lat":58.49083,"lon":15.358486},{"id":"16725","name":"Valltorken","lat":58.48072,"lon":15.25676},{"id":"16726","name":"Äsplunda","lat":58.482386,"lon":15.215454},{"id":"16727","name":"Slottet","lat":58.487771,"lon":15.211112},{"id":"16728","name":"Solbergavägen","lat":58.520202,"lon":15.174113},{"id":"16729","name":"Rocklundavägen","lat":58.519415,"lon":15.169322},{"id":"16730","name":"Varby vägskäl","lat":58.514257,"lon":15.101315},{"id":"16731","name":"Sonnorpsvägen","lat":58.521979,"lon":15.077493},{"id":"16732","name":"Risberga","lat":58.427124,"lon":15.026737},{"id":"16733","name":"Hilltorp","lat":58.433524,"lon":15.016324},{"id":"16734","name":"Kvarngården","lat":58.439908,"lon":15.009093},{"id":"16735","name":"Ängesby","lat":58.588928,"lon":14.988029},{"id":"16745","name":"Sjökumla","lat":58.497841,"lon":15.071751},{"id":"16746","name":"Gunnarsborg","lat":58.489195,"lon":15.060923},{"id":"16747","name":"Laggarhem","lat":58.540801,"lon":15.282658},{"id":"16748","name":"Hällaskolan","lat":58.566847,"lon":15.285208},{"id":"16750","name":"Sätersborg","lat":58.469872,"lon":15.286129},{"id":"16752","name":"Korskrog vändplats","lat":58.512739,"lon":15.268046},{"id":"16753","name":"Västra Stenby kyrka","lat":58.485495,"lon":15.048418},{"id":"16765","name":"Göstad","lat":58.594256,"lon":15.842943},{"id":"16834","name":"Ribbingsholm","lat":58.585351,"lon":15.896883},{"id":"16835","name":"Ljusfors station","lat":58.587455,"lon":15.875982},{"id":"16836","name":"Nordsjövägen","lat":58.592489,"lon":15.864436},{"id":"16837","name":"Kalkbruksvägen","lat":58.593569,"lon":15.85749},{"id":"16841","name":"Sunkerstadvägen","lat":58.583092,"lon":15.82213},{"id":"16903","name":"Boberg","lat":58.580704,"lon":15.790086},{"id":"16940","name":"Spoven","lat":57.670823,"lon":15.85682},{"id":"16941","name":"Oppeby kyrka","lat":58.036191,"lon":15.811053},{"id":"16944","name":"Rimforsa riksväg 34","lat":58.137942,"lon":15.680179},{"id":"16945","name":"Stora Rothult","lat":57.930048,"lon":15.671305},{"id":"16946","name":"Njölhult","lat":57.888252,"lon":15.722088},{"id":"16947","name":"Tävelstad","lat":58.130396,"lon":15.675963},{"id":"16948","name":"Lustbacka","lat":58.030179,"lon":15.658116},{"id":"16949","name":"Hitthem","lat":58.014993,"lon":15.647334},{"id":"16950","name":"Lövvalla","lat":57.997188,"lon":15.640328},{"id":"16951","name":"Bergdalagatan","lat":57.986735,"lon":15.638551},{"id":"16952","name":"Kuvehult","lat":57.883588,"lon":15.770713},{"id":"16953","name":"Tjärstad","lat":58.117485,"lon":15.716441},{"id":"16957","name":"Enebyvägen","lat":57.918042,"lon":15.877042},{"id":"16958","name":"Torsåkravägen","lat":57.910323,"lon":15.851032},{"id":"16959","name":"Stångågården","lat":57.897012,"lon":15.839701},{"id":"16960","name":"Utdala","lat":58.026078,"lon":15.777984},{"id":"16962","name":"Norra Rothult","lat":57.941177,"lon":15.667161},{"id":"16963","name":"Ådalavägen","lat":57.899685,"lon":15.846618},{"id":"16964","name":"Bergdalagatan 5","lat":57.985303,"lon":15.64204},{"id":"16965","name":"Hästen","lat":57.987453,"lon":15.637939},{"id":"16967","name":"Kullahallen","lat":57.983933,"lon":15.624585},{"id":"16968","name":"Mantorps centrum","lat":58.351049,"lon":15.288509},{"id":"16969","name":"Sya station","lat":58.334467,"lon":15.223934},{"id":"16970","name":"Trojenborgsskolan","lat":58.3934,"lon":15.07984},{"id":"16971","name":"Smålandsvägen","lat":58.318155,"lon":15.11749},{"id":"16972","name":"Dackeplan","lat":58.328377,"lon":15.121729},{"id":"16973","name":"Tunet","lat":58.329935,"lon":15.117568},{"id":"16974","name":"Lövsberg","lat":58.302544,"lon":15.116292},{"id":"16975","name":"Hulterstad","lat":58.28822,"lon":15.109001},{"id":"16976","name":"Hertig Johan","lat":58.327579,"lon":15.13731},{"id":"16977","name":"Vifolkavallen","lat":58.331805,"lon":15.150544},{"id":"16978","name":"Odengatan","lat":58.322235,"lon":15.103485},{"id":"16979","name":"Skogsvägen","lat":58.32836,"lon":15.142415},{"id":"16980","name":"Lagmansskolan","lat":58.318803,"lon":15.134779},{"id":"16981","name":"Viby kyrka","lat":58.367571,"lon":15.31658},{"id":"16982","name":"Lövskogsvägen","lat":58.347316,"lon":15.267269},{"id":"16983","name":"Lagmansberga","lat":58.419525,"lon":15.045557},{"id":"16984","name":"Tomtavägen","lat":58.305116,"lon":15.229567},{"id":"16985","name":"Gladhem","lat":58.317825,"lon":15.226699},{"id":"16986","name":"Mogarp","lat":58.327008,"lon":15.222316},{"id":"16987","name":"Nyhagen","lat":58.250983,"lon":15.272138},{"id":"16988","name":"Bagarekulla","lat":58.237896,"lon":15.273015},{"id":"16989","name":"Boteryd","lat":58.221509,"lon":15.279047},{"id":"16990","name":"Karlebytorp","lat":58.334514,"lon":14.94028},{"id":"16991","name":"Appuna kyrka","lat":58.342235,"lon":14.96164},{"id":"16992","name":"Appuna","lat":58.344501,"lon":14.968997},{"id":"16993","name":"Valltorp","lat":58.350983,"lon":14.981516},{"id":"16994","name":"Hulje","lat":58.333762,"lon":15.108104},{"id":"16995","name":"Skrukeby","lat":58.332551,"lon":15.083974},{"id":"16996","name":"Gullringstorp","lat":58.332611,"lon":15.075626},{"id":"16997","name":"Västra Kummelby","lat":58.33276,"lon":15.039673},{"id":"16998","name":"Källerydsvägen","lat":58.324758,"lon":15.002743},{"id":"16999","name":"Sockendal","lat":58.323522,"lon":14.994716},{"id":"17000","name":"Utterstadsvägen","lat":58.319585,"lon":14.968835},{"id":"17001","name":"Vistad","lat":58.317783,"lon":14.957001},{"id":"17002","name":"Folkungagården","lat":58.312616,"lon":14.918107},{"id":"17003","name":"Skebyvägen","lat":58.311046,"lon":14.896514},{"id":"17004","name":"Tungelunda","lat":58.310112,"lon":14.883931},{"id":"17005","name":"Bergslund","lat":58.309466,"lon":14.876561},{"id":"17006","name":"Haddestad","lat":58.307387,"lon":14.860018},{"id":"17007","name":"Lockarpsgatan","lat":58.317932,"lon":15.104509},{"id":"17008","name":"Mathem","lat":58.300781,"lon":15.304337},{"id":"17009","name":"Mogestad","lat":58.316767,"lon":15.307898},{"id":"17010","name":"Barnmorskekorset","lat":58.341462,"lon":15.325956},{"id":"17011","name":"Normlösa skola","lat":58.417191,"lon":15.227771},{"id":"17012","name":"Norra Tolebro","lat":58.431285,"lon":15.239556},{"id":"17013","name":"Skivaregården","lat":58.429045,"lon":15.236648},{"id":"17014","name":"Govlösa herrgård","lat":58.425344,"lon":15.228048},{"id":"17015","name":"Strålsnäs station","lat":58.234539,"lon":15.089593},{"id":"17016","name":"Bärbäck","lat":58.259814,"lon":15.085063},{"id":"17017","name":"Öringe","lat":58.249031,"lon":15.08334},{"id":"17018","name":"Ingmarstorp","lat":58.239304,"lon":15.087539},{"id":"17019","name":"Tempelberget","lat":58.22965,"lon":15.079207},{"id":"17020","name":"Linneberg","lat":58.222894,"lon":15.072164},{"id":"17021","name":"Hjortstigen","lat":58.189633,"lon":15.058925},{"id":"17022","name":"Grebo","lat":58.189538,"lon":15.034054},{"id":"17023","name":"Lagnebrunna","lat":58.179594,"lon":15.020026},{"id":"17024","name":"Höjden","lat":58.17241,"lon":15.009683},{"id":"17025","name":"Hester","lat":58.157124,"lon":14.996062},{"id":"17026","name":"Viken","lat":58.150422,"lon":14.984292},{"id":"17027","name":"Lindstigen","lat":58.204718,"lon":15.057605},{"id":"17028","name":"Dala","lat":58.25449,"lon":15.083502},{"id":"17029","name":"Boxholms centrum","lat":58.197275,"lon":15.054565},{"id":"17030","name":"Brandebo","lat":57.991678,"lon":15.026989},{"id":"17031","name":"Sjöarp","lat":58.006868,"lon":15.023682},{"id":"17033","name":"Hättevägen","lat":58.035829,"lon":14.995743},{"id":"17034","name":"Holavedsvägen","lat":58.043556,"lon":14.975622},{"id":"17035","name":"Stora Kungshult","lat":58.086376,"lon":14.89812},{"id":"17036","name":"Björkenäs","lat":58.079702,"lon":14.901493},{"id":"17037","name":"Tranås Storgatan 55","lat":58.037542,"lon":14.978741},{"id":"17040","name":"Kulturskolan","lat":58.036165,"lon":14.982362},{"id":"17041","name":"Beckhemsvägen","lat":58.046752,"lon":14.972923},{"id":"17139","name":"Lönningehult","lat":57.891071,"lon":15.823207},{"id":"17141","name":"Saab Civila Porten","lat":58.401299,"lon":15.674862},{"id":"17151","name":"Drottningplan","lat":58.537594,"lon":15.037816},{"id":"17152","name":"FOI","lat":58.393793,"lon":15.573526},{"id":"17153","name":"Nobeltorget","lat":58.393748,"lon":15.578417},{"id":"17154","name":"Ekholmens centrum","lat":58.380407,"lon":15.683195},{"id":"17157","name":"Viringe","lat":58.323865,"lon":15.091387},{"id":"17158","name":"Fivelstad kvarn","lat":58.441942,"lon":15.006923},{"id":"17159","name":"Fivelstad kyrka","lat":58.441304,"lon":15.004044},{"id":"17160","name":"Tegskiftesgatan","lat":58.383707,"lon":15.556908},{"id":"17214","name":"Rogslösa","lat":58.381655,"lon":14.747258},{"id":"17215","name":"Borghamn Kiosken","lat":58.382329,"lon":14.694449},{"id":"17216","name":"Egebyåsen","lat":58.439952,"lon":14.968169},{"id":"17217","name":"Klosterstad","lat":58.442143,"lon":14.958597},{"id":"17218","name":"Vadstena brandstation","lat":58.446529,"lon":14.898911},{"id":"17219","name":"Hovstullen","lat":58.445078,"lon":14.891876},{"id":"17220","name":"Sandby","lat":58.481037,"lon":14.975162},{"id":"17221","name":"Medhamra","lat":58.476306,"lon":14.954672},{"id":"17222","name":"Karlslund","lat":58.469077,"lon":14.941086},{"id":"17223","name":"Kastad","lat":58.424888,"lon":14.83479},{"id":"17224","name":"Rogslösa kyrka","lat":58.382449,"lon":14.742414},{"id":"17225","name":"Djurkälla vägkors","lat":58.365481,"lon":14.71169},{"id":"17226","name":"Väversunda","lat":58.349762,"lon":14.704576},{"id":"17227","name":"Knapetorp","lat":58.491446,"lon":14.999626},{"id":"17228","name":"Tegelgränd","lat":58.452358,"lon":14.908165},{"id":"17229","name":"Klosterledsg./Arnöv.","lat":58.452253,"lon":14.903371},{"id":"17230","name":"Kastanjevägen","lat":58.441954,"lon":14.899491},{"id":"17231","name":"Riddargatan","lat":58.444184,"lon":14.892396},{"id":"17238","name":"Asby","lat":57.903127,"lon":15.205224},{"id":"17239","name":"Höglycke","lat":57.94289,"lon":15.141309},{"id":"17240","name":"Forsnäs station","lat":57.809973,"lon":15.215017},{"id":"17241","name":"Rydbergsgatan","lat":57.797334,"lon":15.157005},{"id":"17242","name":"Studstorp","lat":57.793508,"lon":15.112716},{"id":"17243","name":"Sunds kyrka","lat":57.863539,"lon":15.242173},{"id":"17244","name":"Asby norrgård","lat":57.906771,"lon":15.204859},{"id":"17245","name":"Holkåsavägen","lat":57.925359,"lon":15.175707},{"id":"17246","name":"Västra Hult","lat":57.930349,"lon":15.171585},{"id":"17247","name":"Ekebäck","lat":57.958462,"lon":15.063994},{"id":"17248","name":"Österby gärde","lat":57.825222,"lon":15.26815},{"id":"17249","name":"Stensnäs","lat":57.824701,"lon":15.231235},{"id":"17250","name":"Ramelarp","lat":57.806859,"lon":15.2058},{"id":"17251","name":"Hammerum","lat":57.804582,"lon":15.195375},{"id":"17252","name":"Västra Ryds kyrka","lat":57.800691,"lon":15.142885},{"id":"17253","name":"Tunarp","lat":57.773143,"lon":15.112535},{"id":"17254","name":"Madstugan","lat":57.955183,"lon":15.111253},{"id":"17255","name":"Kvarnkulla","lat":57.958267,"lon":15.095822},{"id":"17256","name":"Omberg","lat":58.3125,"lon":14.677737},{"id":"17257","name":"Hejla","lat":58.29341,"lon":14.787853},{"id":"17258","name":"Heda","lat":58.286921,"lon":14.70375},{"id":"17259","name":"Boet","lat":58.150893,"lon":14.712239},{"id":"17260","name":"Trehörna kyrka","lat":58.155974,"lon":14.843488},{"id":"17261","name":"Roths café","lat":58.31716,"lon":14.682895},{"id":"17262","name":"Råbyvägen","lat":58.243908,"lon":14.660334},{"id":"17263","name":"Kungsvägen","lat":58.232836,"lon":14.661168},{"id":"17264","name":"Järnstad","lat":58.244791,"lon":14.720298},{"id":"17265","name":"Hillingstad","lat":58.293454,"lon":14.752213},{"id":"17266","name":"Kålstad","lat":58.293086,"lon":14.740322},{"id":"17267","name":"Disevid","lat":58.28955,"lon":14.721366},{"id":"17268","name":"Grimshult","lat":58.187016,"lon":14.63442},{"id":"17269","name":"Tingstadsvägen","lat":58.172332,"lon":14.650742},{"id":"17270","name":"Kalvhult","lat":58.159175,"lon":14.689765},{"id":"17271","name":"Uppsala","lat":58.133426,"lon":14.732975},{"id":"17272","name":"Sjömarken","lat":58.210057,"lon":14.618962},{"id":"17273","name":"Stockseryd","lat":58.205201,"lon":14.615246},{"id":"17274","name":"Maltmossen","lat":58.183593,"lon":14.590979},{"id":"17275","name":"Stava Norra","lat":58.141782,"lon":14.568089},{"id":"17276","name":"Lilla Broby","lat":58.294112,"lon":14.685996},{"id":"17277","name":"Bremergatan","lat":58.228204,"lon":14.643377},{"id":"17278","name":"Räknestickan","lat":58.377789,"lon":15.669326},{"id":"17279","name":"Fårbetesvägen","lat":58.421611,"lon":15.506415},{"id":"17280","name":"Beatelund","lat":58.429669,"lon":15.717102},{"id":"17282","name":"Slättna","lat":57.697845,"lon":14.990745},{"id":"17283","name":"Kålshester","lat":57.734646,"lon":15.055196},{"id":"17284","name":"Husartorpet","lat":57.677159,"lon":14.959489},{"id":"17286","name":"Boeryd Södra","lat":58.081998,"lon":14.520933},{"id":"17287","name":"Uppgränna Norra","lat":58.073935,"lon":14.510309},{"id":"17288","name":"Bultagården","lat":58.066543,"lon":14.502172},{"id":"17289","name":"Duvebovägen","lat":58.056035,"lon":14.498473},{"id":"17290","name":"Gärdesvägen","lat":58.026057,"lon":14.466935},{"id":"17308","name":"US Norra entrén","lat":58.402922,"lon":15.622194},{"id":"17310","name":"Höghultsvägen","lat":58.497548,"lon":15.503847},{"id":"17311","name":"Nytorp","lat":58.493366,"lon":15.500625},{"id":"17313","name":"Klockrike vägkors","lat":58.495781,"lon":15.337227},{"id":"17314","name":"Skeda Udde","lat":58.291294,"lon":15.560252},{"id":"17315","name":"Värgårdsplan","lat":57.988622,"lon":15.639336},{"id":"17316","name":"Norrbergavägen","lat":58.332946,"lon":15.723577},{"id":"17323","name":"Motala Central old","lat":58.537486,"lon":15.048309},{"id":"17324","name":"Morkullevägen","lat":58.567247,"lon":15.254099},{"id":"17325","name":"Falkgatan","lat":58.562514,"lon":15.257867},{"id":"17326","name":"Nya Strömbron","lat":58.51494,"lon":15.504881},{"id":"17327","name":"Hackefors","lat":58.395396,"lon":15.699029},{"id":"17328","name":"Rök","lat":58.294138,"lon":14.774463},{"id":"17331","name":"Vikingstad skola","lat":58.381271,"lon":15.436761},{"id":"17332","name":"Linköpingsvägen","lat":58.525311,"lon":15.055849},{"id":"17333","name":"Garnisonen södra","lat":58.39354,"lon":15.616036},{"id":"17334","name":"Prästängsskolan","lat":57.667161,"lon":14.982134},{"id":"17337","name":"Tornet","lat":58.424549,"lon":15.615355},{"id":"17338","name":"US Södra entrén","lat":58.399606,"lon":15.620364},{"id":"17339","name":"Ortgatan","lat":58.381103,"lon":15.633504},{"id":"17340","name":"Norra Tornby","lat":58.434777,"lon":15.589039},{"id":"17341","name":"Hemmansgatan","lat":58.381718,"lon":15.578494},{"id":"17369","name":"Mjölby centrum","lat":58.326687,"lon":15.126404},{"id":"17370","name":"Svängen Västra Harg","lat":58.262038,"lon":15.255889},{"id":"17371","name":"Kulla Västra Harg","lat":58.257311,"lon":15.261226},{"id":"17372","name":"Hälla Västra Harg","lat":58.190901,"lon":15.289888},{"id":"17373","name":"Mjärdevi Hogstad","lat":58.339481,"lon":15.043676},{"id":"17374","name":"Dalen Mantorp","lat":58.34731,"lon":15.310132},{"id":"17375","name":"Broby Mjölby","lat":58.436322,"lon":15.241735},{"id":"17376","name":"Torpavägen","lat":58.547384,"lon":15.075386},{"id":"17377","name":"Gatugården Lindenäs","lat":58.577159,"lon":14.94014},{"id":"17378","name":"Grönlund Lemunda","lat":58.598176,"lon":14.9126},{"id":"17379","name":"Hassla Klockrike","lat":58.533219,"lon":15.352109},{"id":"17380","name":"Kulla Kristberg","lat":58.583224,"lon":15.150249},{"id":"17381","name":"Erikslund Ervasteby","lat":58.583936,"lon":15.093467},{"id":"17382","name":"Stenkullen Ervasteby","lat":58.586385,"lon":15.08991},{"id":"17383","name":"Missionshuset Ervasteby","lat":58.588442,"lon":15.083626},{"id":"17384","name":"Brotorp Ervasteby","lat":58.598542,"lon":15.078757},{"id":"17385","name":"Ängen Österstad","lat":58.519024,"lon":15.19217},{"id":"17386","name":"Torpa Örstorp","lat":58.529784,"lon":15.250328},{"id":"17387","name":"Olofstorp Borensberg","lat":58.53551,"lon":15.279801},{"id":"17388","name":"Björkvägen Borensberg","lat":58.550204,"lon":15.281367},{"id":"17389","name":"Smedstorp Lönsås","lat":58.50247,"lon":15.26009},{"id":"17390","name":"Hagalund Lönsås","lat":58.505915,"lon":15.263656},{"id":"17391","name":"Snippen Korskrog","lat":58.518793,"lon":15.266804},{"id":"17392","name":"Nysäter Älvan","lat":58.477261,"lon":15.283895},{"id":"17393","name":"Västra Lund Lickstabacken","lat":58.473217,"lon":15.28512},{"id":"17395","name":"Golfbanan Motala","lat":58.508197,"lon":15.064758},{"id":"17396","name":"Mon Lindenäs","lat":58.578193,"lon":14.933788},{"id":"17397","name":"Västergården Ervasteby","lat":58.595959,"lon":15.079223},{"id":"17401","name":"Lund Ydre","lat":57.821175,"lon":15.227959},{"id":"17414","name":"Sjövik","lat":58.284947,"lon":14.648933},{"id":"17415","name":"Smedstorp Svanshals","lat":58.301165,"lon":14.818415},{"id":"17416","name":"Grönlund Ödeshög","lat":58.162414,"lon":14.572503},{"id":"17418","name":"Rådhuset","lat":58.446425,"lon":14.886857},{"id":"17419","name":"Lugnet Rogslösa","lat":58.372926,"lon":14.698248},{"id":"17420","name":"Lillgatan Rogslösa","lat":58.368483,"lon":14.70577},{"id":"17421","name":"Missionshuset Väversunda","lat":58.361231,"lon":14.718655},{"id":"17422","name":"Skogslund Väversunda","lat":58.332288,"lon":14.68991},{"id":"17423","name":"Östenssons Vadstena","lat":58.441048,"lon":14.882015},{"id":"17424","name":"Kungsvallavägen","lat":58.443861,"lon":14.887387},{"id":"17425","name":"Vårdcentralen Vadstena","lat":58.452866,"lon":14.899913},{"id":"17426","name":"Kyrkogården Vadstena","lat":58.450107,"lon":14.904677},{"id":"17438","name":"Tägneby Rystad","lat":58.469253,"lon":15.695514},{"id":"17439","name":"Häggebo Nykil","lat":58.268853,"lon":15.441783},{"id":"17440","name":"Linnégatan Linköping","lat":58.407649,"lon":15.625676},{"id":"17441","name":"Gatan Gammalkil","lat":58.303099,"lon":15.381907},{"id":"17442","name":"Tuna Rystad","lat":58.476574,"lon":15.680066},{"id":"17443","name":"Marieberg Rystad","lat":58.474998,"lon":15.666823},{"id":"17444","name":"Skogstorp Rystad","lat":58.475715,"lon":15.65784},{"id":"17445","name":"Karstorp Rystad","lat":58.443939,"lon":15.68895},{"id":"17446","name":"Lövsätter Skeda","lat":58.357261,"lon":15.56362},{"id":"17447","name":"Sörby Stjärnorp","lat":58.527446,"lon":15.554928},{"id":"17448","name":"Sandvik Stjärnorp","lat":58.541819,"lon":15.623973},{"id":"17449","name":"Greby Askeby","lat":58.410236,"lon":15.874537},{"id":"17451","name":"Fredriksborg Skeda","lat":58.26488,"lon":15.550793},{"id":"17452","name":"Knoppetorp Nykil","lat":58.262145,"lon":15.547882},{"id":"17453","name":"Tobo Nykil","lat":58.251796,"lon":15.554071},{"id":"17454","name":"Sandstugan Nykil","lat":58.221053,"lon":15.581668},{"id":"17455","name":"Erikslund Vårdnäs","lat":58.20753,"lon":15.575732},{"id":"17456","name":"Fridhem Vårdnäs","lat":58.229454,"lon":15.625391},{"id":"17457","name":"Missionshuset Fjälla","lat":58.196504,"lon":15.62549},{"id":"17458","name":"Sandviken Fjälla","lat":58.195097,"lon":15.587069},{"id":"17459","name":"Bäck Nykil","lat":58.236232,"lon":15.525889},{"id":"17460","name":"Bäck Västerlösa","lat":58.41682,"lon":15.317796},{"id":"17461","name":"Smedstorp Västerlösa","lat":58.409914,"lon":15.303402},{"id":"17462","name":"Sjögestadskorset","lat":58.346993,"lon":15.395623},{"id":"17463","name":"Unnerstad Ödegård","lat":58.316841,"lon":15.386281},{"id":"17464","name":"Ullstorp Nykil","lat":58.281728,"lon":15.435702},{"id":"17465","name":"Bergsätter Östra Harg","lat":58.471993,"lon":15.721365},{"id":"17466","name":"Bogetorp Östra Harg","lat":58.472633,"lon":15.761928},{"id":"17467","name":"Gillberga Östra Skrukeby","lat":58.495579,"lon":15.853232},{"id":"17468","name":"Hagalund Linköping","lat":58.262208,"lon":15.492209},{"id":"17469","name":"Hamra Östra Skrukeby","lat":58.500121,"lon":15.823739},{"id":"17470","name":"Lövsätter Östra Skrukeby","lat":58.499671,"lon":15.82957},{"id":"17471","name":"Berga Östra Skrukeby","lat":58.497944,"lon":15.842808},{"id":"17472","name":"Tuna Nykil","lat":58.300302,"lon":15.492178},{"id":"17475","name":"Falla Horn","lat":57.879547,"lon":15.729103},{"id":"17476","name":"Valla Kättilstad","lat":58.103243,"lon":15.742477},{"id":"17477","name":"Aska vägskäl","lat":58.0871,"lon":15.76339},{"id":"17478","name":"Hembygdsgården Kisa","lat":57.986923,"lon":15.644957},{"id":"17479","name":"Axhultsvägen Västra Eneby","lat":57.99611,"lon":15.697909},{"id":"17480","name":"Biblioteket Kisa","lat":57.988129,"lon":15.633117},{"id":"17481","name":"Vårdcentralen Kisa","lat":57.992972,"lon":15.636425},{"id":"17482","name":"Linnégatan Kisa","lat":57.984657,"lon":15.629179},{"id":"17483","name":"Teknikringen","lat":58.393343,"lon":15.568126},{"id":"17488","name":"Stattdal","lat":57.726104,"lon":15.020756},{"id":"17489","name":"Havsjömålen","lat":57.719631,"lon":15.012322},{"id":"17490","name":"Lunnatorp","lat":57.688381,"lon":14.955195},{"id":"17491","name":"Dackestigen","lat":57.674743,"lon":14.966224},{"id":"17492","name":"Tullen","lat":57.671445,"lon":14.96992},{"id":"17497","name":"Vårdcentralen Ekholmen","lat":58.37834,"lon":15.68134},{"id":"17498","name":"Vårdcentralen Mjölby","lat":58.324448,"lon":15.122402},{"id":"17500","name":"Hårkrankeryd","lat":58.065016,"lon":14.932869},{"id":"17501","name":"Mjölbyvägen","lat":58.041832,"lon":14.978405},{"id":"17502","name":"Sparbanken","lat":58.035987,"lon":14.977034},{"id":"17503","name":"Junkaremålsskolan","lat":58.028193,"lon":14.992294},{"id":"17509","name":"Höglandssjukhuset","lat":57.666318,"lon":14.96719},{"id":"17510","name":"Gumnarydsvägen","lat":57.702616,"lon":14.993942},{"id":"17511","name":"Askerydsvägen","lat":57.738718,"lon":15.062087},{"id":"17514","name":"Fridhem","lat":58.012692,"lon":15.023216},{"id":"17515","name":"Sävsjön","lat":58.064081,"lon":14.936586},{"id":"17516","name":"Norra Ustorp","lat":58.058784,"lon":14.948572},{"id":"17517","name":"Mossebo","lat":58.024513,"lon":15.013921},{"id":"17521","name":"Tallboda C ny hållplats","lat":58.426897,"lon":15.677419},{"id":"17522","name":"Fabriksgatan","lat":58.039231,"lon":14.985864},{"id":"17523","name":"Åvik","lat":58.0747,"lon":14.910263},{"id":"17524","name":"Skäggetorp centrum","lat":58.426991,"lon":15.582601},{"id":"17525","name":"Skiffervägen","lat":58.468052,"lon":15.892212},{"id":"17527","name":"Rystad kyrka","lat":58.449937,"lon":15.711399},{"id":"17528","name":"Johannelunds centrum","lat":58.395736,"lon":15.661083},{"id":"17529","name":"Rydsvägens ändhållplats","lat":58.414186,"lon":15.571013},{"id":"17530","name":"Skogsfrid","lat":58.4041,"lon":15.59985},{"id":"17533","name":"Parkgatan","lat":58.407919,"lon":15.601932},{"id":"17535","name":"Ekhaga","lat":58.386127,"lon":15.675978},{"id":"17536","name":"Hagalundsvägen","lat":58.418462,"lon":15.655839},{"id":"17537","name":"Fridhemsvägen","lat":58.465657,"lon":15.889071},{"id":"17538","name":"Åby","lat":58.43434,"lon":15.64574},{"id":"17539","name":"Gatan","lat":58.482684,"lon":15.637445},{"id":"17540","name":"Nygård","lat":58.426697,"lon":15.589021},{"id":"17541","name":"Säbyvägen","lat":58.441517,"lon":15.577355},{"id":"17542","name":"Gillberga","lat":58.446369,"lon":15.564891},{"id":"17543","name":"Örminge","lat":58.39356,"lon":15.773107},{"id":"17544","name":"Bjärstad","lat":58.363793,"lon":15.824184},{"id":"17545","name":"Sjöliden","lat":58.494098,"lon":15.530645},{"id":"17546","name":"Hasselbacken","lat":58.4,"lon":15.785295},{"id":"17547","name":"Hornsberg","lat":58.402551,"lon":15.808315},{"id":"17551","name":"Brink","lat":58.444842,"lon":15.47572},{"id":"17552","name":"Nysäter","lat":58.446269,"lon":15.386675},{"id":"17553","name":"Västra Lund","lat":58.445352,"lon":15.383655},{"id":"17554","name":"Fredriksborg","lat":58.44356,"lon":15.376382},{"id":"17555","name":"Egeby","lat":58.433628,"lon":15.354985},{"id":"17556","name":"Unnerstad","lat":58.319915,"lon":15.376501},{"id":"17557","name":"Ekbacken","lat":58.294295,"lon":15.382728},{"id":"17558","name":"Söräng","lat":58.271417,"lon":15.37973},{"id":"17559","name":"Häggebo","lat":58.179472,"lon":15.399187},{"id":"17560","name":"Karlsborg","lat":58.129436,"lon":15.428374},{"id":"17561","name":"Fristad","lat":58.127731,"lon":15.431582},{"id":"17562","name":"Pilspetsvägen","lat":58.365499,"lon":15.55661},{"id":"17563","name":"Haga","lat":58.356133,"lon":15.54243},{"id":"17564","name":"Munketorp","lat":58.313785,"lon":15.491086},{"id":"17565","name":"Alviken","lat":58.256397,"lon":15.463202},