[{"id":"32","name":"Bräcke järnvägsstation","lat":62.750011,"lon":15.418181},{"id":"43","name":"Sollefteå ReseC","lat":63.166894,"lon":17.266292},{"id":"105","name":"Ånge bstn","lat":62.523485,"lon":15.659747},{"id":"130","name":"Sundsvall Centralstation","lat":62.387237,"lon":17.316055},{"id":"220","name":"Kramfors ReseC","lat":62.928233,"lon":17.779697},{"id":"242","name":"Timrå jvg","lat":62.486153,"lon":17.329916},{"id":"253","name":"Härnösand Central","lat":62.634786,"lon":17.928882},{"id":"278","name":"Långsele station","lat":63.17649,"lon":17.06721},{"id":"324","name":"Gällö järnvägsstation","lat":62.911291,"lon":15.229137},{"id":"325","name":"Ljungaverk jvg","lat":62.496139,"lon":16.068131},{"id":"327","name":"Prästmon","lat":63.077686,"lon":17.755313},{"id":"371","name":"Hassela","lat":62.110203,"lon":16.706544},{"id":"378","name":"Fränsta jvg","lat":62.496616,"lon":16.16778},{"id":"380","name":"Stöde jvg","lat":62.419959,"lon":16.598598},{"id":"399","name":"Vi centrum","lat":62.428017,"lon":17.416211},{"id":"411","name":"Ramsele bstn","lat":63.537084,"lon":16.469679},{"id":"413","name":"Ramvik","lat":62.81888,"lon":17.854652},{"id":"421","name":"Strömsund busstation","lat":63.849936,"lon":15.554989},{"id":"423","name":"Hammarstrand busstation","lat":63.108162,"lon":16.356164},{"id":"425","name":"Hammerdal busstation","lat":63.58282,"lon":15.350217},{"id":"454","name":"Stugun busstation","lat":63.167567,"lon":15.596582},{"id":"467","name":"Ullånger Bstn","lat":63.010934,"lon":18.188363},{"id":"489","name":"Bispgården Resecentrum","lat":63.027266,"lon":16.624751},{"id":"514","name":"Backe busstation","lat":63.810716,"lon":16.405257},{"id":"527","name":"Rossön södra","lat":63.921243,"lon":16.339341},{"id":"538","name":"Junsele bstn","lat":63.696236,"lon":16.879898},{"id":"653","name":"Pilgrimstad järnvägsstation","lat":62.955101,"lon":15.040348},{"id":"688","name":"Torpshammar","lat":62.472711,"lon":16.335401},{"id":"842","name":"Erikslund","lat":62.52739,"lon":15.91256},{"id":"1040","name":"Docksta Busstation","lat":63.054626,"lon":18.326529},{"id":"1089","name":"Indal","lat":62.578812,"lon":17.095772},{"id":"1216","name":"Kälarne Parken","lat":62.980641,"lon":16.085316},{"id":"1226","name":"Liden Skola","lat":62.701554,"lon":16.800922},{"id":"1308","name":"Solberg ICA","lat":63.788427,"lon":17.642271},{"id":"1332","name":"Sörbygden","lat":62.793661,"lon":16.213156},{"id":"1404","name":"Östergraninge","lat":62.983161,"lon":17.181876},{"id":"1569","name":"Örnsköldsvik norra","lat":63.306091,"lon":18.724879},{"id":"1570","name":"Örnsköldsvik ReseC","lat":63.287731,"lon":18.707879},{"id":"1584","name":"Husum ReseC","lat":63.34389,"lon":19.156282},{"id":"1589","name":"Höga Kusten Flygplats","lat":63.052827,"lon":17.744814},{"id":"48940","name":"Årskogen","lat":62.133009,"lon":17.338278},{"id":"48976","name":"Vändbrovägen","lat":62.107957,"lon":16.715173},{"id":"48989","name":"Ramsjö affären","lat":62.183407,"lon":15.649722},{"id":"49968","name":"Tullgatan","lat":62.388297,"lon":17.311835},{"id":"49970","name":"Sundsvalls västra jvstn","lat":62.390049,"lon":17.291582},{"id":"50472","name":"Plyfavägen","lat":62.101445,"lon":16.724227},{"id":"50661","name":"Viken","lat":62.160187,"lon":15.677008},{"id":"50662","name":"Holmsveden","lat":62.17103,"lon":15.671742},{"id":"50923","name":"Rättscentrum","lat":62.392087,"lon":17.296556},{"id":"50924","name":"Västra Allén","lat":62.392589,"lon":17.291553},{"id":"50974","name":"Travbanevägen","lat":62.412271,"lon":17.225074},{"id":"50980","name":"Mittuniversitetet","lat":62.393042,"lon":17.28444},{"id":"50981","name":"Västermalms skola","lat":62.3938,"lon":17.278947},{"id":"50982","name":"Kyrkogården","lat":62.396504,"lon":17.2685},{"id":"50988","name":"Granlo centrum","lat":62.402607,"lon":17.252975},{"id":"50989","name":"Högomsvägen","lat":62.405017,"lon":17.245546},{"id":"50990","name":"Bergsåkers IP","lat":62.410909,"lon":17.228377},{"id":"50991","name":"Selångergården","lat":62.412986,"lon":17.220077},{"id":"50992","name":"Bergsåkers centrum","lat":62.415298,"lon":17.215077},{"id":"50993","name":"Granlunda","lat":62.417974,"lon":17.21141},{"id":"50994","name":"Lillhällom","lat":62.419532,"lon":17.202793},{"id":"51027","name":"Björkå Bron","lat":63.176419,"lon":17.592598},{"id":"51031","name":"Bollstabruk bstn","lat":62.997134,"lon":17.67452},{"id":"51037","name":"Norrnäs","lat":63.424432,"lon":16.551425},{"id":"51060","name":"Graningebruk","lat":63.070115,"lon":16.941323},{"id":"51066","name":"Gålsjöbruk","lat":63.190493,"lon":17.816728},{"id":"51067","name":"Gärdal","lat":63.288875,"lon":18.447546},{"id":"51071","name":"Helgum fd Affären","lat":63.151751,"lon":16.953084},{"id":"51089","name":"Järkvissle","lat":62.808787,"lon":16.671893},{"id":"51096","name":"Kvarnån","lat":63.209431,"lon":16.835297},{"id":"51102","name":"Graninge väg 87/331","lat":63.075624,"lon":16.99174},{"id":"51113","name":"Långliden","lat":62.908346,"lon":16.701939},{"id":"51118","name":"Lappkroken","lat":63.073603,"lon":16.992014},{"id":"51136","name":"Nordsjö Långsele","lat":63.192405,"lon":17.029593},{"id":"51142","name":"Nässe","lat":63.187978,"lon":17.1156},{"id":"51145","name":"Nordankäl","lat":63.652256,"lon":16.46409},{"id":"51148","name":"Ovanmo","lat":63.504985,"lon":16.463773},{"id":"51157","name":"Rådom","lat":63.220239,"lon":16.855349},{"id":"51196","name":"Sollefteå Sjukhus","lat":63.174312,"lon":17.233942},{"id":"51200","name":"Torsboda E4","lat":62.529309,"lon":17.485746},{"id":"51209","name":"Timrå E4","lat":62.488287,"lon":17.323448},{"id":"51211","name":"Timrå torget","lat":62.486597,"lon":17.325341},{"id":"51236","name":"Ärtrik","lat":63.28813,"lon":16.708918},{"id":"51240","name":"Överhörnäs","lat":63.287153,"lon":18.555602},{"id":"51252","name":"Klärke-Dacke","lat":62.734527,"lon":16.782042},{"id":"51253","name":"Boda","lat":62.869965,"lon":16.666994},{"id":"51254","name":"Bodaskog","lat":62.829714,"lon":16.680101},{"id":"51255","name":"Sillre","lat":62.76813,"lon":16.726074},{"id":"51256","name":"Flygge","lat":62.678548,"lon":16.832009},{"id":"51261","name":"Haffsta","lat":63.284007,"lon":18.538093},{"id":"51266","name":"Flo","lat":63.201267,"lon":17.115505},{"id":"51267","name":"Nyland","lat":63.194389,"lon":16.981593},{"id":"51268","name":"Gransjö","lat":63.172418,"lon":16.91997},{"id":"51269","name":"Mo","lat":63.252452,"lon":16.829084},{"id":"51270","name":"Ytterås","lat":63.328578,"lon":16.639126},{"id":"51271","name":"Utanede","lat":63.388705,"lon":16.56712},{"id":"51272","name":"Husnäs","lat":63.182631,"lon":16.872935},{"id":"51273","name":"Västby","lat":63.243362,"lon":16.779346},{"id":"51274","name":"Holmsta","lat":63.278251,"lon":16.701994},{"id":"51275","name":"Gideåberg","lat":63.307121,"lon":16.638566},{"id":"51276","name":"Strandmon","lat":63.376096,"lon":16.543855},{"id":"51278","name":"Ramneå","lat":63.435637,"lon":16.528657},{"id":"51284","name":"Holm","lat":63.173529,"lon":17.627946},{"id":"51285","name":"Strinne V","lat":63.167076,"lon":17.417892},{"id":"51296","name":"Butsjöböle","lat":63.301862,"lon":18.37108},{"id":"51299","name":"Grätnäs","lat":63.277215,"lon":18.042452},{"id":"51300","name":"Ossågen","lat":63.246559,"lon":17.917648},{"id":"51326","name":"Sunnås","lat":62.642537,"lon":16.920457},{"id":"51339","name":"Jansjö vägskäl","lat":63.857597,"lon":16.387933},{"id":"51349","name":"Hallsta","lat":62.603604,"lon":17.02793},{"id":"51353","name":"Granvåg fd Bohlins","lat":63.181912,"lon":17.210561},{"id":"51355","name":"Skedomsmon väg 335","lat":63.175227,"lon":17.3045},{"id":"51358","name":"Lien väg 87","lat":63.090037,"lon":16.464007},{"id":"51359","name":"Österede Snickeriet","lat":63.035848,"lon":16.555813},{"id":"51370","name":"Nipan","lat":63.176044,"lon":17.270883},{"id":"51614","name":"Fångsjöbacken","lat":63.047898,"lon":16.76679},{"id":"51615","name":"Bispgården Fors kyrka","lat":63.014386,"lon":16.654521},{"id":"51616","name":"Krångedeforsen","lat":63.147162,"lon":16.086101},{"id":"51617","name":"Selsviken","lat":63.180366,"lon":15.935806},{"id":"51618","name":"Strånäset östra","lat":63.160391,"lon":15.787586},{"id":"51619","name":"Stugun Torvalla","lat":63.181545,"lon":15.506624},{"id":"51620","name":"Lillsjöhögen västra","lat":63.192672,"lon":15.171632},{"id":"51659","name":"Silje","lat":62.425546,"lon":17.180095},{"id":"51670","name":"Lv335/Gärdal Vattenverk","lat":63.289408,"lon":18.425517},{"id":"51688","name":"Lv335/Prästbordet","lat":63.299636,"lon":18.317175},{"id":"51689","name":"Lv335/Varpvägen","lat":63.295792,"lon":18.300942},{"id":"51690","name":"Lv335/By","lat":63.304104,"lon":18.334025},{"id":"51691","name":"Snippersjön","lat":63.291971,"lon":18.391363},{"id":"51692","name":"Haffsta 228","lat":63.28639,"lon":18.529902},{"id":"51693","name":"Gärdal 110","lat":63.293052,"lon":18.48158},{"id":"51695","name":"Gevåg Västra väg 87","lat":63.146047,"lon":16.32592},{"id":"51696","name":"Krokvåg väg 87","lat":63.150352,"lon":16.272001},{"id":"51697","name":"Ammer väg 87","lat":63.153791,"lon":16.242794},{"id":"51698","name":"Döviken väg 87","lat":63.148475,"lon":16.178467},{"id":"51700","name":"Krångede väg 87","lat":63.146778,"lon":16.14675},{"id":"51701","name":"Marsand","lat":63.153158,"lon":15.983594},{"id":"51702","name":"Strömsnäs Föreningshus","lat":63.173731,"lon":15.860198},{"id":"51703","name":"Mörtån","lat":63.166012,"lon":15.686839},{"id":"51704","name":"Stugun Sörsia","lat":63.161939,"lon":15.582712},{"id":"51705","name":"Näverede vägskäl","lat":63.193714,"lon":15.369699},{"id":"51714","name":"Koviken","lat":63.117628,"lon":15.999823},{"id":"51715","name":"Borglunda","lat":63.14468,"lon":15.898857},{"id":"51716","name":"Höglunda vägskäl väg 371","lat":63.148743,"lon":15.83984},{"id":"51717","name":"Bomsund","lat":63.149608,"lon":15.733282},{"id":"51719","name":"Bispgården BTC","lat":63.023867,"lon":16.633741},{"id":"51724","name":"Vågsäter","lat":63.12631,"lon":15.973322},{"id":"51725","name":"Höglunda Harbäcken","lat":63.150763,"lon":15.77811},{"id":"51726","name":"Stugun Strandbodarna","lat":63.157458,"lon":15.671854},{"id":"51727","name":"Bispgården Nipvägen","lat":63.028307,"lon":16.620098},{"id":"51728","name":"Svarthålsforsen","lat":63.032825,"lon":16.588868},{"id":"51729","name":"Hammarstrand Skogen väg 87","lat":63.130255,"lon":16.352756},{"id":"51730","name":"Döda fallet","lat":63.055966,"lon":16.52228},{"id":"51731","name":"Gevåg Östra väg 87","lat":63.138174,"lon":16.341622},{"id":"51732","name":"Boback vägskäl","lat":63.147594,"lon":16.304724},{"id":"51733","name":"Krokvåg västra vägskäl","lat":63.150881,"lon":16.258163},{"id":"51734","name":"Ammer Travbana","lat":63.157204,"lon":16.207944},{"id":"51735","name":"Krångede vägskäl väg 87","lat":63.144871,"lon":16.117633},{"id":"51736","name":"Gammelänge kraftverk","lat":63.147786,"lon":16.159932},{"id":"51737","name":"Krångede Simolles","lat":63.145325,"lon":16.098023},{"id":"51738","name":"Strömsnäs Holmgrens","lat":63.173519,"lon":15.852673},{"id":"51739","name":"Fiskviken väg 87","lat":63.170924,"lon":15.818943},{"id":"51740","name":"Nybodarna","lat":63.160037,"lon":15.741967},{"id":"51741","name":"Kvarnriset","lat":63.166141,"lon":15.671099},{"id":"51742","name":"Stugun Änge","lat":63.166383,"lon":15.645138},{"id":"51743","name":"Stugun Jämtlamell","lat":63.167044,"lon":15.627072},{"id":"51744","name":"Stugun kyrkan","lat":63.167802,"lon":15.616826},{"id":"51745","name":"Stugun Kvarnån","lat":63.169328,"lon":15.548951},{"id":"51746","name":"Stugun Parken","lat":63.174001,"lon":15.538625},{"id":"51747","name":"Stugun Lybäck Västra","lat":63.179173,"lon":15.522395},{"id":"51748","name":"Stugun Sundet","lat":63.19069,"lon":15.446302},{"id":"51749","name":"Dusnäsudden","lat":63.194216,"lon":15.409107},{"id":"51750","name":"Lillsjöhögen Näset","lat":63.19113,"lon":15.192266},{"id":"51751","name":"Lillsjöhögen östra","lat":63.191453,"lon":15.200721},{"id":"51752","name":"Åsens vägskäl","lat":63.196202,"lon":15.09663},{"id":"51758","name":"Stugun Lybäck Östra","lat":63.175668,"lon":15.533051},{"id":"51759","name":"Utanede Lokarna","lat":62.971633,"lon":16.673787},{"id":"51760","name":"Bispgården Ocklinds väg 86","lat":63.005508,"lon":16.668555},{"id":"51761","name":"Västerede byvägen","lat":63.045758,"lon":16.539464},{"id":"51762","name":"Västerede Svedjan byvägen","lat":63.050437,"lon":16.533393},{"id":"51763","name":"Västerede Samsen byvägen","lat":63.039269,"lon":16.55015},{"id":"51875","name":"Östavall","lat":62.428727,"lon":15.475718},{"id":"51890","name":"Kölsillre","lat":62.397661,"lon":15.210249},{"id":"51999","name":"Skogsvägen","lat":62.487629,"lon":17.323686},{"id":"52100","name":"Hälledals Södra","lat":62.805229,"lon":17.866254},{"id":"52134","name":"Birsta E4","lat":62.444769,"lon":17.338405},{"id":"52205","name":"Kovlands Bussterminal","lat":62.47065,"lon":17.156924},{"id":"52460","name":"Hällom","lat":62.420105,"lon":17.195678},{"id":"52461","name":"Väg 86 infart Kvarsätt","lat":62.42317,"lon":17.18529},{"id":"52462","name":"Väg 86 Hällomsberget","lat":62.429242,"lon":17.176508},{"id":"52463","name":"Siljeåsen","lat":62.435889,"lon":17.174043},{"id":"52464","name":"Väg 86 infart Västmarken","lat":62.440304,"lon":17.172231},{"id":"52465","name":"Silje Norra","lat":62.442898,"lon":17.169444},{"id":"52466","name":"Silje N Östanå","lat":62.448275,"lon":17.16562},{"id":"52467","name":"Östanå","lat":62.451122,"lon":17.164374},{"id":"52468","name":"Östanå Tösta","lat":62.454989,"lon":17.162689},{"id":"52469","name":"Väg 86 Infart Tösta","lat":62.457185,"lon":17.161956},{"id":"52470","name":"Väg 86 infart Sättna","lat":62.463685,"lon":17.158025},{"id":"52480","name":"Väg 86 Gruvberget","lat":62.510175,"lon":17.146133},{"id":"52481","name":"Strömås","lat":62.519,"lon":17.146704},{"id":"52482","name":"Strömås Norra","lat":62.526307,"lon":17.152044},{"id":"52483","name":"Krånge","lat":62.533578,"lon":17.149011},{"id":"52484","name":"Krånge Norra","lat":62.542955,"lon":17.13303},{"id":"52485","name":"Väg 86 infart Säter","lat":62.545353,"lon":17.129989},{"id":"52486","name":"Kävstabron","lat":62.553321,"lon":17.121497},{"id":"52487","name":"Harvom","lat":62.567758,"lon":17.114977},{"id":"52763","name":"Lunde","lat":62.87619,"lon":17.857467},{"id":"52802","name":"Naturum Höga Kusten","lat":63.073536,"lon":18.356295},{"id":"52808","name":"Hornöberget E4","lat":62.806913,"lon":17.952334},{"id":"52817","name":"Sjukhuset Rv 87","lat":63.171249,"lon":17.230634},{"id":"52822","name":"Näsåker skolan","lat":63.443797,"lon":16.893802},{"id":"52823","name":"Offer","lat":63.147263,"lon":17.75681},{"id":"52824","name":"Köpmangatan Långsele","lat":63.178102,"lon":17.06255},{"id":"52825","name":"Grillom","lat":63.151437,"lon":17.688272},{"id":"52860","name":"Långvattnet Lv 346","lat":63.729325,"lon":16.659677},{"id":"52900","name":"Örbäck","lat":63.171355,"lon":17.035872},{"id":"52908","name":"Långsele Ö/Rv 87","lat":63.172516,"lon":17.087285},{"id":"52912","name":"Örbäck viadukten","lat":63.161549,"lon":17.026367},{"id":"52913","name":"Para","lat":63.174179,"lon":17.523929},{"id":"52919","name":"Kungsgatan/Torget","lat":63.168069,"lon":17.267244},{"id":"52920","name":"Norrledinge Rv 87","lat":63.078377,"lon":16.89229},{"id":"52921","name":"Bäckaskog Rv 87","lat":63.134028,"lon":17.012898},{"id":"52922","name":"Österforse vsk 87/331","lat":63.142576,"lon":17.019541},{"id":"52923","name":"Österforse Åkeriet","lat":63.14574,"lon":17.021002},{"id":"52924","name":"Österforse fd kiosk","lat":63.155156,"lon":17.023797},{"id":"52925","name":"Örbäck S","lat":63.166527,"lon":17.030725},{"id":"52942","name":"Edsele Affären","lat":63.403015,"lon":16.544866},{"id":"52943","name":"Österås","lat":63.211416,"lon":17.187557},{"id":"52961","name":"Circle K","lat":63.171051,"lon":17.246726},{"id":"52972","name":"Trängschakten Rv 90","lat":63.175788,"lon":17.274881},{"id":"52986","name":"Drömme vsk lv 335","lat":63.267931,"lon":18.250647},{"id":"52989","name":"Själevad E4","lat":63.287251,"lon":18.60998},{"id":"53022","name":"Sidensjö vsk Lv 335","lat":63.292811,"lon":18.292746},{"id":"53039","name":"Bringen","lat":63.291997,"lon":18.466023},{"id":"53074","name":"Bjästa E4 södra utfarten","lat":63.206643,"lon":18.488428},{"id":"53076","name":"Husum E4","lat":63.347709,"lon":19.142412},{"id":"53143","name":"Kullsta skolan","lat":63.105411,"lon":16.348249},{"id":"53164","name":"Strömsund Lövberga","lat":63.965867,"lon":15.852654},{"id":"53168","name":"Renålandet","lat":63.984651,"lon":15.269231},{"id":"53169","name":"Bredkälsflon","lat":63.844608,"lon":15.391591},{"id":"53170","name":"Bredkälsflon mot Svaningen","lat":63.848745,"lon":15.401389},{"id":"53172","name":"Allviken","lat":63.980142,"lon":15.473827},{"id":"53173","name":"Strand östra","lat":63.897429,"lon":15.531718},{"id":"53179","name":"Sör-Edsta","lat":63.709187,"lon":16.42975},{"id":"53181","name":"Rudsjö","lat":63.846072,"lon":16.061802},{"id":"53182","name":"Österkälen","lat":63.912071,"lon":15.738173},{"id":"53183","name":"Hössjön","lat":63.871569,"lon":15.874103},{"id":"53184","name":"Vängel","lat":63.714979,"lon":16.218461},{"id":"53185","name":"Ragunda vägskäl","lat":63.060476,"lon":16.398573},{"id":"53187","name":"Näsviken Campingen","lat":63.848164,"lon":15.536995},{"id":"53188","name":"Öhn","lat":63.891906,"lon":15.454289},{"id":"53190","name":"Bredkälen","lat":63.844609,"lon":15.338911},{"id":"53191","name":"Flykälen","lat":63.858214,"lon":15.01602},{"id":"53197","name":"Tullingsås E 45","lat":63.818936,"lon":15.517578},{"id":"53198","name":"Hallviken","lat":63.730797,"lon":15.487405},{"id":"53199","name":"Gisselås vägskäl","lat":63.676077,"lon":15.396075},{"id":"53200","name":"Fagerdal norra E45","lat":63.671689,"lon":15.39224},{"id":"53201","name":"Hammerdal Bye","lat":63.605417,"lon":15.35848},{"id":"53202","name":"Hammerdal Åsen","lat":63.575706,"lon":15.353109},{"id":"53203","name":"Fyrås Trä","lat":63.53733,"lon":15.353798},{"id":"53204","name":"Lorås","lat":63.496965,"lon":15.255458},{"id":"53205","name":"Ollsta","lat":63.434719,"lon":15.123571},{"id":"53206","name":"Gremmelgård","lat":63.396073,"lon":15.003428},{"id":"53217","name":"Yxskaftkälen västra","lat":63.783951,"lon":15.216933},{"id":"53218","name":"Gåxsjö Nyland","lat":63.700447,"lon":15.166095},{"id":"53220","name":"Gåxsjö Föllinge vägskäl","lat":63.66916,"lon":15.099922},{"id":"53221","name":"Hammerdal Ede","lat":63.560628,"lon":15.398742},{"id":"53222","name":"Sikås","lat":63.627124,"lon":15.240434},{"id":"53228","name":"Fyrås","lat":63.522881,"lon":15.354851},{"id":"53229","name":"Solberg","lat":63.511756,"lon":15.37206},{"id":"53230","name":"Ragunda Kilen","lat":63.018758,"lon":16.577235},{"id":"53231","name":"Storhögen","lat":63.371344,"lon":15.186543},{"id":"53232","name":"Jämtlands Nyby","lat":63.328273,"lon":15.178567},{"id":"53234","name":"Fagerland","lat":63.414646,"lon":15.179482},{"id":"53235","name":"Skyttmon","lat":63.41408,"lon":15.602631},{"id":"53236","name":"Selsålandet","lat":63.261376,"lon":15.890449},{"id":"53237","name":"Överammer","lat":63.214109,"lon":15.952815},{"id":"53238","name":"Borgvattnet","lat":63.422935,"lon":15.825682},{"id":"53239","name":"Köttsjön","lat":63.339409,"lon":15.993065},{"id":"53240","name":"Halån vägskäl","lat":63.098974,"lon":16.452129},{"id":"53241","name":"Ragunda kyrka vägskäl","lat":63.11353,"lon":16.371382},{"id":"53242","name":"Krångede Döviken","lat":63.151213,"lon":16.167393},{"id":"53243","name":"Krångede byvägen","lat":63.146119,"lon":16.121474},{"id":"53244","name":"Strömsnäs östra vägskäl","lat":63.173017,"lon":15.874252},{"id":"53245","name":"Bräcke Lugnvik","lat":62.9265,"lon":15.615847},{"id":"53246","name":"Ansjö","lat":62.962286,"lon":16.102406},{"id":"53247","name":"Kälarne Västanede vägskäl","lat":62.989328,"lon":16.093013},{"id":"53248","name":"Västanede Skola","lat":63.008624,"lon":16.084951},{"id":"53249","name":"Gastsjön","lat":62.967397,"lon":15.875272},{"id":"53250","name":"Dockmyr","lat":62.953841,"lon":15.738342},{"id":"53251","name":"Bräcke Nyhem södra","lat":62.888838,"lon":15.610154},{"id":"53252","name":"Grötingen","lat":62.852436,"lon":15.482452},{"id":"53253","name":"Näsets vägskäl","lat":63.060027,"lon":16.436098},{"id":"53254","name":"Hannesforsen","lat":63.013582,"lon":16.624999},{"id":"53255","name":"Borglunda Verkstan","lat":63.142088,"lon":15.910232},{"id":"53256","name":"Sättsjön","lat":63.102076,"lon":15.751839},{"id":"53257","name":"Fugelsta vägskäl","lat":63.039055,"lon":15.762726},{"id":"53258","name":"Västerövsjö","lat":63.039192,"lon":15.924172},{"id":"53259","name":"Hällesjö","lat":62.907813,"lon":16.233918},{"id":"53260","name":"Ljungå","lat":62.757843,"lon":16.310448},{"id":"53261","name":"Örsviken","lat":62.704508,"lon":16.363756},{"id":"53262","name":"Albacken","lat":62.779667,"lon":16.009512},{"id":"53263","name":"Gråsjö","lat":62.768948,"lon":15.756213},{"id":"53264","name":"Hemsjö","lat":62.717101,"lon":15.600485},{"id":"53265","name":"Bröckling","lat":62.724548,"lon":15.536698},{"id":"53266","name":"Bygget","lat":62.729262,"lon":15.487087},{"id":"53267","name":"Sösjö","lat":62.764573,"lon":15.498177},{"id":"53268","name":"Gimdalen östra","lat":62.840594,"lon":15.678995},{"id":"53270","name":"Strandåker","lat":62.771057,"lon":16.086055},{"id":"53271","name":"Böle Södra","lat":62.991104,"lon":16.642284},{"id":"53272","name":"Västeråsen","lat":62.981212,"lon":16.636933},{"id":"53273","name":"Österåsen","lat":62.968659,"lon":16.641742},{"id":"53274","name":"Bispgården Brännan","lat":62.944716,"lon":16.641},{"id":"53275","name":"Kompaniet","lat":63.180965,"lon":15.554487},{"id":"53276","name":"Mårdsjön","lat":63.299253,"lon":15.599554},{"id":"53277","name":"Öravattnet","lat":63.346715,"lon":15.57297},{"id":"53278","name":"Lappviken","lat":63.221603,"lon":15.345615},{"id":"53279","name":"Bensjö","lat":62.702781,"lon":15.462503},{"id":"53280","name":"Bräcke Sjöändan","lat":62.721115,"lon":15.446377},{"id":"53281","name":"Mordviken vägskäl","lat":62.788991,"lon":15.379599},{"id":"53282","name":"Gimån","lat":62.814449,"lon":15.355207},{"id":"53284","name":"Stavre E14","lat":62.829225,"lon":15.317153},{"id":"53285","name":"Mälgåsen E14","lat":62.849065,"lon":15.32344},{"id":"53286","name":"Grimnäs vägskäl","lat":62.888972,"lon":15.27326},{"id":"53287","name":"Gällö busstation","lat":62.915607,"lon":15.235998},{"id":"53288","name":"Gällö Sörviken","lat":62.944888,"lon":15.20269},{"id":"53289","name":"Dalhemsviken","lat":62.951026,"lon":15.162234},{"id":"53290","name":"Pilgrimstad Kvarnvägen","lat":62.957473,"lon":15.037626},{"id":"53310","name":"Torsäng","lat":62.965078,"lon":15.176531},{"id":"53311","name":"Fjällsta","lat":62.971037,"lon":15.169029},{"id":"53312","name":"Tavnäs","lat":62.975872,"lon":15.201401},{"id":"53313","name":"Gällö Björsjö","lat":63.017416,"lon":15.21304},{"id":"53314","name":"Rissna","lat":63.058367,"lon":15.338308},{"id":"53316","name":"Bräcke Grönviken","lat":62.763446,"lon":15.313486},{"id":"53317","name":"Sidsjö","lat":62.731197,"lon":15.156016},{"id":"53318","name":"Hunge","lat":62.754098,"lon":15.071221},{"id":"53319","name":"Våle vägskäl","lat":62.773025,"lon":15.012665},{"id":"53375","name":"Fåssjödal vägskäl/väg 314","lat":62.184624,"lon":15.144189},{"id":"53376","name":"Minne norra","lat":62.211071,"lon":15.162059},{"id":"53377","name":"Flor vägskäl","lat":62.125705,"lon":15.026732},{"id":"53461","name":"Moarna Bispfors","lat":62.967382,"lon":16.674903},{"id":"53467","name":"Jättes","lat":62.928074,"lon":16.698013},{"id":"53478","name":"Bispfors Byn","lat":62.997984,"lon":16.676799},{"id":"53525","name":"Gällö Viken","lat":62.913691,"lon":15.187768},{"id":"53544","name":"Herrevadsströmmen","lat":62.849197,"lon":15.024866},{"id":"53545","name":"Revsund Förberg vägskäl","lat":62.901063,"lon":15.122715},{"id":"53546","name":"Hjortbron","lat":62.908384,"lon":15.1686},{"id":"53558","name":"Långkälen","lat":63.35663,"lon":15.203083},{"id":"53561","name":"Lomåsen","lat":63.7321,"lon":15.05507},{"id":"53562","name":"Näsmoarna","lat":63.043193,"lon":16.511077},{"id":"53638","name":"Stugun Eriksberg","lat":63.163456,"lon":15.566665},{"id":"53718","name":"Grimnäs","lat":62.876711,"lon":15.274328},{"id":"53720","name":"Fanbyn","lat":62.963452,"lon":15.120194},{"id":"53721","name":"Bräcke Eriksberg","lat":62.795919,"lon":15.36868},{"id":"53764","name":"Sörviken vägskäl","lat":62.938659,"lon":15.193819},{"id":"53820","name":"Nyby vägskäl","lat":63.329041,"lon":15.185896},{"id":"53861","name":"Södra Öhn","lat":63.871077,"lon":15.368966},{"id":"53864","name":"Strömbacka","lat":63.860659,"lon":15.567501},{"id":"53866","name":"Helgeåkilen","lat":63.456579,"lon":15.279851},{"id":"53867","name":"Högarna","lat":63.416442,"lon":15.249355},{"id":"53885","name":"Silsjönäs","lat":63.764817,"lon":16.401792},{"id":"53897","name":"Pålgård","lat":63.113727,"lon":16.384739},{"id":"53900","name":"Sunnestbyn","lat":62.881952,"lon":15.109911},{"id":"53901","name":"Björnön","lat":62.854813,"lon":15.06629},{"id":"53902","name":"Svedjelandet","lat":63.036813,"lon":15.844335},{"id":"53903","name":"Österövsjö","lat":63.02306,"lon":15.977925},{"id":"53904","name":"Håsjö Valla","lat":63.024231,"lon":16.270937},{"id":"53905","name":"Håsjöbyn","lat":63.01566,"lon":16.306164},{"id":"53906","name":"Östansjö","lat":63.01246,"lon":16.334836},{"id":"53907","name":"Torsgård","lat":63.198923,"lon":15.445166},{"id":"53908","name":"Krokvåg östra vägskäl väg 87","lat":63.150548,"lon":16.283351},{"id":"53910","name":"Lillkrog vägskäl","lat":62.719794,"lon":15.577889},{"id":"53911","name":"Lillkrog","lat":62.709379,"lon":15.590319},{"id":"53912","name":"Åsberget","lat":62.754879,"lon":15.654021},{"id":"53913","name":"Ulvsjö","lat":62.905175,"lon":15.671083},{"id":"53915","name":"Söderalan","lat":62.77161,"lon":16.002956},{"id":"53916","name":"Västanbäck","lat":62.791535,"lon":16.159867},{"id":"53917","name":"Färsån","lat":63.211033,"lon":16.097591},{"id":"53985","name":"Revsund kyrka","lat":62.900442,"lon":15.127981},{"id":"53990","name":"Stugun Brynjegård","lat":63.280339,"lon":15.3711},{"id":"54010","name":"Pilgrimstad Svedje","lat":62.979872,"lon":15.002918},{"id":"54011","name":"Pilgrimstad Nedersvedje","lat":62.976982,"lon":15.00915},{"id":"54012","name":"Berguvberget","lat":62.970411,"lon":15.019779},{"id":"54059","name":"Gålön vägskäl","lat":62.997972,"lon":15.197648},{"id":"54070","name":"Löningsberg","lat":62.684198,"lon":15.306858},{"id":"54101","name":"Bräcke Mjösjö","lat":63.036962,"lon":15.249594},{"id":"54110","name":"Anviken","lat":62.943683,"lon":15.081794},{"id":"54111","name":"Fanbyn Norra vägskäl","lat":62.955076,"lon":15.102873},{"id":"54112","name":"Fanbyn Östra vägskäl","lat":62.954771,"lon":15.136102},{"id":"54139","name":"Orrskäret","lat":62.801648,"lon":15.001761},{"id":"54140","name":"Sikås affären","lat":63.626204,"lon":15.210341},{"id":"54147","name":"Västanede Håsjö Nya kyrka","lat":63.005244,"lon":16.088669},{"id":"54155","name":"Bräcke Sporthallen","lat":62.750856,"lon":15.421908},{"id":"54160","name":"Boberg vägskäl","lat":63.339767,"lon":15.761793},{"id":"54161","name":"Köttsjön vägskäl","lat":63.25324,"lon":15.903743},{"id":"54162","name":"Henningskälen","lat":63.865771,"lon":15.128085},{"id":"54163","name":"Hammerdal Grevåkerskolan","lat":63.583017,"lon":15.35561},{"id":"54164","name":"Änge Gård Mårdsjön","lat":63.302255,"lon":15.573689},{"id":"54166","name":"Söderalan vägskäl","lat":62.778029,"lon":15.986801},{"id":"54167","name":"Strandåker vägskäl","lat":62.78339,"lon":16.069109},{"id":"54168","name":"Bräcke Gymnasieskola","lat":62.754544,"lon":15.406047},{"id":"54173","name":"Mordviken västra","lat":62.81284,"lon":15.360036},{"id":"54174","name":"Bräcke Ån","lat":62.802536,"lon":15.361466},{"id":"54175","name":"Bräcke Folkets Hus","lat":62.749695,"lon":15.420729},{"id":"54176","name":"Gällö Sågvägen","lat":62.917782,"lon":15.239124},{"id":"54177","name":"Fanbyn Erskes","lat":62.962924,"lon":15.129943},{"id":"54178","name":"Fanbyn Rappsta","lat":62.956613,"lon":15.134799},{"id":"54179","name":"Gällö OK","lat":62.916754,"lon":15.253628},{"id":"54180","name":"Gällö Industriområde","lat":62.908376,"lon":15.263386},{"id":"54195","name":"Bräcke Polisstation","lat":62.752547,"lon":15.416974},{"id":"54206","name":"Bräcke Rönningsvägen","lat":62.747257,"lon":15.425007},{"id":"54209","name":"Bräcke västra","lat":62.756137,"lon":15.414343},{"id":"54210","name":"Brattbyn","lat":62.888989,"lon":15.114089},{"id":"54212","name":"Stavre Bygdegården E14","lat":62.83146,"lon":15.317626},{"id":"54213","name":"Anviken västra","lat":62.946863,"lon":15.060086},{"id":"54214","name":"Kälarne Skogsvägen","lat":62.969597,"lon":16.094101},{"id":"54215","name":"Stavre Östra","lat":62.826142,"lon":15.320932},{"id":"54216","name":"Mälgsjön","lat":62.843715,"lon":15.322605},{"id":"54217","name":"Långnäset","lat":62.895978,"lon":15.263635},{"id":"54218","name":"Gastsjön Bygget","lat":62.969513,"lon":15.793918},{"id":"54219","name":"Hammerdal OKQ8","lat":63.591322,"lon":15.354995},{"id":"54220","name":"Kälarne Södervägen Norra","lat":62.982339,"lon":16.088823},{"id":"54221","name":"Bräcke Nyhem","lat":62.895725,"lon":15.621199},{"id":"54222","name":"Hunge Östra","lat":62.750984,"lon":15.086797},{"id":"54228","name":"Mälgsand","lat":62.853382,"lon":15.29093},{"id":"54229","name":"Revsund","lat":62.895995,"lon":15.119273},{"id":"54230","name":"Revsund Backen","lat":62.893769,"lon":15.11555},{"id":"54231","name":"Revsund Sveiby","lat":62.891471,"lon":15.115309},{"id":"54232","name":"Revsund sågen","lat":62.900988,"lon":15.118389},{"id":"54233","name":"Grimnäs Nygård","lat":62.88538,"lon":15.272598},{"id":"54234","name":"Grimnäs Backen","lat":62.880295,"lon":15.275324},{"id":"54235","name":"Grimnäs Mellgård","lat":62.873932,"lon":15.272629},{"id":"54236","name":"Östergrimnäs","lat":62.869524,"lon":15.271982},{"id":"54237","name":"Stavre Nyäng","lat":62.839244,"lon":15.301364},{"id":"54238","name":"Sörviken Tjärnsved","lat":62.956568,"lon":15.197996},{"id":"54239","name":"Sörviken Bläkatjärnen","lat":62.950635,"lon":15.201764},{"id":"54240","name":"Torsäng södra","lat":62.962132,"lon":15.181995},{"id":"54241","name":"Sörviken norra","lat":62.960286,"lon":15.190726},{"id":"54242","name":"Pilgrimstad","lat":62.956416,"lon":15.0412},{"id":"54243","name":"Pilgrimstad Bällstavägen","lat":62.952852,"lon":15.047559},{"id":"54244","name":"Gimdalen Västra","lat":62.844214,"lon":15.673954},{"id":"54245","name":"Kälarne Flatmo","lat":62.972759,"lon":16.091904},{"id":"54246","name":"Svartviken","lat":62.697602,"lon":15.427091},{"id":"54247","name":"Stavre","lat":62.831694,"lon":15.310048},{"id":"54248","name":"Kälarne Ånäsvägen","lat":62.975195,"lon":16.089799},{"id":"54249","name":"Kälarne Södervägen Södra","lat":62.977555,"lon":16.089526},{"id":"54250","name":"Västanede Svedje vägskäl","lat":63.010864,"lon":16.100075},{"id":"54251","name":"Edsved vändplan","lat":62.84658,"lon":15.012528},{"id":"54252","name":"Hemsjöviken","lat":62.77888,"lon":16.182338},{"id":"54253","name":"Bräcke Stugusjön","lat":62.674776,"lon":15.340353},{"id":"54254","name":"Gällöflon","lat":62.924326,"lon":15.228801},{"id":"54255","name":"Gällöberget","lat":62.928029,"lon":15.223787},{"id":"54256","name":"Guldkusten","lat":62.932312,"lon":15.21813},{"id":"54257","name":"Nygårdarna","lat":62.935326,"lon":15.207416},{"id":"54258","name":"Norra Sörviken E14","lat":62.944382,"lon":15.175183},{"id":"54259","name":"Stavre fd skolan","lat":62.830177,"lon":15.312389},{"id":"54261","name":"Nybroviken","lat":62.778895,"lon":16.082878},{"id":"54262","name":"Laxvik","lat":63.043505,"lon":15.28797},{"id":"54263","name":"Gullboviken","lat":62.663462,"lon":15.061723},{"id":"54264","name":"Marsätt","lat":62.98093,"lon":15.125957},{"id":"54265","name":"Samsta","lat":63.009148,"lon":15.084456},{"id":"54266","name":"Ede","lat":63.047946,"lon":15.092253},{"id":"54271","name":"Hållborgen","lat":62.956385,"lon":15.00177},{"id":"54272","name":"Sjöändansved","lat":62.685869,"lon":15.489624},{"id":"54273","name":"Mordviken E14","lat":62.784839,"lon":15.3834},{"id":"54274","name":"Stensmyran E14","lat":62.776823,"lon":15.391251},{"id":"54275","name":"Strömsund Myrgatan","lat":63.851267,"lon":15.561888},{"id":"54282","name":"Kärrnäset Norra vägskäl","lat":63.958463,"lon":15.240102},{"id":"54355","name":"Stensån","lat":62.236321,"lon":15.173792},{"id":"54359","name":"Flor","lat":62.136125,"lon":15.053035},{"id":"54391","name":"Minne södra","lat":62.207135,"lon":15.156993},{"id":"54485","name":"Strömsnäs","lat":63.171228,"lon":15.861543},{"id":"54486","name":"Kvarnberget","lat":63.047114,"lon":16.500161},{"id":"54487","name":"Krokvåg byvägen","lat":63.15169,"lon":16.285155},{"id":"54488","name":"Höglunda","lat":63.150081,"lon":15.864081},{"id":"54489","name":"Bräcke Nyhem (vägen från Gimdalen)","lat":62.888531,"lon":15.615759},{"id":"54490","name":"Edesmoarna","lat":63.028009,"lon":16.527679},{"id":"54491","name":"Överammer norra","lat":63.216216,"lon":15.945091},{"id":"54492","name":"Selets vägskäl","lat":63.29651,"lon":15.768658},{"id":"54493","name":"Hammarstrand Anders-Olofskolan","lat":63.103496,"lon":16.35867},{"id":"54494","name":"Gevåg Byvägen","lat":63.143881,"lon":16.334171},{"id":"54495","name":"Krångede gamla skola","lat":63.147627,"lon":16.136545},{"id":"54496","name":"Krångede Sahlins","lat":63.150106,"lon":16.154168},{"id":"54497","name":"Hammarstrand Skogen","lat":63.124868,"lon":16.360602},{"id":"54498","name":"Stadsforsen","lat":62.978684,"lon":16.662143},{"id":"54499","name":"Krokvåg Krokbacken","lat":63.16224,"lon":16.260821},{"id":"54500","name":"Mon (Ammer)","lat":63.176351,"lon":16.194549},{"id":"54501","name":"Krångede Affären","lat":63.150527,"lon":16.158379},{"id":"54502","name":"Kvarnbacken","lat":63.18754,"lon":15.539275},{"id":"54503","name":"Köttsjön Svedjan","lat":63.339407,"lon":15.965212},{"id":"54504","name":"Dusnäset","lat":63.207222,"lon":15.401893},{"id":"54506","name":"Krokvåg Mohemsvägen","lat":63.148999,"lon":16.263014},{"id":"54507","name":"Hölleforsen","lat":62.950323,"lon":16.665176},{"id":"54508","name":"Brynjegård Östra","lat":63.281948,"lon":15.384148},{"id":"54509","name":"Strånäset västra","lat":63.158766,"lon":15.749967},{"id":"54510","name":"Lien byvägen västra","lat":63.093495,"lon":16.461313},{"id":"54511","name":"Hammarstrand Björkhammar","lat":63.114221,"lon":16.348453},{"id":"54512","name":"Mettedet","lat":63.198418,"lon":16.131401},{"id":"54513","name":"Hammarstrand Brandstation","lat":63.115924,"lon":16.357995},{"id":"54514","name":"Överammer Folketshus","lat":63.214918,"lon":15.960373},{"id":"54515","name":"Höglunda fd Konsum","lat":63.150022,"lon":15.855671},{"id":"54516","name":"Hammarstrand Kullstavägen","lat":63.110783,"lon":16.353519},{"id":"54517","name":"Södra Halån Vägskäl","lat":63.106098,"lon":16.431965},{"id":"54518","name":"Köttsjön, Västiberget","lat":63.350015,"lon":15.962175},{"id":"54519","name":"Strömsnäs östra","lat":63.171816,"lon":15.869921},{"id":"54520","name":"Strömsnäs västra","lat":63.167888,"lon":15.840338},{"id":"54521","name":"Utanede södra","lat":62.946908,"lon":16.689248},{"id":"54522","name":"Ammer","lat":63.159867,"lon":16.224034},{"id":"54523","name":"Ammer norra","lat":63.170942,"lon":16.204204},{"id":"54524","name":"Lien byvägen östra","lat":63.086141,"lon":16.475973},{"id":"54525","name":"Lien byvägen","lat":63.090072,"lon":16.468085},{"id":"54526","name":"Harbäcken södra","lat":63.838681,"lon":15.522354},{"id":"54527","name":"Harbäcken norra","lat":63.843195,"lon":15.527958},{"id":"54528","name":"Lövberga Storriset","lat":63.95515,"lon":15.843087},{"id":"54529","name":"Styggråka","lat":63.89088,"lon":15.540902},{"id":"54530","name":"Flata sågen","lat":63.877198,"lon":15.54506},{"id":"54531","name":"Fagerdal södra E45","lat":63.662485,"lon":15.389285},{"id":"54534","name":"Äspnäs vägskäl väg 342","lat":63.971945,"lon":15.48693},{"id":"54535","name":"Arås","lat":63.643749,"lon":15.372487},{"id":"54536","name":"Strömsund Österåsens vägskäl","lat":63.838033,"lon":15.952799},{"id":"54541","name":"Fagerdal norra (lokalgata)","lat":63.668871,"lon":15.388989},{"id":"54542","name":"Fagerdal södra (lokalgata)","lat":63.662671,"lon":15.388414},{"id":"54543","name":"Öjån","lat":63.63826,"lon":15.364056},{"id":"54546","name":"Tullingsås Vandrarhemmet","lat":63.818246,"lon":15.513849},{"id":"54548","name":"Tullingsås södra bygatan","lat":63.81664,"lon":15.51819},{"id":"54555","name":"Tullingsås västra bygatan","lat":63.821982,"lon":15.506926},{"id":"54556","name":"Tullingsås norra vägskäl E45","lat":63.824079,"lon":15.514418},{"id":"54557","name":"Yxskaftkälen Hallhåxåsen vägskäl","lat":63.775059,"lon":15.232},{"id":"54558","name":"Yxskaftkälen","lat":63.780258,"lon":15.224452},{"id":"54559","name":"Håxås vägskäl","lat":63.560257,"lon":15.370055},{"id":"54561","name":"Rossön Mählers","lat":63.928521,"lon":16.323885},{"id":"54562","name":"Gåxsjö Brattåsen","lat":63.678959,"lon":15.045809},{"id":"54564","name":"Kilen","lat":63.447263,"lon":15.271605},{"id":"54565","name":"Hammerdals Industriområde","lat":63.570546,"lon":15.361},{"id":"54566","name":"Bredgårdsskolan","lat":63.861562,"lon":15.555047},{"id":"54567","name":"Sikåskälen","lat":63.619425,"lon":15.089381},{"id":"54570","name":"Strand Bygdegård","lat":63.906223,"lon":15.52821},{"id":"54571","name":"Klövsand västra","lat":63.952335,"lon":15.482562},{"id":"54572","name":"Klövsand östra","lat":63.942328,"lon":15.488246},{"id":"54573","name":"Klöva","lat":63.930766,"lon":15.501179},{"id":"54574","name":"Strand","lat":63.904509,"lon":15.52342},{"id":"54575","name":"Strand västra","lat":63.911788,"lon":15.516237},{"id":"54576","name":"Grenåskilen vägskäl","lat":63.693896,"lon":15.426566},{"id":"54577","name":"Muråsen","lat":63.776411,"lon":15.506942},{"id":"54724","name":"Lit Handogsbodarna","lat":63.31141,"lon":15.117216},{"id":"54725","name":"Lill-Nyby","lat":63.33371,"lon":15.195138},{"id":"54726","name":"Bygget Jämtlands Nyby","lat":63.345189,"lon":15.19819},{"id":"54727","name":"Långkälen Smedjan","lat":63.351779,"lon":15.201427},{"id":"54771","name":"Jämtlands Nyby Åbacken","lat":63.324549,"lon":15.166255},{"id":"54962","name":"Grönåker S","lat":63.84485,"lon":18.705345},{"id":"55081","name":"Västansjö","lat":63.739319,"lon":18.984561},{"id":"55136","name":"Näsland","lat":63.996214,"lon":19.171785},{"id":"55436","name":"Fällfors","lat":63.824281,"lon":18.946717},{"id":"55437","name":"Överlögda","lat":63.781034,"lon":18.961714},{"id":"55440","name":"Mjösjö","lat":63.805526,"lon":18.836581},{"id":"55445","name":"Bjärten","lat":63.815773,"lon":19.030411},{"id":"55515","name":"Karlstorp","lat":63.900058,"lon":18.503099},{"id":"56385","name":"Björknäset","lat":63.986238,"lon":19.183733},{"id":"56386","name":"Högås","lat":63.916412,"lon":19.175548},{"id":"56389","name":"Balsjöåsen","lat":63.925069,"lon":19.056109},{"id":"56390","name":"vsk Nyland","lat":63.963684,"lon":18.84913},{"id":"56587","name":"Näsmark","lat":63.972653,"lon":19.150373},{"id":"56588","name":"Slättmark","lat":63.96237,"lon":19.166715},{"id":"56745","name":"Norrfors","lat":63.769558,"lon":18.991595},{"id":"56746","name":"Nya Norrfors Mekaniska","lat":63.768755,"lon":18.98974},{"id":"56752","name":"Nordsjö","lat":63.737126,"lon":19.063048},{"id":"56753","name":"Bjurvattnet","lat":63.86758,"lon":18.967575},{"id":"56754","name":"Nedre Nyland","lat":63.872811,"lon":18.918091},{"id":"56755","name":"Karlsbäck","lat":63.870033,"lon":18.869062},{"id":"56756","name":"Mjösjöby","lat":63.816451,"lon":18.815606},{"id":"56757","name":"Bredträsk","lat":63.877949,"lon":18.586518},{"id":"56758","name":"Stennäs","lat":63.918535,"lon":18.48069},{"id":"56761","name":"Västernyliden","lat":63.914255,"lon":19.090465},{"id":"56820","name":"Genberg","lat":63.697188,"lon":19.092921},{"id":"56883","name":"Brattsbacka","lat":63.786042,"lon":19.181959},{"id":"58951","name":"Bräcke Jägarudden","lat":62.731674,"lon":15.432111},{"id":"58952","name":"Bräcke Rävudden","lat":62.73739,"lon":15.429065},{"id":"58953","name":"Bräcke sjölyckan","lat":62.757129,"lon":15.403291},{"id":"58954","name":"Håsjöbyn norra","lat":63.02222,"lon":16.292787},{"id":"58979","name":"Höglunda Moarna","lat":63.134313,"lon":15.876639},{"id":"58981","name":"Stugun Strandbodarna västra","lat":63.160276,"lon":15.655053},{"id":"58982","name":"Hallviken Risbrännan","lat":63.737755,"lon":15.485525},{"id":"58984","name":"Sikås västra","lat":63.630711,"lon":15.213333},{"id":"58985","name":"Sikås östra","lat":63.62384,"lon":15.249615},{"id":"58986","name":"Ösundet Öhn","lat":63.861603,"lon":15.501421},{"id":"58987","name":"Hammerdal Bye norra","lat":63.612315,"lon":15.358029},{"id":"58988","name":"Hallviken södra","lat":63.727549,"lon":15.482766},{"id":"58989","name":"Tullingsås södra vägskäl E45","lat":63.815773,"lon":15.519478},{"id":"58990","name":"Backe Sunnansjö","lat":63.800287,"lon":16.39769},{"id":"58991","name":"Backe Kvarnbacken","lat":63.826133,"lon":16.404224},{"id":"58992","name":"Backe Hälsocentral","lat":63.806828,"lon":16.408361},{"id":"58993","name":"Rudsjö östra","lat":63.850124,"lon":16.08239},{"id":"58994","name":"Rudsjö västra","lat":63.847649,"lon":16.046897},{"id":"58995","name":"Bergsjöåsen vägskäl","lat":63.848856,"lon":16.027028},{"id":"59014","name":"Långvattnet","lat":63.796058,"lon":19.088433},{"id":"59053","name":"Nordansjö","lat":63.828247,"lon":19.012178},{"id":"59058","name":"vsk Långvattnet","lat":63.778101,"lon":19.136863},{"id":"59116","name":"Njurunda Resec","lat":62.2682,"lon":17.376956},{"id":"59142","name":"Labbgård","lat":63.386991,"lon":15.027282},{"id":"59144","name":"Stormyrgården","lat":63.367739,"lon":15.160378},{"id":"59145","name":"Stocklunda","lat":63.373145,"lon":15.115537},{"id":"59146","name":"Storhögen norra","lat":63.378354,"lon":15.19353},{"id":"59177","name":"Jämtlands Sikås","lat":63.626198,"lon":15.206458},{"id":"59208","name":"Ulriksfors Business Center","lat":63.830114,"lon":15.615374},{"id":"60163","name":"Smååkran","lat":62.74096,"lon":15.107621},{"id":"60168","name":"Jämtlands Sikås Station","lat":63.626293,"lon":15.206864},{"id":"61571","name":"Maj","lat":62.221251,"lon":17.35644},{"id":"61727","name":"Baggböle Indal","lat":62.624934,"lon":16.970969},{"id":"63113","name":"Antjärn E4","lat":62.588449,"lon":17.788422},{"id":"63125","name":"Gussjö/Uland","lat":62.711481,"lon":17.557591},{"id":"63126","name":"Gustavsvik","lat":62.832055,"lon":17.869446},{"id":"63127","name":"Häggdånger kyrka","lat":62.541578,"lon":17.819358},{"id":"63140","name":"Nordanå","lat":62.737347,"lon":17.436693},{"id":"63142","name":"Näs","lat":62.6363,"lon":17.870199},{"id":"63148","name":"Viksjö fd Affären","lat":62.77269,"lon":17.420899},{"id":"63151","name":"Sörgården fd. skola","lat":62.728462,"lon":17.556054},{"id":"63155","name":"Utansjö Pärleporten","lat":62.773252,"lon":17.915759},{"id":"63161","name":"Älandsbro Centrum","lat":62.675647,"lon":17.841406},{"id":"63165","name":"Östanviks vägskäl","lat":62.751482,"lon":17.55957},{"id":"63167","name":"Fröland E4","lat":62.611826,"lon":17.883969},{"id":"63176","name":"Granudden","lat":62.6217,"lon":17.916331},{"id":"63180","name":"Nybrog/ReseC","lat":62.634563,"lon":17.931674},{"id":"63181","name":"Brattås","lat":62.587606,"lon":17.952653},{"id":"63182","name":"Kristinaskolan","lat":62.626426,"lon":17.948539},{"id":"63183","name":"Härnösands centrum","lat":62.632694,"lon":17.941269},{"id":"63185","name":"Stadsparken","lat":62.630482,"lon":17.943353},{"id":"63186","name":"Tunnelplan","lat":62.626577,"lon":17.917906},{"id":"63187","name":"Gulf E4","lat":62.625708,"lon":17.927902},{"id":"63188","name":"Teatern","lat":62.629921,"lon":17.936528},{"id":"63189","name":"Kanaludden","lat":62.628806,"lon":17.944363},{"id":"63190","name":"Vårsta E4","lat":62.623639,"lon":17.921692},{"id":"63198","name":"Lövudden","lat":62.619871,"lon":17.912069},{"id":"63277","name":"Gådeåbro E4","lat":62.612829,"lon":17.897405},{"id":"63278","name":"Kittjärn","lat":62.611407,"lon":17.840999},{"id":"63279","name":"Lägdom","lat":62.611979,"lon":17.860833},{"id":"63280","name":"Viksjö Skansen","lat":62.787029,"lon":17.424114},{"id":"63281","name":"Solumssjön/vsk","lat":62.594426,"lon":17.96442},{"id":"63282","name":"Byn","lat":62.742088,"lon":17.557252},{"id":"63283","name":"Starred","lat":62.708174,"lon":17.576588},{"id":"63284","name":"Bölen","lat":62.673861,"lon":17.615496},{"id":"63285","name":"Brunne","lat":62.653871,"lon":17.634469},{"id":"63286","name":"Ultrå","lat":62.643769,"lon":17.67767},{"id":"63287","name":"Hanaberg","lat":62.640507,"lon":17.709992},{"id":"63288","name":"Sunne","lat":62.639613,"lon":17.72417},{"id":"63289","name":"Billsta","lat":62.630635,"lon":17.788899},{"id":"63290","name":"Dunderkläpp","lat":62.632139,"lon":17.799917},{"id":"63291","name":"Övre Sörgården Lv 718","lat":62.724357,"lon":17.519262},{"id":"63292","name":"Byåker","lat":62.637201,"lon":17.847252},{"id":"63293","name":"Barsviken","lat":62.495576,"lon":17.812647},{"id":"63294","name":"Skällom","lat":62.542916,"lon":17.803607},{"id":"63295","name":"Häggdånger skolan","lat":62.539644,"lon":17.817109},{"id":"63296","name":"Sjö/Bygdegården","lat":62.583777,"lon":17.802671},{"id":"63297","name":"By","lat":62.56279,"lon":17.838357},{"id":"63298","name":"Solumshamn Småholmarna","lat":62.575112,"lon":17.943851},{"id":"63299","name":"Solumshamn","lat":62.570278,"lon":17.950625},{"id":"63300","name":"Älandsbro E4","lat":62.675047,"lon":17.841345},{"id":"63301","name":"Veda Rv 90","lat":62.790802,"lon":17.913761},{"id":"63303","name":"E4 Saltvik","lat":62.663213,"lon":17.854565},{"id":"63304","name":"Motorbanan","lat":62.598002,"lon":17.809604},{"id":"63407","name":"Trädgårdsgatan","lat":62.389346,"lon":17.30775},{"id":"63409","name":"Gärde","lat":62.413214,"lon":17.349177},{"id":"63419","name":"Östra Långgatan","lat":62.388112,"lon":17.299858},{"id":"63421","name":"Företagsbyn","lat":62.375955,"lon":17.309612},{"id":"63424","name":"Måndagsvägen","lat":62.435807,"lon":17.364884},{"id":"63426","name":"Ljustadalens centrum","lat":62.438189,"lon":17.367778},{"id":"63428","name":"Februarivägen","lat":62.435652,"lon":17.379458},{"id":"63429","name":"Ekebovägen","lat":62.43369,"lon":17.383131},{"id":"63430","name":"Klockgjutaregatan","lat":62.387316,"lon":17.29456},{"id":"63440","name":"Södra berget","lat":62.368391,"lon":17.318624},{"id":"63442","name":"Slutgatan","lat":62.388393,"lon":17.284462},{"id":"63443","name":"Bultgatan","lat":62.389165,"lon":17.277694},{"id":"63444","name":"Vinkeltået","lat":62.390525,"lon":17.271264},{"id":"63446","name":"Montörvägen E14","lat":62.397177,"lon":17.24869},{"id":"63454","name":"Tivolibacken","lat":62.39524,"lon":17.306286},{"id":"63455","name":"Norrliden","lat":62.39722,"lon":17.31826},{"id":"63456","name":"Västergatan","lat":62.398561,"lon":17.323685},{"id":"63457","name":"Lasarettsvägen","lat":62.400788,"lon":17.327666},{"id":"63468","name":"Norra berget","lat":62.399362,"lon":17.300167},{"id":"63477","name":"Hagavägen","lat":62.400856,"lon":17.32796},{"id":"63485","name":"Alliero","lat":62.39608,"lon":17.294124},{"id":"63529","name":"Fillan","lat":62.425698,"lon":17.378006},{"id":"63533","name":"Hörneborgsvägen","lat":63.271601,"lon":18.697566},{"id":"63539","name":"Angsta","lat":63.340818,"lon":18.841165},{"id":"63548","name":"Bjästa Busstation","lat":63.201666,"lon":18.501449},{"id":"63550","name":"Björna Centrum","lat":63.550181,"lon":18.599628},{"id":"63552","name":"Boda Borgen","lat":62.456215,"lon":16.383635},{"id":"63554","name":"Borgsjöbyn kyrkan","lat":62.539933,"lon":15.911488},{"id":"63555","name":"Bredbyn Bstn","lat":63.449124,"lon":18.107171},{"id":"63559","name":"Byviken","lat":63.62898,"lon":19.0585},{"id":"63565","name":"Ede E14","lat":62.428035,"lon":16.495539},{"id":"63572","name":"Flärke/Moliden","lat":63.386092,"lon":18.375415},{"id":"63576","name":"Fränsta bussterminal","lat":62.497913,"lon":16.169852},{"id":"63584","name":"Grindnäset","lat":63.322942,"lon":18.259766},{"id":"63585","name":"Gullgård Ö ,Trägården","lat":62.497336,"lon":16.110728},{"id":"63590","name":"Gångvikens skola","lat":62.461365,"lon":17.344721},{"id":"63599","name":"Grönnäs/Hörnäsv.","lat":63.288492,"lon":18.584211},{"id":"63603","name":"Imforsmo","lat":63.548839,"lon":16.671353},{"id":"63619","name":"Köpmanholmen C","lat":63.174148,"lon":18.568363},{"id":"63622","name":"Lemesjö","lat":63.669386,"lon":19.002924},{"id":"63627","name":"Lungsjöbacken","lat":63.458502,"lon":16.258417},{"id":"63630","name":"Långviksmon Jollen","lat":63.629784,"lon":18.694911},{"id":"63633","name":"Lövsjö","lat":63.307582,"lon":18.396295},{"id":"63641","name":"Myckelgensjö","lat":63.578747,"lon":17.594209},{"id":"63643","name":"Mo kyrka","lat":63.377108,"lon":18.460214},{"id":"63644","name":"Nedansjö bystugan","lat":62.377237,"lon":16.831267},{"id":"63645","name":"Nolås","lat":63.329517,"lon":18.328926},{"id":"63654","name":"Näske","lat":63.157335,"lon":18.508111},{"id":"63662","name":"Selstadammet","lat":63.639635,"lon":17.901022},{"id":"63665","name":"Ramselevallen","lat":63.535807,"lon":16.458652},{"id":"63666","name":"Rensjön","lat":63.473966,"lon":16.171277},{"id":"63683","name":"Seltjärn","lat":63.572044,"lon":17.920278},{"id":"63697","name":"Stöde Grillen E14","lat":62.419274,"lon":16.592832},{"id":"63706","name":"Torpshammar Konsum","lat":62.472763,"lon":16.330546},{"id":"63710","name":"Trehörningsjö","lat":63.693386,"lon":18.865493},{"id":"63714","name":"Täfteå Länsv 1067","lat":63.361573,"lon":18.860694},{"id":"63726","name":"Viskan kiosken","lat":62.44865,"lon":16.435616},{"id":"63730","name":"Västvattnet","lat":63.495604,"lon":16.037709},{"id":"63735","name":"Åbosjön","lat":63.740768,"lon":17.74311},{"id":"63738","name":"Åsmon","lat":63.456439,"lon":16.826794},{"id":"63741","name":"Östby E14","lat":62.529695,"lon":15.976052},{"id":"63742","name":"Österbillsjö","lat":63.315109,"lon":18.431346},{"id":"63749","name":"Nygatan","lat":63.289667,"lon":18.718167},{"id":"63785","name":"Kilån","lat":63.468378,"lon":16.729376},{"id":"63800","name":"Västerbillsjö","lat":63.328913,"lon":18.377303},{"id":"63812","name":"Vattugården","lat":63.490027,"lon":18.082287},{"id":"63815","name":"Hundsjö","lat":63.544437,"lon":19.003001},{"id":"63817","name":"Västergensjö","lat":63.462859,"lon":18.033785},{"id":"63818","name":"Sörflärke","lat":63.475103,"lon":17.922528},{"id":"63819","name":"Skalmsjö","lat":63.51099,"lon":17.762284},{"id":"63823","name":"Hällsjö","lat":62.371521,"lon":16.901984},{"id":"63824","name":"Västerlo E14","lat":62.410077,"lon":16.668602},{"id":"63825","name":"Ensillre","lat":62.542744,"lon":15.791317},{"id":"63906","name":"Örnparken","lat":63.289423,"lon":18.718262},{"id":"63938","name":"Sjukhuset Övik","lat":63.299085,"lon":18.71423},{"id":"63939","name":"Älgen","lat":63.300694,"lon":18.715909},{"id":"63942","name":"Per-Ersvägen","lat":63.312072,"lon":18.707835},{"id":"63981","name":"Översjäla","lat":63.295333,"lon":18.624412},{"id":"63994","name":"Själevadskolan","lat":63.293049,"lon":18.616867},{"id":"64028","name":"Arnäsvall","lat":63.31492,"lon":18.791616},{"id":"64091","name":"Ånge jvg","lat":62.523529,"lon":15.659339},{"id":"64096","name":"Vattjom E14","lat":62.362437,"lon":17.034551},{"id":"64097","name":"Töva E14","lat":62.376812,"lon":17.133452},{"id":"64106","name":"Ögården","lat":62.420324,"lon":17.414056},{"id":"64107","name":"Spikarna hpl.193","lat":62.365262,"lon":17.518279},{"id":"64108","name":"Grönviken","lat":62.415784,"lon":17.49885},{"id":"64121","name":"Bredbyn Köpmangatan 11/14","lat":63.452635,"lon":18.103723},{"id":"64122","name":"Bredbyn Köpmangatan 8","lat":63.453597,"lon":18.103058},{"id":"64140","name":"Löke V. E14","lat":62.551349,"lon":15.876873},{"id":"64141","name":"Torpshammar Yxvägen","lat":62.47128,"lon":16.336123},{"id":"64142","name":"Tirsta E14","lat":62.492359,"lon":16.230114},{"id":"64143","name":"Backen E14","lat":62.493383,"lon":16.220914},{"id":"64144","name":"Ålsta Folkhögskola","lat":62.497861,"lon":16.189002},{"id":"64145","name":"Östby Hembygdsgård E14","lat":62.525988,"lon":15.984148},{"id":"64146","name":"Norra Sillre E14","lat":62.533339,"lon":15.959348},{"id":"64147","name":"Västanå Ö. E14","lat":62.534639,"lon":15.951059},{"id":"64148","name":"Västanå V. E14","lat":62.536707,"lon":15.937548},{"id":"64150","name":"Löke Ö. E14","lat":62.549068,"lon":15.881299},{"id":"64151","name":"Boda Ö","lat":62.463498,"lon":16.36209},{"id":"64152","name":"Tälje Ö. E14","lat":62.555101,"lon":15.851689},{"id":"64153","name":"Hermanboda V.","lat":62.544046,"lon":15.809719},{"id":"64154","name":"Hallstaborg","lat":62.540803,"lon":15.776318},{"id":"64155","name":"Hallstaborg Servicehus","lat":62.540719,"lon":15.763884},{"id":"64156","name":"Hallsta Korsningen","lat":62.540007,"lon":15.753082},{"id":"64158","name":"Hallsta Boltjärn","lat":62.538859,"lon":15.734277},{"id":"64159","name":"Boltjärn Östra","lat":62.538534,"lon":15.716171},{"id":"64160","name":"Boltjärn Västra","lat":62.537651,"lon":15.710345},{"id":"64161","name":"Mallberget","lat":62.525918,"lon":15.689254},{"id":"64162","name":"Ånge Ica","lat":62.524999,"lon":15.675586},{"id":"64163","name":"Ånge Ängsvägen","lat":62.524808,"lon":15.672305},{"id":"64164","name":"Ljungaverk","lat":62.496655,"lon":16.075334},{"id":"64165","name":"Åkrarna","lat":62.497732,"lon":16.084365},{"id":"64168","name":"Ljungaverk Forum","lat":62.491112,"lon":16.055052},{"id":"64180","name":"Byn Ö","lat":62.497487,"lon":16.127609},{"id":"64181","name":"Byn V","lat":62.496971,"lon":16.121803},{"id":"64182","name":"Hammar","lat":62.498946,"lon":16.136803},{"id":"64183","name":"Komsta","lat":62.500267,"lon":16.14324},{"id":"64184","name":"Rogsta","lat":62.500339,"lon":16.150672},{"id":"64185","name":"Fränsta","lat":62.499955,"lon":16.15709},{"id":"64189","name":"Hermanboda","lat":62.545463,"lon":15.816326},{"id":"64190","name":"Näset V","lat":62.548925,"lon":15.827697},{"id":"64191","name":"Näset Ö","lat":62.552998,"lon":15.831568},{"id":"64192","name":"Tälje V E14","lat":62.554341,"lon":15.840588},{"id":"64193","name":"Tälje Ö E14","lat":62.555083,"lon":15.851456},{"id":"64194","name":"Infart Tälje E14","lat":62.554037,"lon":15.864789},{"id":"64195","name":"Borgsjöbyn västra","lat":62.544575,"lon":15.893102},{"id":"64196","name":"Borgsjöbyn Hembygsgård","lat":62.541877,"lon":15.902557},{"id":"64197","name":"Borgsjö korsning E14","lat":62.537961,"lon":15.920477},{"id":"64226","name":"Ånge Fridhemsvägen","lat":62.523426,"lon":15.662932},{"id":"64285","name":"Johannisberg Tubbo","lat":62.510534,"lon":16.0129},{"id":"64286","name":"Johannisberg V.","lat":62.504127,"lon":16.019182},{"id":"64287","name":"Johannisberg Korsningen","lat":62.502684,"lon":16.024411},{"id":"64288","name":"Johannisberg","lat":62.502716,"lon":16.02674},{"id":"64289","name":"Ljungaverk Fly","lat":62.499787,"lon":16.039912},{"id":"64290","name":"Ljungaverk Kvarnvägen","lat":62.497401,"lon":16.045035},{"id":"64291","name":"Ljungaverk skola","lat":62.490773,"lon":16.038542},{"id":"64292","name":"Ljungaverk Ängsvägen","lat":62.496451,"lon":16.049587},{"id":"64293","name":"Ljungaverk N:a Järnvägsgatan","lat":62.493656,"lon":16.057324},{"id":"64294","name":"Gullgård V,Trädgården","lat":62.496873,"lon":16.10079},{"id":"64295","name":"Fränsta Ica","lat":62.497941,"lon":16.179651},{"id":"64296","name":"Fränstavägen Backen","lat":62.494917,"lon":16.208849},{"id":"64297","name":"Torpshammarsv. Tirsta","lat":62.491285,"lon":16.235336},{"id":"64298","name":"Torpshammarsvägen","lat":62.489755,"lon":16.242608},{"id":"64299","name":"Torpshammarsv. Getterån","lat":62.487498,"lon":16.25811},{"id":"64300","name":"Torpshammarsv. Rönningen V.","lat":62.483965,"lon":16.281891},{"id":"64301","name":"Torpshammarsv. Rönningen Ö.","lat":62.482462,"lon":16.288383},{"id":"64302","name":"Torpshammarsv. Heden V.","lat":62.480022,"lon":16.300986},{"id":"64303","name":"Torpshammarsv. Heden Ö.","lat":62.477691,"lon":16.308199},{"id":"64304","name":"Torpshammarsv. Klöstre","lat":62.476091,"lon":16.321163},{"id":"64305","name":"Torpshammars kyrka","lat":62.468167,"lon":16.345333},{"id":"64306","name":"Viskanvägen Boda","lat":62.46516,"lon":16.357101},{"id":"64307","name":"Bodaborg","lat":62.458122,"lon":16.378092},{"id":"64308","name":"Viskanvägen Nedergäle","lat":62.453691,"lon":16.396993},{"id":"64309","name":"Viskanvik","lat":62.45116,"lon":16.422127},{"id":"64311","name":"Ånge Solgårdsgatan","lat":62.524121,"lon":15.667414},{"id":"64312","name":"Minervaskolan","lat":62.525031,"lon":15.654108},{"id":"64482","name":"Stöde skola","lat":62.407133,"lon":16.570306},{"id":"64485","name":"Bergfotsvägen","lat":62.3959,"lon":17.299202},{"id":"64486","name":"Norrlidsgatan","lat":62.398283,"lon":17.31371},{"id":"64493","name":"Tallrotsgatan","lat":62.401246,"lon":17.322699},{"id":"64563","name":"Norrbäcken","lat":62.456819,"lon":17.063033},{"id":"64567","name":"Sundsbruks centrum","lat":62.458329,"lon":17.354681},{"id":"64572","name":"Nacksta industriområde","lat":62.392769,"lon":17.264335},{"id":"64573","name":"Tegelvägen","lat":62.3948,"lon":17.258091},{"id":"64574","name":"Sörknävland E14","lat":62.378692,"lon":17.148881},{"id":"64575","name":"Bladänget Motionsanläggning E14","lat":62.377467,"lon":17.140071},{"id":"64576","name":"Töva Industriområde E14","lat":62.374976,"lon":17.120809},{"id":"64577","name":"Töva Terminalen E14","lat":62.372604,"lon":17.111584},{"id":"64578","name":"Berg Töva E14","lat":62.369725,"lon":17.102745},{"id":"64579","name":"Berg E14","lat":62.367749,"lon":17.096129},{"id":"64580","name":"Lilldälje E14","lat":62.365933,"lon":17.090719},{"id":"64581","name":"Rude E14","lat":62.362731,"lon":16.995523},{"id":"64582","name":"Infart Rude E14","lat":62.366214,"lon":16.976419},{"id":"64583","name":"Skallböle E14","lat":62.366897,"lon":16.965472},{"id":"64584","name":"Lillhällsjön E14","lat":62.366895,"lon":16.95388},{"id":"64585","name":"Abbortjärn E14","lat":62.367448,"lon":16.944377},{"id":"64586","name":"Hällsjömon E14","lat":62.369178,"lon":16.922475},{"id":"64587","name":"Berghem - Hällsjö E14","lat":62.373536,"lon":16.894482},{"id":"64588","name":"Hemgraven Nedansjö","lat":62.37635,"lon":16.865906},{"id":"64589","name":"Nedansjö","lat":62.376168,"lon":16.842419},{"id":"64590","name":"Nedansjö Borgberget","lat":62.38117,"lon":16.830937},{"id":"64591","name":"Nedansjövägen Bensinmack","lat":62.383634,"lon":16.832684},{"id":"64592","name":"Norr-Nedansjö E14","lat":62.382739,"lon":16.810154},{"id":"64593","name":"Grindsvedjan E14","lat":62.386988,"lon":16.776562},{"id":"64594","name":"Nedansjöbodarna E14","lat":62.396608,"lon":16.750419},{"id":"64595","name":"Bergdalen E14","lat":62.398415,"lon":16.736494},{"id":"64596","name":"Brattvall E14","lat":62.399237,"lon":16.726212},{"id":"64597","name":"Tolvmansgården E14","lat":62.406913,"lon":16.682516},{"id":"64598","name":"Österlo E14","lat":62.408208,"lon":16.67766},{"id":"64599","name":"Milhällbacken E14","lat":62.410657,"lon":16.656004},{"id":"64600","name":"Svedjan E14","lat":62.415716,"lon":16.636972},{"id":"64601","name":"Stöde Östra E14","lat":62.418582,"lon":16.613462},{"id":"64602","name":"Stöde Affären E14","lat":62.417916,"lon":16.583798},{"id":"64603","name":"Stöde Västra E14","lat":62.418081,"lon":16.57343},{"id":"64604","name":"Stöde Kälsta E14","lat":62.418031,"lon":16.554562},{"id":"64605","name":"Mittnordenleden E14","lat":62.417927,"lon":16.54885},{"id":"64606","name":"Flyggberget Ö. E14","lat":62.418652,"lon":16.53898},{"id":"64607","name":"Flyggberget V. E14","lat":62.419335,"lon":16.530288},{"id":"64608","name":"Österåsen E14","lat":62.421728,"lon":16.516857},{"id":"64609","name":"Nederede E14","lat":62.423914,"lon":16.510308},{"id":"64621","name":"Tomtegränds servicehus","lat":62.400642,"lon":17.320444},{"id":"64644","name":"Hållplats 128","lat":62.471046,"lon":17.419652},{"id":"64646","name":"Kungsvägen","lat":62.399967,"lon":17.316541},{"id":"64687","name":"Stöde/Bergtallv E14","lat":62.420843,"lon":16.604156},{"id":"64781","name":"Gettorget E14","lat":62.433311,"lon":16.479029},{"id":"64782","name":"Baren E14","lat":62.43863,"lon":16.468014},{"id":"64783","name":"Överede E14","lat":62.443153,"lon":16.45661},{"id":"64784","name":"Viskan avfart E14","lat":62.445871,"lon":16.446946},{"id":"64785","name":"Viskan Järnvägsviadukt","lat":62.44437,"lon":16.441588},{"id":"64823","name":"Stöde Affären/Fanbyvägen","lat":62.417379,"lon":16.583533},{"id":"64829","name":"Friluftscentrum","lat":62.368212,"lon":17.31363},{"id":"64830","name":"Hyttmästarbacken","lat":62.46853,"lon":17.329677},{"id":"64831","name":"Skönviksvägen 33","lat":62.468963,"lon":17.320413},{"id":"64845","name":"Köpmangatan/Esplanaden","lat":62.38887,"lon":17.306953},{"id":"64846","name":"Gångvikens skola N:a vägen","lat":62.461071,"lon":17.344512},{"id":"64887","name":"Vibackeskolan","lat":62.426866,"lon":17.422635},{"id":"64888","name":"Pråmvägen","lat":62.427938,"lon":17.426119},{"id":"64889","name":"Slädaviken","lat":62.438524,"lon":17.454098},{"id":"64890","name":"Vikmansvägen","lat":62.439781,"lon":17.460094},{"id":"64891","name":"Slädatvåvägen","lat":62.441003,"lon":17.4645},{"id":"64892","name":"Åssjön","lat":62.44578,"lon":17.465036},{"id":"64893","name":"Ås","lat":62.448532,"lon":17.46451},{"id":"64894","name":"Näset Alnö","lat":62.462685,"lon":17.455467},{"id":"64895","name":"Hörningsholmsvägen","lat":62.467657,"lon":17.443993},{"id":"64896","name":"Hållplats 130","lat":62.472676,"lon":17.414447},{"id":"64897","name":"Nackavägen","lat":62.473521,"lon":17.407318},{"id":"64898","name":"Hållplats 127","lat":62.474937,"lon":17.390969},{"id":"64899","name":"Gista","lat":62.466073,"lon":17.384412},{"id":"64900","name":"Johannesnäsvägen","lat":62.462912,"lon":17.386978},{"id":"64901","name":"Rödevägen","lat":62.460824,"lon":17.390648},{"id":"64902","name":"Jarlåsvägen","lat":62.437066,"lon":17.412843},{"id":"64903","name":"Brovägen","lat":62.430848,"lon":17.415879},{"id":"64904","name":"Aktervägen","lat":62.434364,"lon":17.415313},{"id":"64905","name":"Lanternvägen","lat":62.440006,"lon":17.410077},{"id":"64906","name":"Radarvägen","lat":62.442745,"lon":17.408344},{"id":"64907","name":"Alnö Kyrkogård","lat":62.445676,"lon":17.407126},{"id":"64908","name":"Pottängsvägen","lat":62.449554,"lon":17.405473},{"id":"64909","name":"Vränsta","lat":62.451606,"lon":17.404188},{"id":"64910","name":"Nysätervägen","lat":62.455855,"lon":17.399841},{"id":"64911","name":"Pejlingsvägen","lat":62.45789,"lon":17.396907},{"id":"64912","name":"Järviksvägen","lat":62.46933,"lon":17.382122},{"id":"64914","name":"Eriksdal","lat":62.47621,"lon":17.377637},{"id":"64915","name":"Ljustervägen","lat":62.476571,"lon":17.382969},{"id":"64916","name":"Hörningsholmsåkern","lat":62.468429,"lon":17.438588},{"id":"64917","name":"Hörningsholm","lat":62.465797,"lon":17.45025},{"id":"64918","name":"Hållplats 139","lat":62.459006,"lon":17.465944},{"id":"64919","name":"Stornäset","lat":62.455141,"lon":17.475535},{"id":"64920","name":"Bonäset","lat":62.453406,"lon":17.472725},{"id":"64921","name":"Släda IP","lat":62.437556,"lon":17.449358},{"id":"64922","name":"Nedergård","lat":62.436038,"lon":17.444123},{"id":"64923","name":"Krånge Alnö","lat":62.432242,"lon":17.437235},{"id":"64924","name":"Regattavägen","lat":62.429435,"lon":17.429434},{"id":"64925","name":"Bredsandsviken","lat":62.38925,"lon":17.516883},{"id":"64926","name":"Hartungviken","lat":62.391057,"lon":17.516657},{"id":"64927","name":"Röde brygga","lat":62.397818,"lon":17.522942},{"id":"64928","name":"Bjässbodarna","lat":62.405846,"lon":17.518933},{"id":"64929","name":"Grönviken g:a skola","lat":62.412722,"lon":17.50934},{"id":"64930","name":"Grönviken 2","lat":62.414544,"lon":17.502709},{"id":"64931","name":"Grönviken 1","lat":62.417295,"lon":17.497116},{"id":"64932","name":"Bullås","lat":62.429406,"lon":17.471448},{"id":"64933","name":"Säter Alnö","lat":62.431001,"lon":17.461816},{"id":"64934","name":"Fiskebåtsvägen","lat":62.423566,"lon":17.41541},{"id":"64935","name":"Lävägen","lat":62.410352,"lon":17.414953},{"id":"64936","name":"Infart Bänkås","lat":62.405485,"lon":17.415194},{"id":"64937","name":"Båtshakesvägen","lat":62.401595,"lon":17.414773},{"id":"64938","name":"Lervik","lat":62.397749,"lon":17.413677},{"id":"64939","name":"Durkvägen","lat":62.393682,"lon":17.412221},{"id":"64940","name":"Karlsvik","lat":62.387134,"lon":17.409589},{"id":"64941","name":"Fiskehamnsvägen","lat":62.36768,"lon":17.413323},{"id":"64942","name":"Granliden","lat":62.363055,"lon":17.421286},{"id":"64943","name":"Ripsandsvägen 1","lat":62.359943,"lon":17.441132},{"id":"64944","name":"Ripsandsvägen 2","lat":62.360165,"lon":17.445142},{"id":"64945","name":"Bänkås","lat":62.364486,"lon":17.449377},{"id":"64946","name":"Bänkåsberget","lat":62.364633,"lon":17.461944},{"id":"64947","name":"Krokviken","lat":62.360734,"lon":17.475077},{"id":"64948","name":"Lilla Tranviken","lat":62.364391,"lon":17.51539},{"id":"64949","name":"Säludden","lat":62.367474,"lon":17.521555},{"id":"64950","name":"Storhavstorn","lat":62.374009,"lon":17.520015},{"id":"64951","name":"Röde häll","lat":62.370643,"lon":17.521504},{"id":"64952","name":"Spikartorpet","lat":62.362311,"lon":17.504201},{"id":"64953","name":"Krokviksvägen","lat":62.362927,"lon":17.468051},{"id":"64954","name":"Orkanvägen","lat":62.363556,"lon":17.418377},{"id":"64955","name":"Kulingvägen","lat":62.366211,"lon":17.413863},{"id":"64956","name":"Stiltjevägen","lat":62.369885,"lon":17.411992},{"id":"64957","name":"Kanotvägen","lat":62.373222,"lon":17.409755},{"id":"64958","name":"Korvettvägen","lat":62.375171,"lon":17.409646},{"id":"64959","name":"Gondolvägen","lat":62.377049,"lon":17.409437},{"id":"64960","name":"Kvastpricksvägen","lat":62.379589,"lon":17.408626},{"id":"64961","name":"Ljudbojsvägen","lat":62.385365,"lon":17.408199},{"id":"64962","name":"Skravsättsvägen","lat":62.392183,"lon":17.411522},{"id":"64963","name":"Eskadervägen","lat":62.417204,"lon":17.414585},{"id":"64964","name":"Näsetvägen","lat":62.429701,"lon":17.438142},{"id":"64965","name":"Lustgården","lat":62.428671,"lon":17.444049},{"id":"64966","name":"Torpet","lat":62.430459,"lon":17.45075},{"id":"64967","name":"Säters koloni","lat":62.431489,"lon":17.456247},{"id":"64968","name":"Solvik","lat":62.40391,"lon":17.520969},{"id":"64969","name":"Oxhällan","lat":62.40224,"lon":17.522422},{"id":"64970","name":"Bjällstensvägen","lat":62.387113,"lon":17.517728},{"id":"64971","name":"Lilla Havstoviken","lat":62.381315,"lon":17.51848},{"id":"64972","name":"Skatens väg","lat":62.379175,"lon":17.517333},{"id":"64973","name":"Havstoviken","lat":62.377117,"lon":17.516114},{"id":"64975","name":"Tranviken","lat":62.364282,"lon":17.507404},{"id":"64976","name":"Raholmen","lat":62.359861,"lon":17.435873},{"id":"65158","name":"Sörmoflo","lat":63.454829,"lon":16.750271},{"id":"65173","name":"Sundmo","lat":63.503554,"lon":16.684101},{"id":"65208","name":"Forsnäs","lat":63.52709,"lon":16.676101},{"id":"65239","name":"Näsåker Macken","lat":63.440432,"lon":16.910287},{"id":"65288","name":"Nygatan Stadshuset","lat":63.290332,"lon":18.717695},{"id":"65292","name":"Anundsjöskolan","lat":63.444963,"lon":18.116962},{"id":"65294","name":"Gideå Livs","lat":63.481373,"lon":18.971568},{"id":"65295","name":"Rullnäs","lat":63.511106,"lon":18.907031},{"id":"65296","name":"Svedje","lat":63.517637,"lon":18.771629},{"id":"65298","name":"Mattarbodum","lat":63.605032,"lon":18.629938},{"id":"65300","name":"Movattnet","lat":63.654004,"lon":18.620808},{"id":"65313","name":"Åmynnet","lat":63.185059,"lon":18.530549},{"id":"65314","name":"Bruksv/Villav","lat":63.175003,"lon":18.558113},{"id":"65315","name":"Konsum Hummelviksvägen","lat":63.168545,"lon":18.563777},{"id":"65321","name":"Flärke","lat":63.577143,"lon":19.025373},{"id":"65323","name":"Kubbe","lat":63.520897,"lon":18.061066},{"id":"65347","name":"Lillsjön/Bobergsstugan","lat":63.418291,"lon":18.253173},{"id":"65349","name":"Hörnäsvägen","lat":63.286998,"lon":18.574275},{"id":"65350","name":"Lindströms Rökeri","lat":63.288352,"lon":18.583101},{"id":"65351","name":"Boställsvägen","lat":63.288341,"lon":18.598837},{"id":"65352","name":"Själevads IP","lat":63.2894,"lon":18.608872},{"id":"65354","name":"Seltjärn/Lv 348","lat":63.573442,"lon":17.924671},{"id":"65360","name":"Torsböle Lv 1067","lat":63.376982,"lon":18.888625},{"id":"65366","name":"Köpmanholmen bussgaraget","lat":63.169999,"lon":18.59093},{"id":"65367","name":"Terminalvägen","lat":63.304642,"lon":18.738321},{"id":"65378","name":"Örnsköldsvik RC Norra","lat":63.302076,"lon":18.715908},{"id":"65428","name":"Norrflärke","lat":63.509516,"lon":18.067904},{"id":"65431","name":"Pengsjö","lat":63.6733,"lon":17.803736},{"id":"65437","name":"Remmarbäcken","lat":63.545946,"lon":17.700665},{"id":"65442","name":"Främmerbilla","lat":63.310945,"lon":18.499129},{"id":"65460","name":"Enhörningsvägen","lat":62.375222,"lon":17.35192},{"id":"65461","name":"Kontorsvägen","lat":62.375291,"lon":17.363442},{"id":"65462","name":"Kaptensgatan","lat":62.384518,"lon":17.314391},{"id":"65463","name":"Grevegatan","lat":62.382388,"lon":17.320547},{"id":"65464","name":"Mogatan","lat":62.380677,"lon":17.329314},{"id":"65465","name":"Skönsmons skola","lat":62.379905,"lon":17.335808},{"id":"65466","name":"Härstavägen","lat":62.378936,"lon":17.339934},{"id":"65467","name":"Skönsmohuset","lat":62.377694,"lon":17.344316},{"id":"65468","name":"Fäbodsandsvägen","lat":62.374721,"lon":17.359857},{"id":"65469","name":"Bleckslagaregatan","lat":62.385636,"lon":17.283766},{"id":"65470","name":"Gesällvägen","lat":62.441752,"lon":17.332072},{"id":"65472","name":"Fillanvägen","lat":62.436729,"lon":17.340802},{"id":"65473","name":"Aprilvägen","lat":62.437292,"lon":17.376543},{"id":"65474","name":"Sveavägen","lat":62.38753,"lon":17.284574},{"id":"65475","name":"Linderbergsgatan","lat":62.38699,"lon":17.277936},{"id":"65476","name":"Midälvaplan","lat":62.387324,"lon":17.273505},{"id":"65477","name":"Värmeverket","lat":62.387211,"lon":17.268937},{"id":"65478","name":"Sallyhillsvägen","lat":62.388248,"lon":17.258972},{"id":"65479","name":"Nackstavägen 22","lat":62.389374,"lon":17.252607},{"id":"65480","name":"Nackstavägen 38","lat":62.391487,"lon":17.249615},{"id":"65481","name":"Kristinelund","lat":62.39304,"lon":17.253867},{"id":"65482","name":"Nacksta centrum","lat":62.392019,"lon":17.263989},{"id":"65483","name":"Bryggtjärn","lat":62.522514,"lon":16.86014},{"id":"65484","name":"Nackstaskolan","lat":62.393053,"lon":17.259514},{"id":"65487","name":"Paviljongvägen","lat":62.379253,"lon":17.279779},{"id":"65488","name":"Fågelgränd","lat":62.386647,"lon":17.294198},{"id":"65489","name":"Fagerdalsparken","lat":62.382293,"lon":17.282499},{"id":"65490","name":"Glimmervägen","lat":62.378551,"lon":17.275705},{"id":"65491","name":"Bölevägen","lat":62.374424,"lon":17.269647},{"id":"65492","name":"Hagaskolan","lat":62.405384,"lon":17.33084},{"id":"65493","name":"Punkten","lat":62.409669,"lon":17.334521},{"id":"65494","name":"Bondevägen","lat":62.411813,"lon":17.334611},{"id":"65495","name":"Bydalen","lat":62.414278,"lon":17.338956},{"id":"65496","name":"Bosvedjevägen","lat":62.416567,"lon":17.34213},{"id":"65497","name":"Skogsbacken","lat":62.423622,"lon":17.333084},{"id":"65498","name":"Lantmätaren","lat":62.420344,"lon":17.329994},{"id":"65499","name":"Bosvedjans centrum","lat":62.41859,"lon":17.335325},{"id":"65500","name":"Jaktfalksvägen","lat":62.425325,"lon":17.335746},{"id":"65501","name":"Havsörnsvägen","lat":62.427279,"lon":17.338382},{"id":"65502","name":"Institutsvägen","lat":62.403629,"lon":17.319763},{"id":"65503","name":"Lindgården","lat":62.405743,"lon":17.31602},{"id":"65504","name":"Baldershov","lat":62.408482,"lon":17.31252},{"id":"65505","name":"Sjukhuset Sundsvall","lat":62.4083,"lon":17.307732},{"id":"65506","name":"Kommunhuset","lat":62.394683,"lon":17.311324},{"id":"65507","name":"Bjälkvägen","lat":62.395746,"lon":17.323426},{"id":"65508","name":"Bragegatan","lat":62.397722,"lon":17.332249},{"id":"65509","name":"Trafikgatan","lat":62.400535,"lon":17.336029},{"id":"65510","name":"Skönsbergs centrum","lat":62.400724,"lon":17.343273},{"id":"65511","name":"Tjädervägen","lat":62.400259,"lon":17.350425},{"id":"65512","name":"Tjädervägen 13","lat":62.400597,"lon":17.354775},{"id":"65513","name":"Korstavägen","lat":62.40099,"lon":17.362978},{"id":"65514","name":"Klippgatan","lat":62.402703,"lon":17.366297},{"id":"65515","name":"Korstabergsvägen","lat":62.410781,"lon":17.366214},{"id":"65516","name":"Gillebergsgatan","lat":62.398821,"lon":17.340873},{"id":"65517","name":"Idrottsparken","lat":62.393499,"lon":17.300455},{"id":"65518","name":"Sporthallen","lat":62.394777,"lon":17.289244},{"id":"65519","name":"Västhagen","lat":62.395904,"lon":17.282782},{"id":"65520","name":"Rosenvägen","lat":62.400505,"lon":17.272893},{"id":"65521","name":"Granloskogen","lat":62.405545,"lon":17.270644},{"id":"65522","name":"Malmövägen","lat":62.408299,"lon":17.274957},{"id":"65523","name":"Borgholmsvägen","lat":62.408647,"lon":17.281978},{"id":"65524","name":"Nynäshamnsvägen","lat":62.411751,"lon":17.286349},{"id":"65525","name":"Luleåvägen","lat":62.413223,"lon":17.287931},{"id":"65526","name":"Haparandavägen","lat":62.413372,"lon":17.300072},{"id":"65527","name":"Bergsåkers skola","lat":62.413105,"lon":17.228694},{"id":"65529","name":"Granloholm centrum","lat":62.410648,"lon":17.269229},{"id":"65530","name":"Halmstadsvägen","lat":62.410183,"lon":17.264834},{"id":"65531","name":"Kungsbackavägen","lat":62.410658,"lon":17.260581},{"id":"65532","name":"Gläntan","lat":62.412156,"lon":17.25719},{"id":"65533","name":"Strömstadsvägen","lat":62.414463,"lon":17.255385},{"id":"65537","name":"Sleipnervägen","lat":62.399445,"lon":17.263538},{"id":"65538","name":"Lundbovägen","lat":62.402485,"lon":17.264633},{"id":"65539","name":"Höderbacken","lat":62.405308,"lon":17.259025},{"id":"65540","name":"Panncentralen","lat":62.40678,"lon":17.251184},{"id":"65541","name":"Vikingen","lat":62.406322,"lon":17.245184},{"id":"65549","name":"Lillhällomsvägen","lat":62.419765,"lon":17.211765},{"id":"65550","name":"Dressyrvägen","lat":62.422231,"lon":17.218113},{"id":"65551","name":"Skakelvägen","lat":62.424271,"lon":17.222274},{"id":"65552","name":"Robäcken","lat":62.422118,"lon":17.224844},{"id":"65553","name":"Kuskvägen","lat":62.420561,"lon":17.225273},{"id":"65554","name":"Travbanan","lat":62.415689,"lon":17.227868},{"id":"65555","name":"Ponnyvägen","lat":62.412917,"lon":17.226846},{"id":"65556","name":"Igeltjärnsvägen","lat":62.410718,"lon":17.302377},{"id":"65557","name":"Tunadalsvägen","lat":62.412523,"lon":17.370117},{"id":"65558","name":"Tunadalshamnen","lat":62.411463,"lon":17.382117},{"id":"65559","name":"Tunadalssågen","lat":62.418295,"lon":17.381895},{"id":"65560","name":"Alnöbron västra","lat":62.432034,"lon":17.3844},{"id":"65561","name":"Kavelvägen","lat":63.285635,"lon":18.614988},{"id":"65562","name":"Nyland/Strandvägen","lat":63.017104,"lon":17.770451},{"id":"65563","name":"Åsvägen","lat":63.296644,"lon":18.678768},{"id":"65564","name":"Nyland/Folkets hus","lat":63.006207,"lon":17.756351},{"id":"65565","name":"Drevstigen","lat":63.253314,"lon":18.726954},{"id":"65566","name":"Nolaskolan/Viktoriaespl.","lat":63.294185,"lon":18.717646},{"id":"65569","name":"Västloning","lat":62.619219,"lon":16.984812},{"id":"65570","name":"Berge","lat":62.708607,"lon":17.860952},{"id":"65571","name":"Berghamn","lat":62.814293,"lon":18.238054},{"id":"65572","name":"Bergeforsen","lat":62.525096,"lon":17.386835},{"id":"65573","name":"Bjällsta","lat":63.216957,"lon":18.373778},{"id":"65574","name":"Bjärtrå Sahlbergs","lat":62.968422,"lon":17.893333},{"id":"65576","name":"Björnås","lat":62.903259,"lon":18.349513},{"id":"65578","name":"Bredsjön","lat":62.70612,"lon":17.084763},{"id":"65579","name":"Bygdom","lat":63.33952,"lon":18.891586},{"id":"65582","name":"Fläderbacken","lat":63.259379,"lon":18.809089},{"id":"65584","name":"Dynäs","lat":62.970537,"lon":17.725851},{"id":"65586","name":"Edsele väg 331","lat":63.412139,"lon":16.560274},{"id":"65587","name":"Erikslund skolan","lat":62.526734,"lon":15.91251},{"id":"65588","name":"Vangsta vändplan","lat":62.622641,"lon":17.983876},{"id":"65590","name":"Fagerviks skola","lat":62.503962,"lon":17.40499},{"id":"65591","name":"Finnsta Ö","lat":62.478494,"lon":16.197207},{"id":"65592","name":"Fors Länsv 352","lat":63.416585,"lon":18.598832},{"id":"65593","name":"Forsed","lat":63.002826,"lon":17.525062},{"id":"65594","name":"Ed Forsmo Rv 90","lat":63.240622,"lon":17.207839},{"id":"65595","name":"Frånö Folkets hus","lat":62.905536,"lon":17.825298},{"id":"65596","name":"Forsmo kraftverk","lat":63.270724,"lon":17.201589},{"id":"65597","name":"Fanom","lat":63.120431,"lon":17.706464},{"id":"65598","name":"Fuske","lat":62.658296,"lon":17.261119},{"id":"65599","name":"Gim bron","lat":62.468085,"lon":16.324436},{"id":"65600","name":"Gimåfors","lat":62.671604,"lon":16.418388},{"id":"65601","name":"Gottne vägsk","lat":63.429894,"lon":18.425074},{"id":"65602","name":"Gårelehöjden","lat":63.599595,"lon":16.817695},{"id":"65604","name":"Gullgård s:a Kräppaboa","lat":62.48795,"lon":16.123162},{"id":"65605","name":"Västra Brattåsvägskälet","lat":62.422678,"lon":16.450476},{"id":"65607","name":"Hemling Uno X","lat":63.653758,"lon":18.543836},{"id":"65608","name":"Hjältanstorp kapellet","lat":62.344624,"lon":16.367574},{"id":"65609","name":"Holafors","lat":63.541905,"lon":16.840647},{"id":"65610","name":"Holmsjö","lat":63.675262,"lon":17.43816},{"id":"65611","name":"Myrängsvägen","lat":63.304371,"lon":18.734042},{"id":"65612","name":"Hussborg","lat":62.498373,"lon":16.015435},{"id":"65613","name":"Hädanberg","lat":63.565792,"lon":18.203224},{"id":"65614","name":"Öster-Högsjö","lat":62.524666,"lon":17.106444},{"id":"65616","name":"Husum torget","lat":63.329128,"lon":19.163455},{"id":"65617","name":"Husum Ö-kiosken","lat":63.329944,"lon":19.15396},{"id":"65619","name":"Klökanvägen","lat":62.441561,"lon":17.338047},{"id":"65620","name":"Juniskär","lat":62.29625,"lon":17.45562},{"id":"65621","name":"Järesta","lat":62.944239,"lon":18.252522},{"id":"65622","name":"Kasa","lat":63.329927,"lon":19.057756},{"id":"65623","name":"Klockestrand","lat":62.884607,"lon":17.905741},{"id":"65625","name":"Krok","lat":62.691359,"lon":17.915784},{"id":"65626","name":"Kungsgården","lat":63.014116,"lon":17.828377},{"id":"65628","name":"Kvarsätt","lat":62.419286,"lon":17.147409},{"id":"65629","name":"Kvissleby Centrum","lat":62.301214,"lon":17.377232},{"id":"65630","name":"Kälen g:a affären","lat":62.427541,"lon":16.230571},{"id":"65631","name":"Köja Åkeri","lat":62.975493,"lon":17.816101},{"id":"65632","name":"Lagfors","lat":62.661562,"lon":17.191133},{"id":"65633","name":"Laggarberg ändhpl.","lat":62.454282,"lon":17.263844},{"id":"65634","name":"Loön","lat":63.041846,"lon":17.799458},{"id":"65635","name":"Lunde Wästerlunds","lat":62.881225,"lon":17.869754},{"id":"65636","name":"Lunde övre","lat":62.522168,"lon":17.33795},{"id":"65637","name":"Lugnvik bstn","lat":62.9292,"lon":17.910943},{"id":"65638","name":"Lögdöbruk","lat":62.558166,"lon":17.381258},{"id":"65640","name":"Lövsätt","lat":62.476109,"lon":17.12473},{"id":"65641","name":"Lidebro","lat":62.858111,"lon":18.176266},{"id":"65642","name":"Mark","lat":62.608431,"lon":17.756891},{"id":"65643","name":"Moliden posten","lat":63.378728,"lon":18.455642},{"id":"65644","name":"Mellansel jvstn","lat":63.427908,"lon":18.307919},{"id":"65645","name":"Ljustorp","lat":62.62311,"lon":17.33528},{"id":"65646","name":"Västerbacke","lat":63.400278,"lon":18.45727},{"id":"65647","name":"Munkbysjön, fd affären","lat":62.418002,"lon":16.35666},{"id":"65648","name":"Stångrid","lat":62.448295,"lon":17.612908},{"id":"65649","name":"Nora","lat":62.494205,"lon":16.935661},{"id":"65650","name":"Norafors","lat":62.496386,"lon":17.006643},{"id":"65651","name":"Nordingrå Vallen","lat":62.930733,"lon":18.295421},{"id":"65653","name":"Norrmesunda","lat":63.44671,"lon":18.218242},{"id":"65654","name":"Norrtjärn E4","lat":63.25717,"lon":18.525613},{"id":"65655","name":"Nyadal","lat":62.812757,"lon":17.952917},{"id":"65656","name":"Nyland ICA","lat":63.006042,"lon":17.760447},{"id":"65659","name":"Näsåker Åkeriet","lat":63.440681,"lon":16.907151},{"id":"65660","name":"Näsänget","lat":62.883626,"lon":18.397375},{"id":"65661","name":"Nordvik","lat":62.84883,"lon":18.005791},{"id":"65663","name":"Nässland","lat":62.684881,"lon":17.845849},{"id":"65665","name":"Prästmon Korsningen","lat":63.078166,"lon":17.753072},{"id":"65667","name":"Resele affär","lat":63.332146,"lon":17.072416},{"id":"65668","name":"Risnäs","lat":62.690589,"lon":17.556121},{"id":"65670","name":"Rö g:la skolan","lat":62.716861,"lon":17.968167},{"id":"65672","name":"Risbäck","lat":63.571558,"lon":18.093045},{"id":"65673","name":"Rosböle","lat":62.479929,"lon":17.608303},{"id":"65674","name":"Antjärn vändplan","lat":62.586204,"lon":17.778345},{"id":"65675","name":"Salsåker","lat":62.997616,"lon":18.241452},{"id":"65676","name":"Salteå","lat":62.894529,"lon":18.142299},{"id":"65678","name":"Sandarna","lat":62.539612,"lon":17.396738},{"id":"65679","name":"Sandslån","lat":63.011744,"lon":17.795666},{"id":"65681","name":"Sel","lat":63.00849,"lon":17.557146},{"id":"65682","name":"Selsjön Rv 90","lat":63.297254,"lon":17.213779},{"id":"65683","name":"Sidensjö k:a/bron","lat":63.292564,"lon":18.294579},{"id":"65684","name":"Sjöbotten","lat":63.016722,"lon":17.462283},{"id":"65685","name":"Sjösvedjan","lat":62.500119,"lon":17.363756},{"id":"65686","name":"Sjöändan fd Macken","lat":62.587933,"lon":16.799263},{"id":"65687","name":"Skog samhälle","lat":62.916342,"lon":18.028925},{"id":"65688","name":"Skorped Centrum","lat":63.384813,"lon":17.854458},{"id":"65689","name":"Skottsund","lat":62.291179,"lon":17.386923},{"id":"65690","name":"Skäggsta","lat":62.482906,"lon":17.536829},{"id":"65692","name":"Storborgaren","lat":63.688696,"lon":18.266492},{"id":"65693","name":"Ström","lat":63.289005,"lon":18.840579},{"id":"65694","name":"Styrnäs K:a","lat":63.087304,"lon":17.775621},{"id":"65695","name":"Sunnansjö","lat":63.237008,"lon":18.362977},{"id":"65696","name":"Svanö FH","lat":62.897038,"lon":17.87598},{"id":"65697","name":"Broskolan","lat":63.277181,"lon":18.650552},{"id":"65698","name":"Berglundavägen/Klockgatan","lat":62.513794,"lon":17.378392},{"id":"65699","name":"Sörmesunda Lv 348","lat":63.433973,"lon":18.178027},{"id":"65700","name":"Söråker köpcent","lat":62.506414,"lon":17.506646},{"id":"65701","name":"Skulnäs E4","lat":63.166777,"lon":18.424406},{"id":"65703","name":"Tannflo","lat":63.390735,"lon":16.951467},{"id":"65704","name":"Torrom","lat":62.871824,"lon":18.08331},{"id":"65706","name":"Torsböle","lat":63.3793,"lon":18.898499},{"id":"65707","name":"Tynderösundet","lat":62.431365,"lon":17.673775},{"id":"65709","name":"Tängstamon","lat":63.348217,"lon":17.009042},{"id":"65710","name":"Norrtannflo","lat":63.390823,"lon":16.979297},{"id":"65711","name":"Tallnäsvägen 49","lat":62.501502,"lon":17.353251},{"id":"65714","name":"Uddvägen","lat":62.926567,"lon":17.830744},{"id":"65715","name":"Ulvvik, Bruket","lat":62.678044,"lon":17.871485},{"id":"65716","name":"Undrom Affär","lat":63.11884,"lon":17.740532},{"id":"65717","name":"Varglund","lat":62.725511,"lon":18.021316},{"id":"65718","name":"Vike","lat":62.69674,"lon":16.551164},{"id":"65719","name":"Viken Treklövern","lat":62.483719,"lon":16.155678},{"id":"65720","name":"Västansjö hpl 24","lat":63.355606,"lon":18.647689},{"id":"65721","name":"Västerhus","lat":63.324399,"lon":18.551468},{"id":"65722","name":"Västersel","lat":63.255202,"lon":18.370562},{"id":"65723","name":"Vävland Fågelvägen","lat":62.479625,"lon":17.29448},{"id":"65724","name":"Circle K Vattjom","lat":62.364693,"lon":17.033194},{"id":"65725","name":"Viskan anstalten","lat":62.442194,"lon":16.426823},{"id":"65727","name":"Ådal","lat":62.86217,"lon":18.333673},{"id":"65729","name":"Önskan","lat":63.438298,"lon":17.783879},{"id":"65730","name":"Överskog Röväg","lat":62.745644,"lon":17.916919},{"id":"65731","name":"Överå","lat":63.331571,"lon":18.057155},{"id":"65732","name":"Forsmo/Öhn","lat":63.241042,"lon":17.192395},{"id":"65733","name":"Sandviken P-hemmet","lat":62.968044,"lon":17.746097},{"id":"65734","name":"Norrfällsviken","lat":62.972958,"lon":18.523479},{"id":"65735","name":"Vallaskolan","lat":63.163056,"lon":17.277314},{"id":"65736","name":"OK/Q8 Storgatan","lat":63.161185,"lon":17.306971},{"id":"65737","name":"Blomkålsgatan","lat":62.527699,"lon":17.37963},{"id":"65739","name":"Sandbacken E4","lat":62.707481,"lon":17.870979},{"id":"65740","name":"Ytterskog","lat":62.723959,"lon":17.873498},{"id":"65743","name":"Tävra","lat":63.313514,"lon":18.963435},{"id":"65745","name":"Västeraspby väg 786","lat":63.066852,"lon":17.750218},{"id":"65757","name":"Tynnerås","lat":63.481272,"lon":16.50029},{"id":"65759","name":"Västerrå","lat":63.322446,"lon":17.125916},{"id":"65760","name":"Höven","lat":63.34621,"lon":17.065864},{"id":"65761","name":"Vigdan","lat":63.483931,"lon":16.862374},{"id":"65762","name":"Lilltjärnmyran","lat":63.49942,"lon":16.864351},{"id":"65763","name":"Osele","lat":63.654889,"lon":16.787702},{"id":"65766","name":"Yttersel","lat":63.284447,"lon":17.196671},{"id":"65767","name":"Vignäs","lat":63.320239,"lon":17.100451},{"id":"65768","name":"Omne","lat":62.948867,"lon":18.359702},{"id":"65769","name":"Vännersta","lat":62.932325,"lon":18.217665},{"id":"65770","name":"Skullersta","lat":62.859214,"lon":18.025313},{"id":"65771","name":"Överveda","lat":62.969263,"lon":18.255265},{"id":"65772","name":"Svartnora","lat":62.805517,"lon":18.023837},{"id":"65773","name":"Rystrand","lat":62.832139,"lon":17.915836},{"id":"65774","name":"Kåsta","lat":62.89514,"lon":18.343281},{"id":"65775","name":"Själevad Friluftscentral","lat":63.289593,"lon":18.610507},{"id":"65776","name":"Drömme","lat":63.253833,"lon":18.258239},{"id":"65777","name":"Bäckvägen","lat":63.232265,"lon":18.650533},{"id":"65778","name":"Överbilla","lat":63.313254,"lon":18.505173},{"id":"65779","name":"Kornsjö","lat":63.215247,"lon":18.425149},{"id":"65780","name":"Orrvik","lat":63.239369,"lon":18.315085},{"id":"65781","name":"Fröstdal","lat":63.244273,"lon":18.428416},{"id":"65782","name":"Nybyn","lat":63.328768,"lon":18.251855},{"id":"65783","name":"Skureå","lat":63.333303,"lon":18.145306},{"id":"65784","name":"Uberg","lat":63.368959,"lon":17.983317},{"id":"65785","name":"Stugusjö","lat":63.384745,"lon":17.742924},{"id":"65787","name":"Happsta lv. 348","lat":63.33411,"lon":18.514559},{"id":"65789","name":"Österfannbyn","lat":63.451454,"lon":18.143336},{"id":"65790","name":"Degersjövägen","lat":63.796219,"lon":17.564885},{"id":"65791","name":"Peresjö","lat":63.482092,"lon":18.579523},{"id":"65792","name":"Fällkäl","lat":63.638101,"lon":18.229932},{"id":"65793","name":"Kvaved","lat":63.257944,"lon":18.939742},{"id":"65794","name":"Stigsjö kyrka","lat":62.638098,"lon":17.673569},{"id":"65796","name":"Roggafors","lat":62.481373,"lon":16.237347},{"id":"65797","name":"Brännan","lat":62.513677,"lon":15.676994},{"id":"65798","name":"Gårdnäs","lat":63.16269,"lon":17.48742},{"id":"65799","name":"Åsäng","lat":62.607646,"lon":17.40215},{"id":"65800","name":"Österalnö","lat":63.358303,"lon":18.517877},{"id":"65801","name":"Hammarsbron","lat":63.023086,"lon":17.786896},{"id":"65802","name":"Hällingen","lat":62.622474,"lon":16.737267},{"id":"65803","name":"Sörberge norra","lat":62.515789,"lon":17.390847},{"id":"65804","name":"Industriområdet","lat":62.497661,"lon":17.324642},{"id":"65805","name":"Åvikebruk","lat":62.510706,"lon":17.724716},{"id":"65806","name":"Edsta norra","lat":62.647916,"lon":17.320155},{"id":"65807","name":"Nysäter","lat":62.565853,"lon":16.912608},{"id":"65809","name":"Holmsjö vsk","lat":63.640486,"lon":17.415617},{"id":"65810","name":"Västertorp","lat":62.995918,"lon":17.381607},{"id":"65811","name":"Skedomsmon","lat":63.174757,"lon":17.305647},{"id":"65813","name":"Sollefteå Torget","lat":63.168135,"lon":17.26691},{"id":"65815","name":"G:a Prästgårdsvägen","lat":63.162579,"lon":17.273201},{"id":"65816","name":"Solgården","lat":63.167679,"lon":17.284079},{"id":"65817","name":"Järnvägsgatan","lat":63.169709,"lon":17.258691},{"id":"65818","name":"Långgatan","lat":63.165571,"lon":17.266702},{"id":"65819","name":"Gärdesgatan","lat":63.165048,"lon":17.253753},{"id":"65820","name":"Hallstavägen","lat":63.166395,"lon":17.251914},{"id":"65821","name":"Ärtriksvägen","lat":63.171882,"lon":17.239977},{"id":"65822","name":"Barnpsyk","lat":63.173945,"lon":17.231124},{"id":"65823","name":"Krokvägen","lat":63.177073,"lon":17.279911},{"id":"65824","name":"Linjevägen","lat":63.178205,"lon":17.282372},{"id":"65825","name":"Nipstadsgatan","lat":63.164827,"lon":17.271765},{"id":"65826","name":"Söderleden","lat":63.157257,"lon":17.271483},{"id":"65828","name":"G:a Ådalsvägen","lat":62.647333,"lon":17.896052},{"id":"65830","name":"Ädelhem","lat":62.633911,"lon":17.966745},{"id":"65832","name":"Lingonstigen","lat":62.632836,"lon":17.974719},{"id":"65833","name":"Aspvägen","lat":62.635189,"lon":17.916451},{"id":"65834","name":"Landgrenshallen","lat":62.63467,"lon":17.950616},{"id":"65835","name":"Johan Nybergs väg","lat":62.637705,"lon":17.951732},{"id":"65836","name":"Mosstigen","lat":62.624076,"lon":17.907534},{"id":"65837","name":"Skördevägen","lat":62.643182,"lon":17.888504},{"id":"65839","name":"Hälletorp/Furuvägen","lat":62.636357,"lon":17.906784},{"id":"65840","name":"Byvägen","lat":62.645193,"lon":17.889114},{"id":"65842","name":"Gerestaskolan","lat":62.624302,"lon":17.965305},{"id":"65845","name":"Roslingsvägen","lat":62.617475,"lon":17.906638},{"id":"65846","name":"Hälletorpsvägen","lat":62.634574,"lon":17.910207},{"id":"65848","name":"Hedda Wisingskolan","lat":62.630689,"lon":17.950347},{"id":"65849","name":"Kusthöjden","lat":62.640205,"lon":17.960162},{"id":"65850","name":"Koltrastvägen","lat":62.61856,"lon":17.951674},{"id":"65851","name":"Folkhögskolan","lat":62.641911,"lon":17.930718},{"id":"65852","name":"Härnösands gymnasium","lat":62.635768,"lon":17.948667},{"id":"65855","name":"Wendela Hellmanskolan","lat":62.639227,"lon":17.927211},{"id":"65857","name":"Olof Högbergsgatan","lat":62.619235,"lon":17.907795},{"id":"65858","name":"Pumpbacksgatan","lat":62.633053,"lon":17.945449},{"id":"65859","name":"Roslingsvägen 3","lat":62.619525,"lon":17.905769},{"id":"65860","name":"Tallvägen","lat":62.633433,"lon":17.913226},{"id":"65861","name":"Närvården S entrén","lat":62.624112,"lon":17.930147},{"id":"65862","name":"Sockenvägen","lat":62.620805,"lon":17.90662},{"id":"65864","name":"Flodins bageri","lat":62.624668,"lon":17.913579},{"id":"65866","name":"Tullportsparken","lat":62.628093,"lon":17.931055},{"id":"65868","name":"Trossgatan","lat":62.627846,"lon":17.924858},{"id":"65869","name":"V:a Ringvägen","lat":62.627504,"lon":17.915944},{"id":"65870","name":"Hemab","lat":62.629944,"lon":17.913096},{"id":"65872","name":"Ångströmsgatan","lat":62.62561,"lon":17.967797},{"id":"65873","name":"Nya Kyrkogården","lat":62.61747,"lon":17.941403},{"id":"65875","name":"Ängetskolan","lat":63.312627,"lon":18.689365},{"id":"65877","name":"Kilgatan","lat":63.280496,"lon":18.710023},{"id":"65878","name":"Cisternvägen","lat":63.277407,"lon":18.709613},{"id":"65879","name":"Varvsbergsvägen","lat":63.27489,"lon":18.703139},{"id":"65880","name":"Hörnettrondellen","lat":63.272367,"lon":18.692121},{"id":"65881","name":"Sundsbron","lat":63.267958,"lon":18.690823},{"id":"65882","name":"Sund Centrum","lat":63.266434,"lon":18.689814},{"id":"65883","name":"Sundhem","lat":63.264481,"lon":18.687387},{"id":"65884","name":"Södra Doktorsgatan","lat":63.263028,"lon":18.68778},{"id":"65885","name":"Geneskolan","lat":63.260956,"lon":18.693451},{"id":"65886","name":"Nybyggarevägen","lat":63.258795,"lon":18.698177},{"id":"65887","name":"Båtsmansgatan","lat":63.256652,"lon":18.705534},{"id":"65888","name":"Humlegårdsvägen","lat":63.256258,"lon":18.712528},{"id":"65889","name":"Grindvägen","lat":63.254484,"lon":18.714541},{"id":"65890","name":"Tolvmansgatan","lat":63.251982,"lon":18.717476},{"id":"65891","name":"Tjärnmyrvägen","lat":63.25279,"lon":18.721841},{"id":"65892","name":"Domsjöskolan","lat":63.256591,"lon":18.719495},{"id":"65893","name":"Stallbacken","lat":63.2588,"lon":18.716848},{"id":"65894","name":"Kullvägen","lat":63.260878,"lon":18.714487},{"id":"65895","name":"Stockbacken","lat":63.262895,"lon":18.719433},{"id":"65896","name":"Såggatan","lat":63.262078,"lon":18.73083},{"id":"65897","name":"Listvägen","lat":63.261391,"lon":18.735403},{"id":"65898","name":"Skidsta","lat":63.260578,"lon":18.740004},{"id":"65899","name":"Solbacksvägen","lat":63.258954,"lon":18.749523},{"id":"65900","name":"Vårby","lat":63.257358,"lon":18.752867},{"id":"65901","name":"Lotsen","lat":63.255431,"lon":18.755341},{"id":"65902","name":"Bryggan","lat":63.25396,"lon":18.75786},{"id":"65903","name":"Båten","lat":63.252006,"lon":18.762004},{"id":"65904","name":"Fyren","lat":63.247768,"lon":18.769339},{"id":"65905","name":"Köpmangatan","lat":63.290868,"lon":18.717411},{"id":"65906","name":"Nolaskolan","lat":63.293377,"lon":18.715888},{"id":"65907","name":"Lärlingsvägen","lat":63.305753,"lon":18.713026},{"id":"65908","name":"Karosserivägen","lat":63.309054,"lon":18.711004},{"id":"65909","name":"Gullänget Centrum","lat":63.314242,"lon":18.703541},{"id":"65910","name":"Ekorrvägen","lat":63.314992,"lon":18.697567},{"id":"65911","name":"Lindblomsvägen","lat":63.315345,"lon":18.692571},{"id":"65912","name":"Gärdesvägen","lat":63.315884,"lon":18.686336},{"id":"65913","name":"Älgvägen","lat":63.316297,"lon":18.680987},{"id":"65914","name":"Långvägen","lat":63.317206,"lon":18.674209},{"id":"65915","name":"Skärpevägen","lat":63.317659,"lon":18.672198},{"id":"65917","name":"Skärpeskolan","lat":63.321639,"lon":18.670277},{"id":"65920","name":"Rektorsvägen","lat":63.31563,"lon":18.688687},{"id":"65921","name":"4:e Tvärgatan","lat":63.284871,"lon":18.733559},{"id":"65922","name":"Gammelängsvägen","lat":63.282726,"lon":18.738786},{"id":"65923","name":"Järvhagavägen","lat":63.281328,"lon":18.742572},{"id":"65924","name":"Bergsprängarvägen","lat":63.273832,"lon":18.756423},{"id":"65925","name":"Järveds Centrum","lat":63.272114,"lon":18.762188},{"id":"65926","name":"Skomakarvägen","lat":63.270647,"lon":18.76756},{"id":"65927","name":"Krukmakarvägen","lat":63.26947,"lon":18.773639},{"id":"65928","name":"Alneskogen","lat":63.260341,"lon":18.770947},{"id":"65930","name":"Kabyssvägen","lat":63.260463,"lon":18.782299},{"id":"65931","name":"Mesanvägen","lat":63.264824,"lon":18.785837},{"id":"65932","name":"Norra Skepparvägen","lat":63.266931,"lon":18.788148},{"id":"65934","name":"Dekarsövägen","lat":63.272857,"lon":18.807341},{"id":"65935","name":"Örnsköldsgatan","lat":63.291711,"lon":18.711312},{"id":"65936","name":"Linden","lat":63.292328,"lon":18.708761},{"id":"65937","name":"Själevadsgatan","lat":63.294732,"lon":18.700503},{"id":"65938","name":"Åsgatan","lat":63.295823,"lon":18.69363},{"id":"65939","name":"Kamgatan","lat":63.296269,"lon":18.680008},{"id":"65940","name":"Norrbergsvägen","lat":63.298015,"lon":18.672679},{"id":"65941","name":"Kurvgränd","lat":63.298093,"lon":18.668338},{"id":"65942","name":"Västerås","lat":63.298505,"lon":18.657205},{"id":"65943","name":"Västeråsvägen","lat":63.298341,"lon":18.650145},{"id":"65945","name":"Onsdagsvägen","lat":63.300274,"lon":18.636029},{"id":"65946","name":"Nordhemsvägen","lat":63.297368,"lon":18.630456},{"id":"65947","name":"Prosten Holmsväg","lat":63.29553,"lon":18.619004},{"id":"65948","name":"Margaretavägen","lat":63.299284,"lon":18.613006},{"id":"65949","name":"Lovisavägen","lat":63.300533,"lon":18.608837},{"id":"65950","name":"Mycklingskolan","lat":63.300102,"lon":18.601991},{"id":"65951","name":"Tallgårdsvägen","lat":63.302373,"lon":18.590558},{"id":"65952","name":"Österalnäs","lat":63.303413,"lon":18.586966},{"id":"65953","name":"Alnäsbacken","lat":63.301943,"lon":18.584071},{"id":"65954","name":"Hampnäs","lat":63.299649,"lon":18.587102},{"id":"65955","name":"Mjödvägen","lat":63.298504,"lon":18.591481},{"id":"65956","name":"Kristinavägen","lat":63.297187,"lon":18.598217},{"id":"65957","name":"Prästbordsgränd","lat":63.294368,"lon":18.605066},{"id":"65958","name":"Själevad Kyrka","lat":63.29308,"lon":18.608911},{"id":"65959","name":"Hörnettvägen","lat":63.27471,"lon":18.680174},{"id":"65960","name":"Axgränd","lat":63.260191,"lon":18.685105},{"id":"65961","name":"Sundskolan","lat":63.261499,"lon":18.680354},{"id":"65962","name":"Hamptjärnsvägen","lat":63.263471,"lon":18.674312},{"id":"65963","name":"Hallbacken","lat":63.266628,"lon":18.672653},{"id":"65964","name":"Svedjeholmsvägen","lat":63.26799,"lon":18.674601},{"id":"65965","name":"Timotejvägen","lat":63.269035,"lon":18.671297},{"id":"65966","name":"Mårtensgärdan","lat":63.271165,"lon":18.665807},{"id":"65967","name":"Båtmanstorpet","lat":63.272067,"lon":18.66472},{"id":"65968","name":"Starrholmsvägen","lat":63.274687,"lon":18.659876},{"id":"65969","name":"Lertagsvägen","lat":63.275842,"lon":18.656023},{"id":"65970","name":"Sanatorievägen","lat":63.30776,"lon":18.708818},{"id":"65971","name":"Rundvägen","lat":63.307159,"lon":18.703508},{"id":"65972","name":"Humlevägen","lat":63.309175,"lon":18.704628},{"id":"65973","name":"Söränget Sjukhem","lat":63.311207,"lon":18.70092},{"id":"65974","name":"Söränget","lat":63.312532,"lon":18.701572},{"id":"65975","name":"Gimåt","lat":63.31918,"lon":18.710148},{"id":"65976","name":"Brushanevägen","lat":63.317515,"lon":18.714752},{"id":"65977","name":"Tranvägen","lat":63.317068,"lon":18.71906},{"id":"65978","name":"Lövsångarvägen","lat":63.319485,"lon":18.715909},{"id":"65979","name":"Trastvägen","lat":63.320867,"lon":18.710198},{"id":"65980","name":"Svanvägen","lat":63.320305,"lon":18.706048},{"id":"65981","name":"Industrigränd","lat":63.303031,"lon":18.720136},{"id":"65982","name":"Hästmarksvägen","lat":63.30285,"lon":18.731193},{"id":"65983","name":"Brädgårdsgränd","lat":63.306956,"lon":18.742368},{"id":"65984","name":"Solviksvägen","lat":63.309632,"lon":18.736672},{"id":"65985","name":"Högland","lat":63.312718,"lon":18.737685},{"id":"65986","name":"Höglandskolan","lat":63.310896,"lon":18.74287},{"id":"65988","name":"Härbrevägen","lat":63.310196,"lon":18.762421},{"id":"65989","name":"Nibblingsvägen","lat":63.310876,"lon":18.77333},{"id":"65990","name":"Skortsed","lat":63.312817,"lon":18.787405},{"id":"65991","name":"Vårdhemsvägen","lat":63.313796,"lon":18.789124},{"id":"65992","name":"Arnäs församlingshem","lat":63.319189,"lon":18.792697},{"id":"65993","name":"Arnäsrondellen","lat":63.316348,"lon":18.792902},{"id":"65994","name":"Valla Sjukhem","lat":63.299709,"lon":18.727602},{"id":"65995","name":"Valhallavägen","lat":63.300631,"lon":18.729951},{"id":"65996","name":"Skyttis","lat":63.297992,"lon":18.732077},{"id":"65997","name":"Baldersvägen","lat":63.296749,"lon":18.728759},{"id":"65998","name":"Vintergatan","lat":63.294174,"lon":18.728697},{"id":"65999","name":"Midgårdsvägen","lat":63.292555,"lon":18.731466},{"id":"66000","name":"Parkskolan","lat":63.290931,"lon":18.734453},{"id":"66001","name":"Järvstagatan","lat":63.289676,"lon":18.739173},{"id":"66002","name":"Lingbo","lat":63.288684,"lon":18.743281},{"id":"66003","name":"Sörliden","lat":63.286612,"lon":18.746241},{"id":"66004","name":"Ålen","lat":63.284208,"lon":18.745697},{"id":"66005","name":"Salmostaden","lat":63.282707,"lon":18.746661},{"id":"66006","name":"Frejgatan","lat":63.284916,"lon":18.73837},{"id":"66007","name":"3:e Tvärgatan","lat":63.28631,"lon":18.736058},{"id":"66008","name":"Folkets Park","lat":63.287517,"lon":18.734146},{"id":"66009","name":"Museet","lat":63.289426,"lon":18.722472},